unix_time,human_time,x_meters,y_meters,raw_lat,raw_lon,status_quality,raw_nmea
1776287294.2770133,17:08:14.277,0.4209,0.8312,42.44640858,-76.47150115,5,"$GNGGA,210814.000,4226.784515,N,07628.290069,W,5,31,0.54,275.805,M,-33.936,M,1.0,2044*6F"
1776287295.3214533,17:08:15.321,0.3209,0.8682,42.44640892,-76.47150237,5,"$GNGGA,210815.000,4226.784535,N,07628.290142,W,5,31,0.56,275.597,M,-33.936,M,1.0,2044*60"
1776287296.2421098,17:08:16.242,0.314,0.8516,42.44640877,-76.47150245,5,"$GNGGA,210816.000,4226.784526,N,07628.290147,W,5,31,0.60,275.688,M,-33.936,M,1.0,2044*6C"
1776287297.252051,17:08:17.252,0.2497,0.8997,42.4464092,-76.47150323,5,"$GNGGA,210817.000,4226.784552,N,07628.290194,W,5,31,0.63,275.524,M,-33.936,M,1.0,2044*66"
1776287298.248966,17:08:18.248,0.2688,0.933,42.4464095,-76.471503,5,"$GNGGA,210818.000,4226.784570,N,07628.290180,W,5,31,0.57,275.521,M,-33.937,M,1.0,2044*6F"
1776287299.273362,17:08:19.273,0.2812,0.9719,42.44640985,-76.47150285,5,"$GNGGA,210819.000,4226.784591,N,07628.290171,W,5,31,0.58,275.363,M,-33.937,M,1.0,2044*60"
1776287302.2604887,17:08:22.260,0.3127,0.9719,42.44640985,-76.47150247,5,"$GNGGA,210822.000,4226.784591,N,07628.290148,W,5,31,0.63,274.873,M,-33.937,M,1.0,2044*61"
1776287303.2645786,17:08:23.264,0.2442,1.0071,42.44641017,-76.4715033,5,"$GNGGA,210823.000,4226.784610,N,07628.290198,W,5,31,0.68,274.761,M,-33.936,M,1.0,2044*61"
1776287304.263002,17:08:24.263,0.2236,1.096,42.44641097,-76.47150355,5,"$GNGGA,210824.000,4226.784658,N,07628.290213,W,5,31,0.72,274.475,M,-33.937,M,1.0,2044*66"
1776287305.2685184,17:08:25.268,0.1949,1.1998,42.4464119,-76.4715039,5,"$GNGGA,210825.000,4226.784714,N,07628.290234,W,5,31,0.68,274.322,M,-33.937,M,1.0,2044*65"
1776287306.286127,17:08:26.286,0.1825,1.3035,42.44641283,-76.47150405,5,"$GNGGA,210826.000,4226.784770,N,07628.290243,W,5,31,0.67,274.066,M,-33.937,M,1.0,2044*68"
1776287307.2653842,17:08:27.265,0.1579,1.3516,42.44641327,-76.47150435,5,"$GNGGA,210827.000,4226.784796,N,07628.290261,W,5,31,0.71,274.002,M,-33.936,M,1.0,2044*65"
1776287308.2665584,17:08:28.266,0.1099,1.3831,42.44641355,-76.47150493,5,"$GNGGA,210828.000,4226.784813,N,07628.290296,W,5,31,0.71,273.996,M,-33.936,M,1.0,2044*63"
1776287309.2672644,17:08:29.267,0.0784,1.4794,42.44641442,-76.47150532,5,"$GNGGA,210829.000,4226.784865,N,07628.290319,W,5,31,0.71,274.041,M,-33.937,M,1.0,2044*60"
1776287312.2335982,17:08:32.233,0.0072,1.4331,42.446414,-76.47150618,5,"$GNGGA,210832.000,4226.784840,N,07628.290371,W,5,31,0.68,273.681,M,-33.936,M,4.0,2044*62"
1776287313.2832203,17:08:33.283,-0.0202,1.385,42.44641357,-76.47150652,5,"$GNGGA,210833.000,4226.784814,N,07628.290391,W,5,31,0.68,273.545,M,-33.937,M,1.0,2044*63"
1776287314.2338045,17:08:34.233,-0.0339,1.2535,42.44641238,-76.47150668,5,"$GNGGA,210834.000,4226.784743,N,07628.290401,W,5,31,0.66,273.372,M,-33.936,M,2.0,2044*69"
1776287315.264642,17:08:35.264,-0.0188,1.322,42.446413,-76.4715065,5,"$GNGGA,210835.000,4226.784780,N,07628.290390,W,5,31,0.65,273.433,M,-33.936,M,1.0,2044*6A"
1776287316.2261596,17:08:36.226,-0.0243,1.1886,42.4464118,-76.47150657,5,"$GNGGA,210836.000,4226.784708,N,07628.290394,W,5,31,0.66,273.451,M,-33.936,M,1.0,2044*6A"
1776287317.2580438,17:08:37.258,-0.0394,1.0886,42.4464109,-76.47150675,5,"$GNGGA,210837.000,4226.784654,N,07628.290405,W,5,31,0.63,273.318,M,-33.936,M,1.0,2044*63"
1776287318.2735288,17:08:38.273,-0.0997,1.1516,42.44641147,-76.47150748,5,"$GNGGA,210838.000,4226.784688,N,07628.290449,W,5,31,0.54,272.909,M,-33.936,M,1.0,2044*6A"
1776287319.34134,17:08:39.341,-0.0394,1.1498,42.44641145,-76.47150675,5,"$GNGGA,210839.000,4226.784687,N,07628.290405,W,5,31,0.65,272.739,M,-33.936,M,2.0,2044*60"
1776287322.2394683,17:08:42.239,-0.0983,1.1775,42.4464117,-76.47150747,5,"$GNGGA,210842.000,4226.784702,N,07628.290448,W,5,31,0.64,272.567,M,-33.937,M,1.0,2044*63"
1776287323.25461,17:08:43.254,-0.1134,1.1664,42.4464116,-76.47150765,5,"$GNGGA,210843.000,4226.784696,N,07628.290459,W,5,31,0.64,272.639,M,-33.937,M,1.0,2044*66"
1776287324.2231534,17:08:44.223,-0.1271,1.2368,42.44641223,-76.47150782,5,"$GNGGA,210844.000,4226.784734,N,07628.290469,W,5,31,0.63,272.542,M,-33.936,M,1.0,2044*62"
1776287325.3203695,17:08:45.320,-0.1873,1.2183,42.44641207,-76.47150855,5,"$GNGGA,210845.000,4226.784724,N,07628.290513,W,5,31,0.57,272.501,M,-33.936,M,1.0,2044*6E"
1776287326.2349045,17:08:46.234,-0.1668,1.1498,42.44641145,-76.4715083,5,"$GNGGA,210846.000,4226.784687,N,07628.290498,W,5,31,0.66,272.652,M,-33.936,M,1.0,2044*60"
1776287327.2484143,17:08:47.248,-0.1435,1.0608,42.44641065,-76.47150802,5,"$GNGGA,210847.000,4226.784639,N,07628.290481,W,5,31,0.62,272.515,M,-33.936,M,1.0,2044*68"
1776287328.2355018,17:08:48.235,-0.1599,0.9812,42.44640993,-76.47150822,5,"$GNGGA,210848.000,4226.784596,N,07628.290493,W,5,31,0.64,272.477,M,-33.937,M,1.0,2044*60"
1776287329.2640433,17:08:49.264,-0.1627,1.0479,42.44641053,-76.47150825,5,"$GNGGA,210849.000,4226.784632,N,07628.290495,W,5,31,0.62,272.340,M,-33.936,M,2.0,2044*6D"
1776287332.2157545,17:08:52.215,-0.1846,0.9553,42.4464097,-76.47150852,5,"$GNGGA,210852.000,4226.784582,N,07628.290511,W,5,31,0.62,272.453,M,-33.937,M,1.0,2044*65"
1776287333.254278,17:08:53.254,-0.2161,0.8756,42.44640898,-76.4715089,5,"$GNGGA,210853.000,4226.784539,N,07628.290534,W,5,31,0.61,272.795,M,-33.936,M,1.0,2044*68"
1776287334.2543018,17:08:54.254,-0.2312,0.8367,42.44640863,-76.47150908,5,"$GNGGA,210854.000,4226.784518,N,07628.290545,W,5,31,0.62,272.775,M,-33.936,M,1.0,2044*67"
1776287335.318904,17:08:55.318,-0.264,0.8108,42.4464084,-76.47150948,5,"$GNGGA,210855.000,4226.784504,N,07628.290569,W,5,31,0.60,272.812,M,-33.937,M,1.0,2044*68"
1776287336.2327967,17:08:56.232,-0.2914,0.6904,42.44640732,-76.47150982,5,"$GNGGA,210856.000,4226.784439,N,07628.290589,W,5,31,0.63,272.695,M,-33.936,M,1.0,2044*69"
1776287337.2678576,17:08:57.267,-0.2928,0.6237,42.44640672,-76.47150983,5,"$GNGGA,210857.000,4226.784403,N,07628.290590,W,5,31,0.61,272.795,M,-33.936,M,1.0,2044*6A"
1776287338.2603872,17:08:58.260,-0.3175,0.5589,42.44640613,-76.47151013,5,"$GNGGA,210858.000,4226.784368,N,07628.290608,W,5,31,0.61,272.724,M,-33.937,M,1.0,2044*66"
1776287339.261986,17:08:59.261,-0.2942,0.4163,42.44640485,-76.47150985,5,"$GNGGA,210859.000,4226.784291,N,07628.290591,W,5,31,0.63,272.739,M,-33.936,M,1.0,2044*6C"
1776287342.2660475,17:09:02.266,-0.3969,0.3663,42.4464044,-76.4715111,5,"$GNGGA,210902.000,4226.784264,N,07628.290666,W,5,31,0.66,272.256,M,-33.936,M,1.0,2044*6B"
1776287343.277294,17:09:03.277,-0.4024,0.3422,42.44640418,-76.47151117,5,"$GNGGA,210903.000,4226.784251,N,07628.290670,W,5,31,0.63,272.296,M,-33.936,M,1.0,2044*62"
1776287344.2715309,17:09:04.271,-0.427,0.2903,42.44640372,-76.47151147,5,"$GNGGA,210904.000,4226.784223,N,07628.290688,W,5,31,0.64,272.364,M,-33.936,M,1.0,2044*6C"
1776287345.2704332,17:09:05.270,-0.4133,0.1959,42.44640287,-76.4715113,5,"$GNGGA,210905.000,4226.784172,N,07628.290678,W,5,31,0.63,272.320,M,-33.936,M,1.0,2044*62"
1776287346.2636278,17:09:06.263,-0.4312,0.1477,42.44640243,-76.47151152,5,"$GNGGA,210906.000,4226.784146,N,07628.290691,W,5,31,0.57,272.310,M,-33.936,M,1.0,2044*65"
1776287347.2467973,17:09:07.246,-0.4312,0.0384,42.44640145,-76.47151152,5,"$GNGGA,210907.000,4226.784087,N,07628.290691,W,5,31,0.69,272.319,M,-33.937,M,1.0,2044*6D"
1776287348.2371426,17:09:08.237,-0.4229,0.0347,42.44640142,-76.47151142,5,"$GNGGA,210908.000,4226.784085,N,07628.290685,W,5,31,0.64,272.102,M,-33.937,M,1.0,2044*60"
1776287349.2655785,17:09:09.265,-0.4202,-0.0134,42.44640098,-76.47151138,5,"$GNGGA,210909.000,4226.784059,N,07628.290683,W,5,31,0.69,272.221,M,-33.936,M,1.0,2044*68"
1776287352.2589004,17:09:12.258,-0.4736,-0.2542,42.44639882,-76.47151203,5,"$GNGGA,210912.000,4226.783929,N,07628.290722,W,5,31,0.58,272.540,M,-33.937,M,1.0,2044*62"
1776287353.2992392,17:09:13.299,-0.4627,-0.3042,42.44639837,-76.4715119,5,"$GNGGA,210913.000,4226.783902,N,07628.290714,W,5,31,0.63,272.432,M,-33.936,M,1.0,2044*62"
1776287354.2815328,17:09:14.281,-0.438,-0.2375,42.44639897,-76.4715116,5,"$GNGGA,210914.000,4226.783938,N,07628.290696,W,5,31,0.62,272.387,M,-33.936,M,1.0,2044*6F"
1776287355.2630887,17:09:15.263,-0.4161,-0.2542,42.44639882,-76.47151133,5,"$GNGGA,210915.000,4226.783929,N,07628.290680,W,5,31,0.62,272.444,M,-33.937,M,1.0,2044*60"
1776287356.2564402,17:09:16.256,-0.438,-0.3487,42.44639797,-76.4715116,5,"$GNGGA,210916.000,4226.783878,N,07628.290696,W,5,31,0.59,272.241,M,-33.937,M,1.0,2044*6A"
1776287357.254721,17:09:17.254,-0.4709,-0.2987,42.44639842,-76.471512,5,"$GNGGA,210917.000,4226.783905,N,07628.290720,W,5,31,0.61,272.216,M,-33.936,M,1.0,2044*64"
1776287358.2638736,17:09:18.263,-0.4544,-0.3302,42.44639813,-76.4715118,5,"$GNGGA,210918.000,4226.783888,N,07628.290708,W,5,31,0.63,272.354,M,-33.936,M,1.0,2044*60"
1776287359.2460525,17:09:19.246,-0.4476,-0.3802,42.44639768,-76.47151172,5,"$GNGGA,210919.000,4226.783861,N,07628.290703,W,5,31,0.62,272.459,M,-33.936,M,1.0,2044*66"
1776287362.2547193,17:09:22.254,-0.4805,-0.5524,42.44639613,-76.47151212,5,"$GNGGA,210922.000,4226.783768,N,07628.290727,W,5,31,0.61,272.489,M,-33.936,M,1.0,2044*60"
1776287363.2604103,17:09:23.260,-0.4873,-0.6321,42.44639542,-76.4715122,5,"$GNGGA,210923.000,4226.783725,N,07628.290732,W,5,31,0.63,272.490,M,-33.936,M,1.0,2044*66"
1776287364.2412128,17:09:24.241,-0.4914,-0.645,42.4463953,-76.47151225,5,"$GNGGA,210924.000,4226.783718,N,07628.290735,W,5,31,0.61,272.494,M,-33.936,M,1.0,2044*6E"
1776287365.2499998,17:09:25.250,-0.4832,-0.6747,42.44639503,-76.47151215,5,"$GNGGA,210925.000,4226.783702,N,07628.290729,W,5,31,0.61,272.587,M,-33.936,M,1.0,2044*6A"
1776287366.22451,17:09:26.224,-0.4818,-0.595,42.44639575,-76.47151213,5,"$GNGGA,210926.000,4226.783745,N,07628.290728,W,5,31,0.62,272.544,M,-33.937,M,1.0,2044*66"
1776287367.2639832,17:09:27.263,-0.5079,-0.5172,42.44639645,-76.47151245,5,"$GNGGA,210927.000,4226.783787,N,07628.290747,W,5,31,0.60,272.514,M,-33.936,M,1.0,2044*66"
1776287368.2649758,17:09:28.264,-0.4955,-0.4024,42.44639748,-76.4715123,5,"$GNGGA,210928.000,4226.783849,N,07628.290738,W,5,31,0.66,272.577,M,-33.937,M,1.0,2044*6E"
1776287369.24738,17:09:29.247,-0.4599,-0.3468,42.44639798,-76.47151187,5,"$GNGGA,210929.000,4226.783879,N,07628.290712,W,5,31,0.67,272.508,M,-33.937,M,1.0,2044*6D"
1776287372.2534032,17:09:32.253,-0.4366,-0.0468,42.44640068,-76.47151158,5,"$GNGGA,210932.000,4226.784041,N,07628.290695,W,5,32,0.66,272.240,M,-33.936,M,1.0,2044*65"
1776287373.2629504,17:09:33.262,-0.4449,-0.0042,42.44640107,-76.47151168,5,"$GNGGA,210933.000,4226.784064,N,07628.290701,W,5,32,0.69,272.230,M,-33.936,M,1.0,2044*67"
1776287374.2697034,17:09:34.269,-0.4079,0.0662,42.4464017,-76.47151123,5,"$GNGGA,210934.000,4226.784102,N,07628.290674,W,5,32,0.66,272.177,M,-33.936,M,1.0,2044*6D"
1776287375.3274212,17:09:35.327,-0.386,0.1162,42.44640215,-76.47151097,5,"$GNGGA,210935.000,4226.784129,N,07628.290658,W,5,32,0.60,272.095,M,-33.936,M,1.0,2044*60"
1776287376.2850099,17:09:36.285,-0.3777,0.1755,42.44640268,-76.47151087,5,"$GNGGA,210936.000,4226.784161,N,07628.290652,W,5,32,0.67,272.031,M,-33.936,M,1.0,2044*6C"
1776287377.2892418,17:09:37.289,-0.3503,0.2644,42.44640348,-76.47151053,5,"$GNGGA,210937.000,4226.784209,N,07628.290632,W,5,32,0.62,271.995,M,-33.936,M,1.0,2044*67"
1776287378.2898054,17:09:38.289,-0.3202,0.294,42.44640375,-76.47151017,5,"$GNGGA,210938.000,4226.784225,N,07628.290610,W,5,32,0.67,271.987,M,-33.937,M,1.0,2044*61"
1776287379.2683408,17:09:39.268,-0.2928,0.3626,42.44640437,-76.47150983,5,"$GNGGA,210939.000,4226.784262,N,07628.290590,W,5,32,0.62,271.833,M,-33.936,M,1.0,2044*62"
1776287382.2366524,17:09:42.236,-0.2777,0.2829,42.44640365,-76.47150965,5,"$GNGGA,210942.000,4226.784219,N,07628.290579,W,5,32,0.55,272.062,M,-33.936,M,1.0,2044*6E"
1776287383.2502525,17:09:43.250,-0.2901,0.1181,42.44640217,-76.4715098,5,"$GNGGA,210943.000,4226.784130,N,07628.290588,W,5,32,0.63,272.475,M,-33.937,M,1.0,2044*6F"
1776287384.244406,17:09:44.244,-0.3709,0.0032,42.44640113,-76.47151078,5,"$GNGGA,210944.000,4226.784068,N,07628.290647,W,5,32,0.68,272.601,M,-33.936,M,2.0,2044*6C"
1776287385.2732418,17:09:45.273,-0.3901,-0.0523,42.44640063,-76.47151102,5,"$GNGGA,210945.000,4226.784038,N,07628.290661,W,5,32,0.68,272.680,M,-33.936,M,3.0,2044*64"
1776287386.2269773,17:09:46.226,-0.3942,-0.0523,42.44640063,-76.47151107,5,"$GNGGA,210946.000,4226.784038,N,07628.290664,W,5,32,0.69,272.696,M,-33.936,M,4.0,2044*63"
1776287387.2859383,17:09:47.285,-0.386,-0.0708,42.44640047,-76.47151097,5,"$GNGGA,210947.000,4226.784028,N,07628.290658,W,5,32,0.66,272.719,M,-33.937,M,5.0,2044*65"
1776287388.2482584,17:09:48.248,-0.3846,-0.0708,42.44640047,-76.47151095,5,"$GNGGA,210948.000,4226.784028,N,07628.290657,W,5,32,0.54,272.738,M,-33.937,M,6.0,2044*64"
1776287389.2697213,17:09:49.269,-0.3764,-0.056,42.4464006,-76.47151085,5,"$GNGGA,210949.000,4226.784036,N,07628.290651,W,5,32,0.57,272.746,M,-33.936,M,7.0,2044*66"
1776287392.2805982,17:09:52.280,-0.4161,-0.0671,42.4464005,-76.47151133,5,"$GNGGA,210952.000,4226.784030,N,07628.290680,W,5,32,0.70,272.733,M,-33.936,M,10.0,2044*57"
1776287393.293705,17:09:53.293,-0.4133,-0.0727,42.44640045,-76.4715113,5,"$GNGGA,210953.000,4226.784027,N,07628.290678,W,5,32,0.72,272.740,M,-33.936,M,11.0,2044*50"
1776287394.2805057,17:09:54.280,-0.3887,-0.0616,42.44640055,-76.471511,5,"$GNGGA,210954.000,4226.784033,N,07628.290660,W,5,32,0.59,272.737,M,-33.936,M,12.0,2044*51"
1776287395.30735,17:09:55.307,-0.3887,-0.0653,42.44640052,-76.471511,5,"$GNGGA,210955.000,4226.784031,N,07628.290660,W,5,32,0.72,272.760,M,-33.937,M,13.0,2044*59"
1776287396.2470298,17:09:56.247,-0.375,-0.0727,42.44640045,-76.47151083,5,"$GNGGA,210956.000,4226.784027,N,07628.290650,W,5,32,0.71,272.818,M,-33.937,M,14.0,2044*5A"
1776287397.268888,17:09:57.268,-0.4175,-0.1023,42.44640018,-76.47151135,5,"$GNGGA,210957.000,4226.784011,N,07628.290681,W,5,32,0.72,272.802,M,-33.936,M,15.0,2044*5A"
1776287398.233666,17:09:58.233,-0.4284,-0.1042,42.44640017,-76.47151148,5,"$GNGGA,210958.000,4226.784010,N,07628.290689,W,5,32,0.66,272.800,M,-33.937,M,16.0,2044*59"
1776287399.2607868,17:09:59.260,-0.4147,-0.1097,42.44640012,-76.47151132,5,"$GNGGA,210959.000,4226.784007,N,07628.290679,W,5,32,0.67,272.792,M,-33.936,M,17.0,2044*54"
1776287402.2872617,17:10:02.287,-0.4805,-0.1357,42.44639988,-76.47151212,5,"$GNGGA,211002.000,4226.783993,N,07628.290727,W,5,32,0.57,272.770,M,-33.937,M,20.0,2044*51"
1776287403.2985692,17:10:03.298,-0.4983,-0.1394,42.44639985,-76.47151233,5,"$GNGGA,211003.000,4226.783991,N,07628.290740,W,5,32,0.66,272.767,M,-33.937,M,21.0,2044*56"
1776287404.2816873,17:10:04.281,-0.5092,-0.1301,42.44639993,-76.47151247,5,"$GNGGA,211004.000,4226.783996,N,07628.290748,W,5,32,0.65,272.749,M,-33.936,M,22.0,2044*53"
1776287405.3033855,17:10:05.303,-0.5161,-0.1283,42.44639995,-76.47151255,5,"$GNGGA,211005.000,4226.783997,N,07628.290753,W,5,32,0.66,272.735,M,-33.936,M,23.0,2044*50"
1776287406.2847764,17:10:06.284,-0.527,-0.1338,42.4463999,-76.47151268,5,"$GNGGA,211006.000,4226.783994,N,07628.290761,W,5,32,0.66,272.723,M,-33.937,M,24.0,2044*50"
1776287407.3057144,17:10:07.305,-0.5325,-0.1172,42.44640005,-76.47151275,5,"$GNGGA,211007.000,4226.784003,N,07628.290765,W,5,32,0.67,272.699,M,-33.937,M,25.0,2044*55"
1776287408.3004024,17:10:08.300,-0.5339,-0.1153,42.44640007,-76.47151277,5,"$GNGGA,211008.000,4226.784004,N,07628.290766,W,5,32,0.56,272.701,M,-33.936,M,26.0,2044*5E"
1776287409.3005538,17:10:09.300,-0.5544,-0.1079,42.44640013,-76.47151302,5,"$GNGGA,211009.000,4226.784008,N,07628.290781,W,5,32,0.64,272.659,M,-33.936,M,27.0,2044*56"
1776287412.2775867,17:10:12.277,-0.5873,-0.1005,42.4464002,-76.47151342,5,"$GNGGA,211012.000,4226.784012,N,07628.290805,W,5,32,0.64,272.634,M,-33.937,M,30.0,2044*58"
1776287413.3026507,17:10:13.302,-0.6065,-0.1172,42.44640005,-76.47151365,5,"$GNGGA,211013.000,4226.784003,N,07628.290819,W,5,31,0.69,272.621,M,-33.937,M,31.0,2044*5F"
1776287414.2890985,17:10:14.289,-0.6161,-0.0875,42.44640032,-76.47151377,5,"$GNGGA,211014.000,4226.784019,N,07628.290826,W,5,32,0.70,272.582,M,-33.936,M,32.0,2044*5C"
1776287415.302151,17:10:15.302,-0.6229,-0.0857,42.44640033,-76.47151385,5,"$GNGGA,211015.000,4226.784020,N,07628.290831,W,5,32,0.66,272.555,M,-33.937,M,33.0,2044*5C"
1776287416.2645917,17:10:16.264,-0.6257,-0.0783,42.4464004,-76.47151388,5,"$GNGGA,211016.000,4226.784024,N,07628.290833,W,5,32,0.70,272.559,M,-33.936,M,34.0,2044*54"
1776287417.2852485,17:10:17.285,-0.6243,-0.0542,42.44640062,-76.47151387,5,"$GNGGA,211017.000,4226.784037,N,07628.290832,W,5,32,0.70,272.546,M,-33.937,M,35.0,2044*58"
1776287418.2560766,17:10:18.256,-0.6202,-0.0319,42.44640082,-76.47151382,5,"$GNGGA,211018.000,4226.784049,N,07628.290829,W,5,32,0.64,272.523,M,-33.936,M,36.0,2044*50"
1776287419.2918267,17:10:19.291,-0.6161,-0.0264,42.44640087,-76.47151377,5,"$GNGGA,211019.000,4226.784052,N,07628.290826,W,5,32,0.63,272.532,M,-33.936,M,37.0,2044*52"
1776287422.2711253,17:10:22.271,-0.6435,0.0032,42.44640113,-76.4715141,5,"$GNGGA,211022.000,4226.784068,N,07628.290846,W,5,32,0.56,272.456,M,-33.936,M,40.0,2044*50"
1776287423.2964683,17:10:23.296,-0.6462,0.0069,42.44640117,-76.47151413,5,"$GNGGA,211023.000,4226.784070,N,07628.290848,W,5,32,0.56,272.449,M,-33.936,M,41.0,2044*59"
1776287424.2639875,17:10:24.263,-0.6462,-0.0005,42.4464011,-76.47151413,5,"$GNGGA,211024.000,4226.784066,N,07628.290848,W,5,32,0.58,272.434,M,-33.937,M,42.0,2044*5F"
1776287425.315087,17:10:25.315,-0.6531,0.0125,42.44640122,-76.47151422,5,"$GNGGA,211025.000,4226.784073,N,07628.290853,W,5,32,0.56,272.426,M,-33.937,M,43.0,2044*5C"
1776287426.2815173,17:10:26.281,-0.664,0.0088,42.44640118,-76.47151435,5,"$GNGGA,211026.000,4226.784071,N,07628.290861,W,5,32,0.56,272.401,M,-33.936,M,44.0,2044*5F"
1776287427.2879536,17:10:27.287,-0.6695,0.0144,42.44640123,-76.47151442,5,"$GNGGA,211027.000,4226.784074,N,07628.290865,W,5,32,0.63,272.395,M,-33.936,M,45.0,2044*52"
1776287428.2434573,17:10:28.243,-0.7024,0.0273,42.44640135,-76.47151482,5,"$GNGGA,211028.000,4226.784081,N,07628.290889,W,5,32,0.65,272.341,M,-33.936,M,46.0,2044*59"
1776287429.3220992,17:10:29.322,-0.7092,0.0125,42.44640122,-76.4715149,5,"$GNGGA,211029.000,4226.784073,N,07628.290894,W,5,32,0.55,272.359,M,-33.937,M,47.0,2044*53"
1776287432.2830338,17:10:32.283,-0.7174,0.0292,42.44640137,-76.471515,5,"$GNGGA,211032.000,4226.784082,N,07628.290900,W,5,32,0.64,272.325,M,-33.936,M,50.0,2044*55"
1776287433.3276215,17:10:33.327,-0.7325,0.031,42.44640138,-76.47151518,5,"$GNGGA,211033.000,4226.784083,N,07628.290911,W,5,32,0.51,272.299,M,-33.937,M,51.0,2044*55"
1776287434.2849877,17:10:34.284,-0.7448,0.0292,42.44640137,-76.47151533,5,"$GNGGA,211034.000,4226.784082,N,07628.290920,W,5,32,0.63,272.287,M,-33.936,M,52.0,2044*5D"
1776287435.2889974,17:10:35.289,-0.7558,0.0292,42.44640137,-76.47151547,5,"$GNGGA,211035.000,4226.784082,N,07628.290928,W,5,32,0.62,272.263,M,-33.936,M,53.0,2044*5E"
1776287436.274772,17:10:36.274,-0.7654,0.0347,42.44640142,-76.47151558,5,"$GNGGA,211036.000,4226.784085,N,07628.290935,W,5,32,0.70,272.248,M,-33.937,M,54.0,2044*5A"
1776287437.298753,17:10:37.298,-0.7668,0.0347,42.44640142,-76.4715156,5,"$GNGGA,211037.000,4226.784085,N,07628.290936,W,5,32,0.66,272.257,M,-33.936,M,55.0,2044*51"
1776287438.280975,17:10:38.280,-0.775,0.0421,42.44640148,-76.4715157,5,"$GNGGA,211038.000,4226.784089,N,07628.290942,W,5,32,0.58,272.240,M,-33.936,M,56.0,2044*59"
1776287439.3094583,17:10:39.309,-0.7873,0.0292,42.44640137,-76.47151585,5,"$GNGGA,211039.000,4226.784082,N,07628.290951,W,5,32,0.64,272.245,M,-33.936,M,57.0,2044*5A"
1776287442.282682,17:10:42.282,-0.8161,0.0347,42.44640142,-76.4715162,5,"$GNGGA,211042.000,4226.784085,N,07628.290972,W,5,32,0.76,272.204,M,-33.936,M,60.0,2044*52"
1776287443.31457,17:10:43.314,-0.8394,0.0255,42.44640133,-76.47151648,5,"$GNGGA,211043.000,4226.784080,N,07628.290989,W,5,32,0.73,272.182,M,-33.936,M,61.0,2044*5B"
1776287444.265258,17:10:44.265,-0.8599,0.0329,42.4464014,-76.47151673,5,"$GNGGA,211044.000,4226.784084,N,07628.291004,W,5,32,0.71,272.147,M,-33.937,M,62.0,2044*5C"
1776287445.305799,17:10:45.305,-0.864,0.0292,42.44640137,-76.47151678,5,"$GNGGA,211045.000,4226.784082,N,07628.291007,W,5,32,0.73,272.142,M,-33.937,M,63.0,2044*5E"
1776287446.2753677,17:10:46.275,-0.8627,0.0236,42.44640132,-76.47151677,5,"$GNGGA,211046.000,4226.784079,N,07628.291006,W,5,32,0.73,272.157,M,-33.936,M,64.0,2044*5A"
1776287447.3059368,17:10:47.305,-0.8599,0.0181,42.44640127,-76.47151673,5,"$GNGGA,211047.000,4226.784076,N,07628.291004,W,5,32,0.70,272.169,M,-33.937,M,65.0,2044*58"
1776287448.28729,17:10:48.287,-0.864,0.0162,42.44640125,-76.47151678,5,"$GNGGA,211048.000,4226.784075,N,07628.291007,W,5,32,0.62,272.161,M,-33.936,M,66.0,2044*5E"
1776287449.3131921,17:10:49.313,-0.8668,0.0273,42.44640135,-76.47151682,5,"$GNGGA,211049.000,4226.784081,N,07628.291009,W,5,32,0.59,272.136,M,-33.936,M,67.0,2044*51"
1776287452.2903702,17:10:52.290,-0.8996,0.031,42.44640138,-76.47151722,5,"$GNGGA,211052.000,4226.784083,N,07628.291033,W,5,32,0.59,272.094,M,-33.937,M,70.0,2044*5E"
1776287453.3122985,17:10:53.312,-0.9092,0.0255,42.44640133,-76.47151733,5,"$GNGGA,211053.000,4226.784080,N,07628.291040,W,5,32,0.59,272.094,M,-33.937,M,71.0,2044*59"
1776287454.2889457,17:10:54.288,-0.9188,0.0255,42.44640133,-76.47151745,5,"$GNGGA,211054.000,4226.784080,N,07628.291047,W,5,32,0.59,272.080,M,-33.937,M,72.0,2044*5F"
1776287455.3134925,17:10:55.313,-0.9174,0.0384,42.44640145,-76.47151743,5,"$GNGGA,211055.000,4226.784087,N,07628.291046,W,5,32,0.59,272.068,M,-33.937,M,73.0,2044*5F"
1776287456.2906442,17:10:56.290,-0.9339,0.0347,42.44640142,-76.47151763,5,"$GNGGA,211056.000,4226.784085,N,07628.291058,W,5,32,0.60,272.045,M,-33.936,M,74.0,2044*52"
1776287457.3154337,17:10:57.315,-0.9448,0.0255,42.44640133,-76.47151777,5,"$GNGGA,211057.000,4226.784080,N,07628.291066,W,5,32,0.57,272.038,M,-33.936,M,75.0,2044*54"
1776287458.2916522,17:10:58.291,-0.9531,0.0255,42.44640133,-76.47151787,5,"$GNGGA,211058.000,4226.784080,N,07628.291072,W,5,32,0.58,272.035,M,-33.937,M,76.0,2044*5E"
1776287459.3234785,17:10:59.323,-0.9668,0.0218,42.4464013,-76.47151803,5,"$GNGGA,211059.000,4226.784078,N,07628.291082,W,5,32,0.61,272.024,M,-33.936,M,77.0,2044*5D"
1776287462.2870271,17:11:02.287,-0.9818,0.0125,42.44640122,-76.47151822,5,"$GNGGA,211102.000,4226.784073,N,07628.291093,W,5,32,0.65,272.009,M,-33.936,M,80.0,2044*5A"
1776287463.3122268,17:11:03.312,-0.9887,0.0107,42.4464012,-76.4715183,5,"$GNGGA,211103.000,4226.784072,N,07628.291098,W,5,32,0.66,272.021,M,-33.937,M,81.0,2044*58"
1776287464.2869477,17:11:04.286,-0.9914,0.0014,42.44640112,-76.47151833,5,"$GNGGA,211104.000,4226.784067,N,07628.291100,W,5,32,0.69,272.033,M,-33.937,M,82.0,2044*54"
1776287465.3197844,17:11:05.319,-0.99,0.0088,42.44640118,-76.47151832,5,"$GNGGA,211105.000,4226.784071,N,07628.291099,W,5,32,0.67,272.004,M,-33.936,M,83.0,2044*59"
1776287466.2998002,17:11:06.299,-0.9983,0.0069,42.44640117,-76.47151842,5,"$GNGGA,211106.000,4226.784070,N,07628.291105,W,5,32,0.68,272.001,M,-33.936,M,84.0,2044*52"
1776287467.3218284,17:11:07.321,-1.0024,0.0069,42.44640117,-76.47151847,5,"$GNGGA,211107.000,4226.784070,N,07628.291108,W,5,32,0.65,272.000,M,-33.937,M,85.0,2044*52"
1776287468.2919118,17:11:08.291,-0.9996,0.0032,42.44640113,-76.47151843,5,"$GNGGA,211108.000,4226.784068,N,07628.291106,W,5,32,0.66,272.018,M,-33.936,M,86.0,2044*52"
1776287469.3192973,17:11:09.319,-0.9942,-0.0023,42.44640108,-76.47151837,5,"$GNGGA,211109.000,4226.784065,N,07628.291102,W,5,33,0.85,272.058,M,-33.936,M,87.0,2044*53"
1776287472.295977,17:11:12.295,-1.0092,0.0088,42.44640118,-76.47151855,5,"$GNGGA,211112.000,4226.784071,N,07628.291113,W,5,33,0.65,272.033,M,-33.936,M,90.0,2044*59"
1776287473.325157,17:11:13.325,-1.0065,0.0014,42.44640112,-76.47151852,5,"$GNGGA,211113.000,4226.784067,N,07628.291111,W,5,33,0.65,272.026,M,-33.936,M,91.0,2044*58"
1776287474.2862017,17:11:14.286,-1.001,-0.0042,42.44640107,-76.47151845,5,"$GNGGA,211114.000,4226.784064,N,07628.291107,W,5,33,0.65,272.054,M,-33.936,M,92.0,2044*5D"
1776287475.316257,17:11:15.316,-0.9955,-0.0023,42.44640108,-76.47151838,5,"$GNGGA,211115.000,4226.784065,N,07628.291103,W,5,33,0.70,272.082,M,-33.937,M,93.0,2044*56"
1776287476.2936313,17:11:16.293,-0.9996,-0.0005,42.4464011,-76.47151843,5,"$GNGGA,211116.000,4226.784066,N,07628.291106,W,5,33,0.70,272.092,M,-33.937,M,94.0,2044*55"
1776287477.318834,17:11:17.318,-1.0106,-0.0005,42.4464011,-76.47151857,5,"$GNGGA,211117.000,4226.784066,N,07628.291114,W,5,33,0.70,272.081,M,-33.937,M,95.0,2044*54"
1776287478.2970517,17:11:18.297,-1.0065,-0.006,42.44640105,-76.47151852,5,"$GNGGA,211118.000,4226.784063,N,07628.291111,W,5,33,0.72,272.075,M,-33.937,M,96.0,2044*51"
1776287479.3231628,17:11:19.323,-1.0037,-0.0116,42.446401,-76.47151848,5,"$GNGGA,211119.000,4226.784060,N,07628.291109,W,5,33,0.70,272.057,M,-33.936,M,97.0,2044*58"
1776287482.2953658,17:11:22.295,-1.0188,-0.0134,42.44640098,-76.47151867,5,"$GNGGA,211122.000,4226.784059,N,07628.291120,W,5,33,0.70,272.030,M,-33.936,M,100.0,2044*6F"
1776287483.3326485,17:11:23.332,-1.0188,-0.0079,42.44640103,-76.47151867,5,"$GNGGA,211123.000,4226.784062,N,07628.291120,W,5,33,0.66,272.041,M,-33.936,M,101.0,2044*66"
1776287484.299052,17:11:24.299,-1.0174,-0.0134,42.44640098,-76.47151865,5,"$GNGGA,211124.000,4226.784059,N,07628.291119,W,5,33,0.60,272.021,M,-33.936,M,102.0,2044*60"
1776287485.3304255,17:11:25.330,-1.0353,-0.0282,42.44640085,-76.47151887,5,"$GNGGA,211125.000,4226.784051,N,07628.291132,W,5,33,0.57,272.032,M,-33.937,M,103.0,2044*66"
1776287486.276113,17:11:26.276,-1.0202,-0.0079,42.44640103,-76.47151868,5,"$GNGGA,211126.000,4226.784062,N,07628.291121,W,5,33,0.59,272.034,M,-33.937,M,104.0,2044*68"
1776287487.3108137,17:11:27.310,-1.0216,0.0088,42.44640118,-76.4715187,5,"$GNGGA,211127.000,4226.784071,N,07628.291122,W,5,33,0.57,272.005,M,-33.937,M,105.0,2044*65"
1776287488.285764,17:11:28.285,-1.0079,0.0125,42.44640122,-76.47151853,5,"$GNGGA,211128.000,4226.784073,N,07628.291112,W,5,33,0.51,272.038,M,-33.936,M,106.0,2044*61"
1776287489.2978423,17:11:29.297,-1.0202,0.0181,42.44640127,-76.47151868,5,"$GNGGA,211129.000,4226.784076,N,07628.291121,W,5,33,0.58,272.018,M,-33.936,M,107.0,2044*6F"
1776287492.28413,17:11:32.284,-1.0695,-0.0042,42.44640107,-76.47151928,5,"$GNGGA,211132.000,4226.784064,N,07628.291157,W,5,33,0.53,271.994,M,-33.936,M,110.0,2044*64"
1776287493.331018,17:11:33.331,-1.1051,-0.0005,42.4464011,-76.47151972,5,"$GNGGA,211133.000,4226.784066,N,07628.291183,W,5,33,0.52,271.937,M,-33.936,M,111.0,2044*67"
1776287494.3124835,17:11:34.312,-1.112,0.0032,42.44640113,-76.4715198,5,"$GNGGA,211134.000,4226.784068,N,07628.291188,W,5,33,0.52,271.940,M,-33.936,M,112.0,2044*66"
1776287495.3332467,17:11:35.333,-1.1202,0.0107,42.4464012,-76.4715199,5,"$GNGGA,211135.000,4226.784072,N,07628.291194,W,5,33,0.54,271.925,M,-33.936,M,113.0,2044*65"
1776287496.2975116,17:11:36.297,-1.1202,0.0218,42.4464013,-76.4715199,5,"$GNGGA,211136.000,4226.784078,N,07628.291194,W,5,33,0.55,271.915,M,-33.937,M,114.0,2044*68"
1776287497.3395572,17:11:37.339,-1.1202,0.0255,42.44640133,-76.4715199,5,"$GNGGA,211137.000,4226.784080,N,07628.291194,W,5,33,0.54,271.905,M,-33.937,M,115.0,2044*6F"
1776287498.3136797,17:11:38.313,-1.1147,0.0384,42.44640145,-76.47151983,5,"$GNGGA,211138.000,4226.784087,N,07628.291190,W,5,33,0.52,271.896,M,-33.936,M,116.0,2044*6C"
1776287499.3503485,17:11:39.350,-1.1051,0.044,42.4464015,-76.47151972,5,"$GNGGA,211139.000,4226.784090,N,07628.291183,W,5,33,0.55,271.904,M,-33.936,M,117.0,2044*65"
1776287502.1685448,17:11:42.168,-0.3312,1.5276,42.44641485,-76.4715103,1,"$GNGGA,211142.000,4226.784891,N,07628.290618,W,1,33,0.54,271.988,M,-33.936,M,,*4E"
1776287503.1861942,17:11:43.186,-0.3312,1.5295,42.44641487,-76.4715103,1,"$GNGGA,211143.000,4226.784892,N,07628.290618,W,1,33,0.57,271.985,M,-33.936,M,,*42"
1776287504.157694,17:11:44.157,-0.3243,1.5276,42.44641485,-76.47151022,1,"$GNGGA,211144.000,4226.784891,N,07628.290613,W,1,33,0.59,271.981,M,-33.936,M,,*47"
1776287505.2025306,17:11:45.202,-0.3175,1.5276,42.44641485,-76.47151013,1,"$GNGGA,211145.000,4226.784891,N,07628.290608,W,1,33,0.58,271.975,M,-33.937,M,,*47"
1776287506.1538918,17:11:46.153,-0.3188,1.5257,42.44641483,-76.47151015,1,"$GNGGA,211146.000,4226.784890,N,07628.290609,W,1,33,0.50,271.971,M,-33.936,M,,*49"
1776287507.1792083,17:11:47.179,-0.3106,1.5239,42.44641482,-76.47151005,1,"$GNGGA,211147.000,4226.784889,N,07628.290603,W,1,33,0.56,271.969,M,-33.936,M,,*45"
1776287508.1561503,17:11:48.156,-0.312,1.5257,42.44641483,-76.47151007,1,"$GNGGA,211148.000,4226.784890,N,07628.290604,W,1,33,0.52,271.969,M,-33.936,M,,*41"
1776287509.183401,17:11:49.183,-0.3092,1.5276,42.44641485,-76.47151003,1,"$GNGGA,211149.000,4226.784891,N,07628.290602,W,1,33,0.54,271.969,M,-33.936,M,,*41"
1776287512.1505768,17:11:52.150,-0.2955,1.5257,42.44641483,-76.47150987,1,"$GNGGA,211152.000,4226.784890,N,07628.290592,W,1,33,0.52,271.960,M,-33.937,M,,*4E"
1776287513.1774285,17:11:53.177,-0.2928,1.522,42.4464148,-76.47150983,1,"$GNGGA,211153.000,4226.784888,N,07628.290590,W,1,33,0.53,271.957,M,-33.936,M,,*40"
1776287514.1560407,17:11:54.156,-0.2914,1.5183,42.44641477,-76.47150982,1,"$GNGGA,211154.000,4226.784886,N,07628.290589,W,1,33,0.54,271.956,M,-33.936,M,,*47"
1776287515.1799846,17:11:55.179,-0.286,1.5165,42.44641475,-76.47150975,1,"$GNGGA,211155.000,4226.784885,N,07628.290585,W,1,33,0.56,271.955,M,-33.936,M,,*48"
1776287516.1527174,17:11:56.152,-0.2818,1.5146,42.44641473,-76.4715097,1,"$GNGGA,211156.000,4226.784884,N,07628.290582,W,1,33,0.50,271.951,M,-33.937,M,,*4E"
1776287517.1878552,17:11:57.187,-0.2736,1.5109,42.4464147,-76.4715096,1,"$GNGGA,211157.000,4226.784882,N,07628.290576,W,1,33,0.60,271.947,M,-33.936,M,,*47"
1776287518.1562092,17:11:58.156,-0.2681,1.4998,42.4464146,-76.47150953,1,"$GNGGA,211158.000,4226.784876,N,07628.290572,W,1,33,0.55,271.942,M,-33.937,M,,*45"
1776287519.17804,17:11:59.178,-0.2613,1.4924,42.44641453,-76.47150945,1,"$GNGGA,211159.000,4226.784872,N,07628.290567,W,1,33,0.63,271.939,M,-33.937,M,,*4D"
1776287522.1684582,17:12:02.168,-0.2654,1.4609,42.44641425,-76.4715095,1,"$GNGGA,211202.000,4226.784855,N,07628.290570,W,1,33,0.50,271.919,M,-33.937,M,,*41"
1776287523.1846151,17:12:03.184,-0.264,1.4591,42.44641423,-76.47150948,1,"$GNGGA,211203.000,4226.784854,N,07628.290569,W,1,33,0.69,271.910,M,-33.936,M,,*4B"
1776287524.1525083,17:12:04.152,-0.2558,1.4572,42.44641422,-76.47150938,1,"$GNGGA,211204.000,4226.784853,N,07628.290563,W,1,33,0.68,271.906,M,-33.936,M,,*47"
1776287525.1798286,17:12:05.179,-0.2462,1.4517,42.44641417,-76.47150927,1,"$GNGGA,211205.000,4226.784850,N,07628.290556,W,1,33,0.65,271.902,M,-33.937,M,,*4B"
1776287526.1569166,17:12:06.156,-0.2407,1.4498,42.44641415,-76.4715092,1,"$GNGGA,211206.000,4226.784849,N,07628.290552,W,1,33,0.61,271.895,M,-33.937,M,,*4F"
1776287527.1782002,17:12:07.178,-0.2298,1.4443,42.4464141,-76.47150907,1,"$GNGGA,211207.000,4226.784846,N,07628.290544,W,1,33,0.61,271.887,M,-33.936,M,,*44"
1776287528.1583648,17:12:08.158,-0.2202,1.4424,42.44641408,-76.47150895,1,"$GNGGA,211208.000,4226.784845,N,07628.290537,W,1,33,0.60,271.879,M,-33.937,M,,*4D"
1776287529.1869278,17:12:09.186,-0.212,1.4443,42.4464141,-76.47150885,1,"$GNGGA,211209.000,4226.784846,N,07628.290531,W,1,34,0.61,271.877,M,-33.936,M,,*40"
1776287532.1501303,17:12:12.150,-0.186,1.4257,42.44641393,-76.47150853,1,"$GNGGA,211212.000,4226.784836,N,07628.290512,W,1,34,0.60,271.855,M,-33.936,M,,*4D"
1776287533.1879861,17:12:13.187,-0.1805,1.4239,42.44641392,-76.47150847,1,"$GNGGA,211213.000,4226.784835,N,07628.290508,W,1,34,0.51,271.848,M,-33.936,M,,*4A"
1776287534.1536555,17:12:14.153,-0.1764,1.4257,42.44641393,-76.47150842,1,"$GNGGA,211214.000,4226.784836,N,07628.290505,W,1,34,0.51,271.841,M,-33.936,M,,*4A"
1776287535.182698,17:12:15.182,-0.1695,1.4257,42.44641393,-76.47150833,1,"$GNGGA,211215.000,4226.784836,N,07628.290500,W,1,34,0.58,271.838,M,-33.936,M,,*49"
1776287536.1577897,17:12:16.157,-0.1599,1.4276,42.44641395,-76.47150822,1,"$GNGGA,211216.000,4226.784837,N,07628.290493,W,1,34,0.56,271.834,M,-33.937,M,,*43"
1776287537.1846194,17:12:17.184,-0.1627,1.4294,42.44641397,-76.47150825,1,"$GNGGA,211217.000,4226.784838,N,07628.290495,W,1,34,0.49,271.822,M,-33.936,M,,*43"
1776287538.1567729,17:12:18.156,-0.1517,1.4276,42.44641395,-76.47150812,1,"$GNGGA,211218.000,4226.784837,N,07628.290487,W,1,34,0.56,271.815,M,-33.936,M,,*4A"
1776287539.1843364,17:12:19.184,-0.1476,1.4257,42.44641393,-76.47150807,1,"$GNGGA,211219.000,4226.784836,N,07628.290484,W,1,34,0.57,271.810,M,-33.936,M,,*4D"
1776287542.149995,17:12:22.150,-0.1257,1.4276,42.44641395,-76.4715078,1,"$GNGGA,211222.000,4226.784837,N,07628.290468,W,1,34,0.58,271.798,M,-33.936,M,,*46"
1776287543.1765206,17:12:23.176,-0.1229,1.4387,42.44641405,-76.47150777,1,"$GNGGA,211223.000,4226.784843,N,07628.290466,W,1,34,0.60,271.794,M,-33.936,M,,*4D"
1776287544.1514072,17:12:24.151,-0.1161,1.4406,42.44641407,-76.47150768,1,"$GNGGA,211224.000,4226.784844,N,07628.290461,W,1,34,0.63,271.791,M,-33.937,M,,*4D"
1776287545.1918328,17:12:25.191,-0.1202,1.4368,42.44641403,-76.47150773,1,"$GNGGA,211225.000,4226.784842,N,07628.290464,W,1,34,0.51,271.785,M,-33.936,M,,*4A"
1776287546.1553125,17:12:26.155,-0.1202,1.4387,42.44641405,-76.47150773,1,"$GNGGA,211226.000,4226.784843,N,07628.290464,W,1,34,0.61,271.779,M,-33.936,M,,*48"
1776287547.1808195,17:12:27.180,-0.1229,1.4424,42.44641408,-76.47150777,1,"$GNGGA,211227.000,4226.784845,N,07628.290466,W,1,34,0.59,271.776,M,-33.937,M,,*48"
1776287548.1531692,17:12:28.153,-0.1271,1.4406,42.44641407,-76.47150782,1,"$GNGGA,211228.000,4226.784844,N,07628.290469,W,1,34,0.53,271.765,M,-33.936,M,,*40"
1776287549.179389,17:12:29.179,-0.1284,1.4368,42.44641403,-76.47150783,1,"$GNGGA,211229.000,4226.784842,N,07628.290470,W,1,34,0.52,271.755,M,-33.937,M,,*4C"
1776287552.1561446,17:12:32.156,-0.1216,1.4239,42.44641392,-76.47150775,1,"$GNGGA,211232.000,4226.784835,N,07628.290465,W,1,34,0.53,271.741,M,-33.936,M,,*47"
1776287553.1868324,17:12:33.186,-0.1134,1.4239,42.44641392,-76.47150765,1,"$GNGGA,211233.000,4226.784835,N,07628.290459,W,1,34,0.57,271.736,M,-33.936,M,,*4D"
1776287554.1527138,17:12:34.152,-0.1051,1.4239,42.44641392,-76.47150755,1,"$GNGGA,211234.000,4226.784835,N,07628.290453,W,1,34,0.52,271.725,M,-33.937,M,,*46"
1776287555.1788287,17:12:35.178,-0.0942,1.4239,42.44641392,-76.47150742,1,"$GNGGA,211235.000,4226.784835,N,07628.290445,W,1,34,0.59,271.718,M,-33.937,M,,*45"
1776287556.1515777,17:12:36.151,-0.086,1.4239,42.44641392,-76.47150732,1,"$GNGGA,211236.000,4226.784835,N,07628.290439,W,1,34,0.56,271.713,M,-33.936,M,,*48"
1776287557.1847732,17:12:37.184,-0.0805,1.422,42.4464139,-76.47150725,1,"$GNGGA,211237.000,4226.784834,N,07628.290435,W,1,34,0.56,271.713,M,-33.937,M,,*45"
1776287558.1532443,17:12:38.153,-0.0723,1.4239,42.44641392,-76.47150715,1,"$GNGGA,211238.000,4226.784835,N,07628.290429,W,1,34,0.60,271.704,M,-33.936,M,,*44"
1776287559.1834388,17:12:39.183,-0.0654,1.4276,42.44641395,-76.47150707,1,"$GNGGA,211239.000,4226.784837,N,07628.290424,W,1,34,0.64,271.701,M,-33.937,M,,*4A"
1776287562.1551404,17:12:42.155,-0.0353,1.4424,42.44641408,-76.4715067,1,"$GNGGA,211242.000,4226.784845,N,07628.290402,W,1,34,0.62,271.695,M,-33.937,M,,*4D"
1776287563.1843565,17:12:43.184,-0.0229,1.4443,42.4464141,-76.47150655,1,"$GNGGA,211243.000,4226.784846,N,07628.290393,W,1,34,0.56,271.690,M,-33.936,M,,*43"
1776287564.1538372,17:12:44.153,-0.0147,1.4517,42.44641417,-76.47150645,1,"$GNGGA,211244.000,4226.784850,N,07628.290387,W,1,34,0.56,271.689,M,-33.937,M,,*4F"
1776287565.1813164,17:12:45.181,-0.012,1.4609,42.44641425,-76.47150642,1,"$GNGGA,211245.000,4226.784855,N,07628.290385,W,1,34,0.56,271.688,M,-33.936,M,,*49"
1776287566.1526034,17:12:46.152,-0.0024,1.4665,42.4464143,-76.4715063,1,"$GNGGA,211246.000,4226.784858,N,07628.290378,W,1,34,0.56,271.684,M,-33.937,M,,*48"
1776287567.1803558,17:12:47.180,0.0099,1.4665,42.4464143,-76.47150615,1,"$GNGGA,211247.000,4226.784858,N,07628.290369,W,1,34,0.55,271.680,M,-33.936,M,,*4F"
1776287568.1561642,17:12:48.156,0.014,1.4683,42.44641432,-76.4715061,1,"$GNGGA,211248.000,4226.784859,N,07628.290366,W,1,34,0.50,271.672,M,-33.937,M,,*47"
1776287569.2149448,17:12:49.214,0.0195,1.472,42.44641435,-76.47150603,1,"$GNGGA,211249.000,4226.784861,N,07628.290362,W,1,34,0.50,271.667,M,-33.937,M,,*4D"
1776287572.1530616,17:12:52.153,0.0414,1.485,42.44641447,-76.47150577,1,"$GNGGA,211252.000,4226.784868,N,07628.290346,W,1,34,0.65,271.657,M,-33.936,M,,*4C"
1776287573.188948,17:12:53.188,0.0428,1.5017,42.44641462,-76.47150575,1,"$GNGGA,211253.000,4226.784877,N,07628.290345,W,1,34,0.60,271.643,M,-33.937,M,,*41"
1776287574.1512694,17:12:54.151,0.0579,1.5128,42.44641472,-76.47150557,1,"$GNGGA,211254.000,4226.784883,N,07628.290334,W,1,34,0.63,271.642,M,-33.936,M,,*48"
1776287575.1807091,17:12:55.180,0.0771,1.5146,42.44641473,-76.47150533,1,"$GNGGA,211255.000,4226.784884,N,07628.290320,W,1,34,0.66,271.638,M,-33.936,M,,*43"
1776287576.1614435,17:12:56.161,0.0853,1.5257,42.44641483,-76.47150523,1,"$GNGGA,211256.000,4226.784890,N,07628.290314,W,1,34,0.64,271.625,M,-33.936,M,,*4C"
1776287577.180046,17:12:57.180,0.0949,1.5276,42.44641485,-76.47150512,1,"$GNGGA,211257.000,4226.784891,N,07628.290307,W,1,34,0.65,271.623,M,-33.936,M,,*49"
1776287578.1582623,17:12:58.158,0.099,1.5369,42.44641493,-76.47150507,1,"$GNGGA,211258.000,4226.784896,N,07628.290304,W,1,34,0.64,271.615,M,-33.936,M,,*46"
1776287579.1921926,17:12:59.192,0.1168,1.5498,42.44641505,-76.47150485,1,"$GNGGA,211259.000,4226.784903,N,07628.290291,W,1,34,0.60,271.600,M,-33.936,M,,*47"
1776287582.1534443,17:13:02.153,0.1798,1.5721,42.44641525,-76.47150408,1,"$GNGGA,211302.000,4226.784915,N,07628.290245,W,1,34,0.72,271.598,M,-33.937,M,,*46"
1776287583.1932366,17:13:03.193,0.1921,1.585,42.44641537,-76.47150393,1,"$GNGGA,211303.000,4226.784922,N,07628.290236,W,1,34,0.68,271.587,M,-33.937,M,,*42"
1776287584.1520355,17:13:04.152,0.2168,1.5906,42.44641542,-76.47150363,1,"$GNGGA,211304.000,4226.784925,N,07628.290218,W,1,34,0.65,271.585,M,-33.937,M,,*41"
1776287585.1805065,17:13:05.180,0.2332,1.6035,42.44641553,-76.47150343,1,"$GNGGA,211305.000,4226.784932,N,07628.290206,W,1,34,0.65,271.588,M,-33.937,M,,*44"
1776287586.1572099,17:13:06.157,0.2538,1.6128,42.44641562,-76.47150318,1,"$GNGGA,211306.000,4226.784937,N,07628.290191,W,1,34,0.62,271.590,M,-33.936,M,,*40"
1776287587.184006,17:13:07.184,0.2743,1.6184,42.44641567,-76.47150293,1,"$GNGGA,211307.000,4226.784940,N,07628.290176,W,1,34,0.63,271.595,M,-33.937,M,,*4D"
1776287588.1537278,17:13:08.153,0.2935,1.6295,42.44641577,-76.4715027,1,"$GNGGA,211308.000,4226.784946,N,07628.290162,W,1,34,0.65,271.596,M,-33.936,M,,*45"
1776287589.1813207,17:13:09.181,0.3099,1.6369,42.44641583,-76.4715025,1,"$GNGGA,211309.000,4226.784950,N,07628.290150,W,1,34,0.62,271.598,M,-33.937,M,,*4A"
1776287592.163748,17:13:12.163,0.3661,1.6795,42.44641622,-76.47150182,1,"$GNGGA,211312.000,4226.784973,N,07628.290109,W,1,34,0.62,271.581,M,-33.936,M,,*44"
1776287593.1953216,17:13:13.195,0.3866,1.6962,42.44641637,-76.47150157,1,"$GNGGA,211313.000,4226.784982,N,07628.290094,W,1,34,0.62,271.579,M,-33.936,M,,*49"
1776287594.156666,17:13:14.156,0.4072,1.7017,42.44641642,-76.47150132,1,"$GNGGA,211314.000,4226.784985,N,07628.290079,W,1,34,0.73,271.577,M,-33.936,M,,*44"
1776287595.183437,17:13:15.183,0.4236,1.711,42.4464165,-76.47150112,1,"$GNGGA,211315.000,4226.784990,N,07628.290067,W,1,34,0.65,271.576,M,-33.936,M,,*48"
1776287596.1540062,17:13:16.154,0.4401,1.7239,42.44641662,-76.47150092,1,"$GNGGA,211316.000,4226.784997,N,07628.290055,W,1,34,0.65,271.579,M,-33.936,M,,*42"
1776287597.179446,17:13:17.179,0.4538,1.7369,42.44641673,-76.47150075,1,"$GNGGA,211317.000,4226.785004,N,07628.290045,W,1,34,0.65,271.581,M,-33.936,M,,*47"
1776287598.1517136,17:13:18.151,0.4675,1.7499,42.44641685,-76.47150058,1,"$GNGGA,211318.000,4226.785011,N,07628.290035,W,1,34,0.68,271.583,M,-33.936,M,,*44"
1776287599.1808486,17:13:19.180,0.477,1.7647,42.44641698,-76.47150047,1,"$GNGGA,211319.000,4226.785019,N,07628.290028,W,1,34,0.67,271.588,M,-33.937,M,,*44"
1776287602.1626842,17:13:22.162,0.4702,1.8165,42.44641745,-76.47150055,1,"$GNGGA,211322.000,4226.785047,N,07628.290033,W,1,34,0.64,271.578,M,-33.937,M,,*41"
1776287603.189352,17:13:23.189,0.4551,1.8314,42.44641758,-76.47150073,1,"$GNGGA,211323.000,4226.785055,N,07628.290044,W,1,34,0.63,271.572,M,-33.936,M,,*4F"
1776287604.1550634,17:13:24.155,0.4455,1.8554,42.4464178,-76.47150085,1,"$GNGGA,211324.000,4226.785068,N,07628.290051,W,1,34,0.56,271.578,M,-33.936,M,,*4E"
1776287605.1842513,17:13:25.184,0.4414,1.8758,42.44641798,-76.4715009,1,"$GNGGA,211325.000,4226.785079,N,07628.290054,W,1,34,0.63,271.586,M,-33.936,M,,*4D"
1776287606.1515617,17:13:26.151,0.4332,1.9036,42.44641823,-76.471501,1,"$GNGGA,211326.000,4226.785094,N,07628.290060,W,1,34,0.67,271.582,M,-33.936,M,,*4A"
1776287607.1787512,17:13:27.178,0.4428,1.9147,42.44641833,-76.47150088,1,"$GNGGA,211327.000,4226.785100,N,07628.290053,W,1,34,0.56,271.586,M,-33.937,M,,*40"
1776287608.1501126,17:13:28.150,0.4483,1.924,42.44641842,-76.47150082,1,"$GNGGA,211328.000,4226.785105,N,07628.290049,W,1,34,0.58,271.590,M,-33.937,M,,*48"
1776287609.1781845,17:13:29.178,0.451,1.9388,42.44641855,-76.47150078,1,"$GNGGA,211329.000,4226.785113,N,07628.290047,W,1,34,0.59,271.594,M,-33.936,M,,*44"
1776287612.1479504,17:13:32.147,0.4524,1.9684,42.44641882,-76.47150077,1,"$GNGGA,211332.000,4226.785129,N,07628.290046,W,1,34,0.58,271.611,M,-33.937,M,,*48"
1776287613.183123,17:13:33.183,0.4483,1.9795,42.44641892,-76.47150082,1,"$GNGGA,211333.000,4226.785135,N,07628.290049,W,1,34,0.57,271.616,M,-33.936,M,,*42"
1776287614.147631,17:13:34.147,0.4496,1.9832,42.44641895,-76.4715008,1,"$GNGGA,211334.000,4226.785137,N,07628.290048,W,1,34,0.58,271.619,M,-33.936,M,,*46"
1776287615.1750138,17:13:35.175,0.4469,1.9944,42.44641905,-76.47150083,1,"$GNGGA,211335.000,4226.785143,N,07628.290050,W,1,34,0.59,271.618,M,-33.936,M,,*4D"
1776287616.152411,17:13:36.152,0.4469,2.0018,42.44641912,-76.47150083,1,"$GNGGA,211336.000,4226.785147,N,07628.290050,W,1,34,0.59,271.622,M,-33.936,M,,*43"
1776287617.179613,17:13:37.179,0.4401,2.0073,42.44641917,-76.47150092,1,"$GNGGA,211337.000,4226.785150,N,07628.290055,W,1,35,0.60,271.624,M,-33.936,M,,*4C"
1776287618.1518013,17:13:38.151,0.4346,2.0129,42.44641922,-76.47150098,1,"$GNGGA,211338.000,4226.785153,N,07628.290059,W,1,35,0.56,271.625,M,-33.936,M,,*48"
1776287619.1860828,17:13:39.186,0.425,2.0166,42.44641925,-76.4715011,1,"$GNGGA,211339.000,4226.785155,N,07628.290066,W,1,35,0.56,271.626,M,-33.937,M,,*41"
1776287622.151735,17:13:42.151,0.3935,2.0351,42.44641942,-76.47150148,1,"$GNGGA,211342.000,4226.785165,N,07628.290089,W,1,35,0.52,271.630,M,-33.936,M,,*4D"
1776287623.184959,17:13:43.184,0.3812,2.0388,42.44641945,-76.47150163,1,"$GNGGA,211343.000,4226.785167,N,07628.290098,W,1,35,0.57,271.634,M,-33.936,M,,*4F"
1776287624.1525178,17:13:44.152,0.3702,2.037,42.44641943,-76.47150177,1,"$GNGGA,211344.000,4226.785166,N,07628.290106,W,1,35,0.57,271.639,M,-33.936,M,,*42"
1776287625.1799636,17:13:45.179,0.3579,2.0407,42.44641947,-76.47150192,1,"$GNGGA,211345.000,4226.785168,N,07628.290115,W,1,35,0.57,271.641,M,-33.937,M,,*41"
1776287626.1489563,17:13:46.148,0.3455,2.0388,42.44641945,-76.47150207,1,"$GNGGA,211346.000,4226.785167,N,07628.290124,W,1,35,0.62,271.643,M,-33.936,M,,*4A"
1776287627.1760287,17:13:47.176,0.3332,2.0333,42.4464194,-76.47150222,1,"$GNGGA,211347.000,4226.785164,N,07628.290133,W,1,35,0.58,271.648,M,-33.936,M,,*4C"
1776287628.1508176,17:13:48.150,0.3236,2.0314,42.44641938,-76.47150233,1,"$GNGGA,211348.000,4226.785163,N,07628.290140,W,1,35,0.57,271.650,M,-33.937,M,,*47"
1776287629.1767025,17:13:49.176,0.3113,2.0296,42.44641937,-76.47150248,1,"$GNGGA,211349.000,4226.785162,N,07628.290149,W,1,35,0.57,271.650,M,-33.937,M,,*4E"
1776287632.1493824,17:13:52.149,0.2798,2.0425,42.44641948,-76.47150287,1,"$GNGGA,211352.000,4226.785169,N,07628.290172,W,1,34,0.57,271.651,M,-33.937,M,,*47"
1776287633.2080722,17:13:53.208,0.2647,2.0481,42.44641953,-76.47150305,1,"$GNGGA,211353.000,4226.785172,N,07628.290183,W,1,35,0.49,271.651,M,-33.936,M,,*4D"
1776287634.1632793,17:13:54.163,0.251,2.0499,42.44641955,-76.47150322,1,"$GNGGA,211354.000,4226.785173,N,07628.290193,W,1,35,0.49,271.651,M,-33.936,M,,*4A"
1776287635.17866,17:13:55.178,0.2346,2.0462,42.44641952,-76.47150342,1,"$GNGGA,211355.000,4226.785171,N,07628.290205,W,1,35,0.61,271.650,M,-33.937,M,,*4F"
1776287636.1604707,17:13:56.160,0.2195,2.0573,42.44641962,-76.4715036,1,"$GNGGA,211356.000,4226.785177,N,07628.290216,W,1,35,0.50,271.650,M,-33.937,M,,*4A"
1776287637.1803617,17:13:57.180,0.2113,2.061,42.44641965,-76.4715037,1,"$GNGGA,211357.000,4226.785179,N,07628.290222,W,1,35,0.59,271.652,M,-33.936,M,,*48"
1776287638.1530457,17:13:58.153,0.2017,2.0592,42.44641963,-76.47150382,1,"$GNGGA,211358.000,4226.785178,N,07628.290229,W,1,35,0.61,271.656,M,-33.937,M,,*43"
1776287639.1858351,17:13:59.185,0.1976,2.0684,42.44641972,-76.47150387,1,"$GNGGA,211359.000,4226.785183,N,07628.290232,W,1,35,0.58,271.642,M,-33.937,M,,*43"
1776287642.1530163,17:14:02.153,0.2003,2.0684,42.44641972,-76.47150383,1,"$GNGGA,211402.000,4226.785183,N,07628.290230,W,1,35,0.53,271.633,M,-33.936,M,,*44"
1776287643.1872694,17:14:03.187,0.2031,2.0777,42.4464198,-76.4715038,1,"$GNGGA,211403.000,4226.785188,N,07628.290228,W,1,35,0.56,271.630,M,-33.936,M,,*41"
1776287644.1478305,17:14:04.147,0.199,2.0833,42.44641985,-76.47150385,1,"$GNGGA,211404.000,4226.785191,N,07628.290231,W,1,35,0.58,271.632,M,-33.936,M,,*4A"
1776287645.1808207,17:14:05.180,0.1949,2.0814,42.44641983,-76.4715039,1,"$GNGGA,211405.000,4226.785190,N,07628.290234,W,1,35,0.56,271.630,M,-33.936,M,,*43"
1776287646.1512454,17:14:06.151,0.2003,2.0814,42.44641983,-76.47150383,1,"$GNGGA,211406.000,4226.785190,N,07628.290230,W,1,35,0.59,271.628,M,-33.936,M,,*42"
1776287647.1781082,17:14:07.178,0.2072,2.0777,42.4464198,-76.47150375,1,"$GNGGA,211407.000,4226.785188,N,07628.290225,W,1,35,0.57,271.625,M,-33.936,M,,*4D"
1776287648.1518543,17:14:08.151,0.214,2.0777,42.4464198,-76.47150367,1,"$GNGGA,211408.000,4226.785188,N,07628.290220,W,1,35,0.59,271.625,M,-33.937,M,,*48"
1776287649.1832516,17:14:09.183,0.2209,2.0721,42.44641975,-76.47150358,1,"$GNGGA,211409.000,4226.785185,N,07628.290215,W,1,35,0.61,271.621,M,-33.937,M,,*4D"
1776287652.149677,17:14:12.149,0.2455,2.0573,42.44641962,-76.47150328,1,"$GNGGA,211412.000,4226.785177,N,07628.290197,W,1,35,0.55,271.605,M,-33.936,M,,*43"
1776287653.1850753,17:14:13.185,0.2497,2.0592,42.44641963,-76.47150323,1,"$GNGGA,211413.000,4226.785178,N,07628.290194,W,1,35,0.55,271.601,M,-33.937,M,,*4B"
1776287654.1488802,17:14:14.148,0.2524,2.0592,42.44641963,-76.4715032,1,"$GNGGA,211414.000,4226.785178,N,07628.290192,W,1,35,0.62,271.598,M,-33.936,M,,*4C"
1776287655.1834023,17:14:15.183,0.2551,2.0573,42.44641962,-76.47150317,1,"$GNGGA,211415.000,4226.785177,N,07628.290190,W,1,35,0.59,271.593,M,-33.937,M,,*42"
1776287656.1482728,17:14:16.148,0.2551,2.0592,42.44641963,-76.47150317,1,"$GNGGA,211416.000,4226.785178,N,07628.290190,W,1,35,0.55,271.587,M,-33.937,M,,*47"
1776287657.185987,17:14:17.185,0.2647,2.074,42.44641977,-76.47150305,1,"$GNGGA,211417.000,4226.785186,N,07628.290183,W,1,35,0.60,271.570,M,-33.937,M,,*4B"
1776287658.1607993,17:14:18.160,0.2825,2.087,42.44641988,-76.47150283,1,"$GNGGA,211418.000,4226.785193,N,07628.290170,W,1,35,0.55,271.556,M,-33.936,M,,*4F"
1776287659.1858351,17:14:19.185,0.2839,2.0851,42.44641987,-76.47150282,1,"$GNGGA,211419.000,4226.785192,N,07628.290169,W,1,35,0.55,271.554,M,-33.936,M,,*45"
1776287662.149506,17:14:22.149,0.2565,2.0907,42.44641992,-76.47150315,1,"$GNGGA,211422.000,4226.785195,N,07628.290189,W,1,35,0.63,271.555,M,-33.936,M,,*40"
1776287663.1824915,17:14:23.182,0.2579,2.0888,42.4464199,-76.47150313,1,"$GNGGA,211423.000,4226.785194,N,07628.290188,W,1,35,0.58,271.556,M,-33.936,M,,*4A"
1776287664.1540837,17:14:24.154,0.2579,2.087,42.44641988,-76.47150313,1,"$GNGGA,211424.000,4226.785193,N,07628.290188,W,1,35,0.57,271.558,M,-33.936,M,,*4B"
1776287665.183155,17:14:25.183,0.2565,2.0888,42.4464199,-76.47150315,1,"$GNGGA,211425.000,4226.785194,N,07628.290189,W,1,35,0.60,271.563,M,-33.937,M,,*41"
1776287666.1484668,17:14:26.148,0.2483,2.0944,42.44641995,-76.47150325,1,"$GNGGA,211426.000,4226.785197,N,07628.290195,W,1,35,0.60,271.568,M,-33.937,M,,*47"
1776287667.1827505,17:14:27.182,0.2401,2.0981,42.44641998,-76.47150335,1,"$GNGGA,211427.000,4226.785199,N,07628.290201,W,1,35,0.61,271.569,M,-33.937,M,,*46"
1776287668.152569,17:14:28.152,0.236,2.1036,42.44642003,-76.4715034,1,"$GNGGA,211428.000,4226.785202,N,07628.290204,W,1,35,0.58,271.571,M,-33.936,M,,*4F"
1776287669.1764712,17:14:29.176,0.2277,2.1129,42.44642012,-76.4715035,1,"$GNGGA,211429.000,4226.785207,N,07628.290210,W,1,35,0.63,271.573,M,-33.937,M,,*45"
1776287672.1540692,17:14:32.154,0.2291,2.1462,42.44642042,-76.47150348,1,"$GNGGA,211432.000,4226.785225,N,07628.290209,W,1,35,0.68,271.571,M,-33.936,M,,*4F"
1776287673.1813283,17:14:33.181,0.2291,2.1574,42.44642052,-76.47150348,1,"$GNGGA,211433.000,4226.785231,N,07628.290209,W,1,35,0.60,271.575,M,-33.937,M,,*46"
1776287674.1544287,17:14:34.154,0.2305,2.1666,42.4464206,-76.47150347,1,"$GNGGA,211434.000,4226.785236,N,07628.290208,W,1,35,0.70,271.573,M,-33.937,M,,*40"
1776287675.180567,17:14:35.180,0.2209,2.1777,42.4464207,-76.47150358,1,"$GNGGA,211435.000,4226.785242,N,07628.290215,W,1,35,0.59,271.574,M,-33.936,M,,*43"
1776287676.1499758,17:14:36.149,0.2058,2.1888,42.4464208,-76.47150377,1,"$GNGGA,211436.000,4226.785248,N,07628.290226,W,1,35,0.58,271.576,M,-33.936,M,,*49"
1776287677.1777906,17:14:37.177,0.1976,2.1981,42.44642088,-76.47150387,1,"$GNGGA,211437.000,4226.785253,N,07628.290232,W,1,35,0.56,271.578,M,-33.937,M,,*46"
1776287678.1481466,17:14:38.148,0.1935,2.2055,42.44642095,-76.47150392,1,"$GNGGA,211438.000,4226.785257,N,07628.290235,W,1,35,0.57,271.580,M,-33.937,M,,*4C"
1776287679.1846175,17:14:39.184,0.1894,2.2185,42.44642107,-76.47150397,1,"$GNGGA,211439.000,4226.785264,N,07628.290238,W,1,35,0.60,271.578,M,-33.936,M,,*42"
1776287682.1524055,17:14:42.152,0.1688,2.2481,42.44642133,-76.47150422,1,"$GNGGA,211442.000,4226.785280,N,07628.290253,W,1,35,0.59,271.583,M,-33.936,M,,*47"
1776287683.1815925,17:14:43.181,0.1551,2.2592,42.44642143,-76.47150438,1,"$GNGGA,211443.000,4226.785286,N,07628.290263,W,1,35,0.59,271.589,M,-33.936,M,,*49"
1776287684.1566854,17:14:44.156,0.1428,2.2685,42.44642152,-76.47150453,1,"$GNGGA,211444.000,4226.785291,N,07628.290272,W,1,35,0.59,271.596,M,-33.936,M,,*46"
1776287685.1882248,17:14:45.188,0.1346,2.274,42.44642157,-76.47150463,1,"$GNGGA,211445.000,4226.785294,N,07628.290278,W,1,35,0.60,271.603,M,-33.937,M,,*4C"
1776287686.153492,17:14:46.153,0.1291,2.2796,42.44642162,-76.4715047,1,"$GNGGA,211446.000,4226.785297,N,07628.290282,W,1,35,0.59,271.604,M,-33.936,M,,*45"
1776287687.1885114,17:14:47.188,0.125,2.2833,42.44642165,-76.47150475,1,"$GNGGA,211447.000,4226.785299,N,07628.290285,W,1,35,0.61,271.605,M,-33.936,M,,*47"
1776287688.15343,17:14:48.153,0.1236,2.2852,42.44642167,-76.47150477,1,"$GNGGA,211448.000,4226.785300,N,07628.290286,W,1,35,0.59,271.609,M,-33.936,M,,*4D"
1776287689.1878996,17:14:49.187,0.1182,2.2889,42.4464217,-76.47150483,1,"$GNGGA,211449.000,4226.785302,N,07628.290290,W,1,35,0.50,271.608,M,-33.936,M,,*41"
1776287692.1514673,17:14:52.151,0.114,2.2926,42.44642173,-76.47150488,1,"$GNGGA,211452.000,4226.785304,N,07628.290293,W,1,35,0.58,271.607,M,-33.936,M,,*49"
1776287693.1837323,17:14:53.183,0.1099,2.2926,42.44642173,-76.47150493,1,"$GNGGA,211453.000,4226.785304,N,07628.290296,W,1,35,0.59,271.609,M,-33.937,M,,*43"
1776287694.147174,17:14:54.147,0.1099,2.2926,42.44642173,-76.47150493,1,"$GNGGA,211454.000,4226.785304,N,07628.290296,W,1,35,0.61,271.612,M,-33.936,M,,*44"
1776287695.182729,17:14:55.182,0.1099,2.2926,42.44642173,-76.47150493,1,"$GNGGA,211455.000,4226.785304,N,07628.290296,W,1,35,0.59,271.618,M,-33.937,M,,*45"
1776287696.1493473,17:14:56.149,0.1045,2.2796,42.44642162,-76.471505,1,"$GNGGA,211456.000,4226.785297,N,07628.290300,W,1,35,0.60,271.618,M,-33.937,M,,*49"
1776287697.195357,17:14:57.195,0.0757,2.2703,42.44642153,-76.47150535,1,"$GNGGA,211457.000,4226.785292,N,07628.290321,W,1,35,0.53,271.619,M,-33.937,M,,*4F"
1776287698.1472626,17:14:58.147,0.0195,2.2889,42.4464217,-76.47150603,1,"$GNGGA,211458.000,4226.785302,N,07628.290362,W,1,34,0.64,271.616,M,-33.936,M,,*44"
1776287699.1881258,17:14:59.188,0.0195,2.2889,42.4464217,-76.47150603,1,"$GNGGA,211459.000,4226.785302,N,07628.290362,W,1,34,0.68,271.616,M,-33.936,M,,*49"
1776287702.1572757,17:15:02.157,0.0168,2.2889,42.4464217,-76.47150607,1,"$GNGGA,211502.000,4226.785302,N,07628.290364,W,1,34,0.71,271.617,M,-33.937,M,,*48"
1776287703.1784837,17:15:03.178,0.014,2.2889,42.4464217,-76.4715061,1,"$GNGGA,211503.000,4226.785302,N,07628.290366,W,1,34,0.73,271.615,M,-33.936,M,,*4A"
1776287704.1428158,17:15:04.142,0.014,2.287,42.44642168,-76.4715061,1,"$GNGGA,211504.000,4226.785301,N,07628.290366,W,1,34,0.85,271.614,M,-33.937,M,,*47"
1776287705.1804998,17:15:05.180,0.014,2.2852,42.44642167,-76.4715061,1,"$GNGGA,211505.000,4226.785300,N,07628.290366,W,1,34,0.74,271.615,M,-33.937,M,,*48"
1776287706.1526465,17:15:06.152,0.0127,2.2852,42.44642167,-76.47150612,1,"$GNGGA,211506.000,4226.785300,N,07628.290367,W,1,34,0.66,271.614,M,-33.937,M,,*48"
1776287707.1830983,17:15:07.183,0.0127,2.2852,42.44642167,-76.47150612,1,"$GNGGA,211507.000,4226.785300,N,07628.290367,W,1,33,0.72,271.613,M,-33.936,M,,*4D"
1776287708.1530154,17:15:08.153,0.014,2.2833,42.44642165,-76.4715061,1,"$GNGGA,211508.000,4226.785299,N,07628.290366,W,1,34,0.61,271.609,M,-33.937,M,,*4D"
1776287709.1849964,17:15:09.185,0.0168,2.2814,42.44642163,-76.47150607,1,"$GNGGA,211509.000,4226.785298,N,07628.290364,W,1,34,0.67,271.607,M,-33.936,M,,*46"
1776287712.1487494,17:15:12.148,0.0209,2.2814,42.44642163,-76.47150602,1,"$GNGGA,211512.000,4226.785298,N,07628.290361,W,1,34,0.68,271.606,M,-33.937,M,,*46"
1776287713.1820087,17:15:13.182,0.025,2.2796,42.44642162,-76.47150597,1,"$GNGGA,211513.000,4226.785297,N,07628.290358,W,1,33,0.64,271.603,M,-33.936,M,,*4D"
1776287714.1436336,17:15:14.143,0.0236,2.2777,42.4464216,-76.47150598,1,"$GNGGA,211514.000,4226.785296,N,07628.290359,W,1,33,0.71,271.606,M,-33.937,M,,*4A"
1776287715.182431,17:15:15.182,0.0223,2.2777,42.4464216,-76.471506,1,"$GNGGA,211515.000,4226.785296,N,07628.290360,W,1,33,0.69,271.608,M,-33.936,M,,*47"
1776287716.1465445,17:15:16.146,0.0195,2.2777,42.4464216,-76.47150603,1,"$GNGGA,211516.000,4226.785296,N,07628.290362,W,1,33,0.70,271.611,M,-33.936,M,,*46"
1776287717.1752841,17:15:17.175,0.0223,2.2796,42.44642162,-76.471506,1,"$GNGGA,211517.000,4226.785297,N,07628.290360,W,1,34,0.69,271.612,M,-33.936,M,,*48"
1776287718.1530404,17:15:18.153,0.0236,2.2777,42.4464216,-76.47150598,1,"$GNGGA,211518.000,4226.785296,N,07628.290359,W,1,34,0.66,271.611,M,-33.936,M,,*40"
1776287719.1813624,17:15:19.181,0.0264,2.274,42.44642157,-76.47150595,1,"$GNGGA,211519.000,4226.785294,N,07628.290357,W,1,33,0.61,271.614,M,-33.937,M,,*49"
1776287722.1448388,17:15:22.144,0.0428,2.2722,42.44642155,-76.47150575,1,"$GNGGA,211522.000,4226.785293,N,07628.290345,W,1,34,0.62,271.614,M,-33.936,M,,*40"
1776287723.1733892,17:15:23.173,0.0469,2.274,42.44642157,-76.4715057,1,"$GNGGA,211523.000,4226.785294,N,07628.290342,W,1,33,0.64,271.614,M,-33.936,M,,*40"
1776287724.1552727,17:15:24.155,0.0538,2.274,42.44642157,-76.47150562,1,"$GNGGA,211524.000,4226.785294,N,07628.290337,W,1,33,0.63,271.616,M,-33.936,M,,*40"
1776287725.178289,17:15:25.178,0.0579,2.2722,42.44642155,-76.47150557,1,"$GNGGA,211525.000,4226.785293,N,07628.290334,W,1,33,0.61,271.619,M,-33.937,M,,*49"
1776287726.1465435,17:15:26.146,0.0579,2.2685,42.44642152,-76.47150557,1,"$GNGGA,211526.000,4226.785291,N,07628.290334,W,1,33,0.61,271.619,M,-33.937,M,,*48"
1776287727.1798165,17:15:27.179,0.0661,2.2666,42.4464215,-76.47150547,1,"$GNGGA,211527.000,4226.785290,N,07628.290328,W,1,33,0.62,271.620,M,-33.936,M,,*4D"
1776287728.14827,17:15:28.148,0.0798,2.2666,42.4464215,-76.4715053,1,"$GNGGA,211528.000,4226.785290,N,07628.290318,W,1,33,0.62,271.616,M,-33.936,M,,*44"
1776287729.1813784,17:15:29.181,0.0935,2.2518,42.44642137,-76.47150513,1,"$GNGGA,211529.000,4226.785282,N,07628.290308,W,1,34,0.51,271.614,M,-33.936,M,,*42"
1776287732.1485944,17:15:32.148,0.114,2.2333,42.4464212,-76.47150488,1,"$GNGGA,211532.000,4226.785272,N,07628.290293,W,1,33,0.51,271.602,M,-33.937,M,,*45"
1776287733.1874342,17:15:33.187,0.114,2.2314,42.44642118,-76.47150488,1,"$GNGGA,211533.000,4226.785271,N,07628.290293,W,1,34,0.53,271.597,M,-33.936,M,,*4C"
1776287734.14823,17:15:34.148,0.1099,2.2333,42.4464212,-76.47150493,1,"$GNGGA,211534.000,4226.785272,N,07628.290296,W,1,34,0.55,271.591,M,-33.936,M,,*4D"
1776287735.1729333,17:15:35.172,0.1058,2.2296,42.44642117,-76.47150498,1,"$GNGGA,211535.000,4226.785270,N,07628.290299,W,1,34,0.56,271.590,M,-33.937,M,,*42"
1776287736.14681,17:15:36.146,0.0962,2.2314,42.44642118,-76.4715051,1,"$GNGGA,211536.000,4226.785271,N,07628.290306,W,1,33,0.51,271.583,M,-33.936,M,,*44"
1776287737.173948,17:15:37.173,0.0907,2.2259,42.44642113,-76.47150517,1,"$GNGGA,211537.000,4226.785268,N,07628.290310,W,1,33,0.49,271.580,M,-33.936,M,,*40"
1776287738.1510608,17:15:38.151,0.0894,2.2259,42.44642113,-76.47150518,1,"$GNGGA,211538.000,4226.785268,N,07628.290311,W,1,33,0.56,271.581,M,-33.936,M,,*41"
1776287739.186469,17:15:39.186,0.0825,2.2296,42.44642117,-76.47150527,1,"$GNGGA,211539.000,4226.785270,N,07628.290316,W,1,33,0.49,271.583,M,-33.936,M,,*42"
1776287742.1485324,17:15:42.148,0.0839,2.2333,42.4464212,-76.47150525,1,"$GNGGA,211542.000,4226.785272,N,07628.290315,W,1,32,0.59,271.577,M,-33.936,M,,*44"
1776287743.1714704,17:15:43.171,0.0839,2.2333,42.4464212,-76.47150525,1,"$GNGGA,211543.000,4226.785272,N,07628.290315,W,1,32,0.59,271.574,M,-33.936,M,,*46"
1776287744.1437335,17:15:44.143,0.0825,2.2333,42.4464212,-76.47150527,1,"$GNGGA,211544.000,4226.785272,N,07628.290316,W,1,32,0.55,271.572,M,-33.936,M,,*48"
1776287745.1779099,17:15:45.177,0.0812,2.2314,42.44642118,-76.47150528,1,"$GNGGA,211545.000,4226.785271,N,07628.290317,W,1,32,0.65,271.568,M,-33.936,M,,*43"
1776287746.155937,17:15:46.155,0.0812,2.2314,42.44642118,-76.47150528,1,"$GNGGA,211546.000,4226.785271,N,07628.290317,W,1,33,0.65,271.569,M,-33.936,M,,*40"
1776287747.1762264,17:15:47.176,0.0825,2.2314,42.44642118,-76.47150527,1,"$GNGGA,211547.000,4226.785271,N,07628.290316,W,1,33,0.68,271.564,M,-33.936,M,,*40"
1776287748.1489558,17:15:48.148,0.0825,2.2277,42.44642115,-76.47150527,1,"$GNGGA,211548.000,4226.785269,N,07628.290316,W,1,32,0.59,271.561,M,-33.936,M,,*40"
1776287749.1714199,17:15:49.171,0.0853,2.2222,42.4464211,-76.47150523,1,"$GNGGA,211549.000,4226.785266,N,07628.290314,W,1,32,0.56,271.558,M,-33.936,M,,*49"
1776287752.1417508,17:15:52.141,0.0784,2.224,42.44642112,-76.47150532,1,"$GNGGA,211552.000,4226.785267,N,07628.290319,W,1,32,0.61,271.555,M,-33.937,M,,*47"
1776287753.171259,17:15:53.171,0.0716,2.2314,42.44642118,-76.4715054,1,"$GNGGA,211553.000,4226.785271,N,07628.290324,W,1,33,0.60,271.555,M,-33.936,M,,*4E"
1776287754.1440287,17:15:54.144,0.0661,2.2333,42.4464212,-76.47150547,1,"$GNGGA,211554.000,4226.785272,N,07628.290328,W,1,33,0.61,271.553,M,-33.936,M,,*41"
1776287755.182142,17:15:55.182,0.0675,2.2351,42.44642122,-76.47150545,1,"$GNGGA,211555.000,4226.785273,N,07628.290327,W,1,33,0.59,271.550,M,-33.936,M,,*46"
1776287756.1505444,17:15:56.150,0.0661,2.2425,42.44642128,-76.47150547,1,"$GNGGA,211556.000,4226.785277,N,07628.290328,W,1,33,0.58,271.550,M,-33.937,M,,*4E"
