unix_time,human_time,x_meters,y_meters,raw_lat,raw_lon,status_quality,raw_nmea
1777734089.5516217,11:01:29.551,-0.0214,0.8872,42.44609168,-76.47234157,5,"$GNGGA,150129.000,4226.765501,N,07628.340494,W,5,32,0.45,274.001,M,-33.936,M,1.0,1851*6E"
1777734092.4701,11:01:32.470,0.0649,0.9002,42.4460918,-76.47234052,5,"$GNGGA,150132.000,4226.765508,N,07628.340431,W,5,32,0.40,273.763,M,-33.936,M,1.0,1855*67"
1777734093.4377017,11:01:33.437,0.0402,0.8891,42.4460917,-76.47234082,5,"$GNGGA,150133.000,4226.765502,N,07628.340449,W,5,32,0.45,273.585,M,-33.936,M,1.0,1855*6C"
1777734094.413134,11:01:34.413,0.0622,0.789,42.4460908,-76.47234055,5,"$GNGGA,150134.000,4226.765448,N,07628.340433,W,5,32,0.46,273.462,M,-33.936,M,1.0,1855*62"
1777734095.4371686,11:01:35.437,0.0717,0.5853,42.44608897,-76.47234043,5,"$GNGGA,150135.000,4226.765338,N,07628.340426,W,5,32,0.44,273.188,M,-33.936,M,1.0,1855*64"
1777734096.4716473,11:01:36.471,0.1348,0.6816,42.44608983,-76.47233967,5,"$GNGGA,150136.000,4226.765390,N,07628.340380,W,5,32,0.42,273.359,M,-33.936,M,1.0,1855*66"
1777734097.5457766,11:01:37.545,0.2361,0.6612,42.44608965,-76.47233843,5,"$GNGGA,150137.000,4226.765379,N,07628.340306,W,5,32,0.44,273.312,M,-33.936,M,1.0,1855*67"
1777734098.4469879,11:01:38.446,0.2923,0.6298,42.44608937,-76.47233775,5,"$GNGGA,150138.000,4226.765362,N,07628.340265,W,5,32,0.39,273.276,M,-33.936,M,2.0,1855*6C"
1777734099.5870795,11:01:39.587,0.3539,0.6798,42.44608982,-76.472337,5,"$GNGGA,150139.000,4226.765389,N,07628.340220,W,5,32,0.39,273.368,M,-33.936,M,3.0,1855*66"
1777734102.3407154,11:01:42.340,0.369,0.6983,42.44608998,-76.47233682,5,"$GNGGA,150142.000,4226.765399,N,07628.340209,W,5,32,0.39,272.919,M,-33.936,M,1.0,1855*6F"
1777734103.5866084,11:01:43.586,0.3238,0.7705,42.44609063,-76.47233737,5,"$GNGGA,150143.000,4226.765438,N,07628.340242,W,5,32,0.39,272.741,M,-33.937,M,1.0,1855*6F"
1777734104.4861708,11:01:44.486,0.3731,0.8002,42.4460909,-76.47233677,5,"$GNGGA,150144.000,4226.765454,N,07628.340206,W,5,32,0.39,272.983,M,-33.936,M,1.0,1855*63"
1777734105.5576577,11:01:45.557,0.3759,0.6649,42.44608968,-76.47233673,5,"$GNGGA,150145.000,4226.765381,N,07628.340204,W,5,32,0.46,272.837,M,-33.936,M,1.0,1855*69"
1777734106.4631867,11:01:46.463,0.2827,0.652,42.44608957,-76.47233787,5,"$GNGGA,150146.000,4226.765374,N,07628.340272,W,5,32,0.39,272.742,M,-33.936,M,1.0,1855*64"
1777734107.4941652,11:01:47.494,0.1676,0.6186,42.44608927,-76.47233927,5,"$GNGGA,150147.000,4226.765356,N,07628.340356,W,5,32,0.39,272.658,M,-33.936,M,1.0,1855*68"
1777734108.4423542,11:01:48.442,0.0868,0.576,42.44608888,-76.47234025,5,"$GNGGA,150148.000,4226.765333,N,07628.340415,W,5,32,0.39,272.731,M,-33.937,M,1.0,1855*6B"
1777734109.5650427,11:01:49.565,0.0594,0.6149,42.44608923,-76.47234058,5,"$GNGGA,150149.000,4226.765354,N,07628.340435,W,5,32,0.39,272.566,M,-33.936,M,1.0,1855*68"
1777734112.4864128,11:01:52.486,-0.0365,0.4242,42.44608752,-76.47234175,5,"$GNGGA,150152.000,4226.765251,N,07628.340505,W,5,32,0.39,272.195,M,-33.936,M,3.0,1855*6E"
1777734113.4469945,11:01:53.446,0.0745,0.3241,42.44608662,-76.4723404,5,"$GNGGA,150153.000,4226.765197,N,07628.340424,W,5,32,0.43,271.821,M,-33.936,M,1.0,1855*6E"
1777734114.4648056,11:01:54.464,0.095,0.2482,42.44608593,-76.47234015,5,"$GNGGA,150154.000,4226.765156,N,07628.340409,W,5,32,0.39,271.763,M,-33.936,M,1.0,1855*6F"
1777734115.5702157,11:01:55.570,0.1594,0.1297,42.44608487,-76.47233937,5,"$GNGGA,150155.000,4226.765092,N,07628.340362,W,5,32,0.44,271.854,M,-33.936,M,1.0,1855*6C"
1777734116.529489,11:01:56.529,0.0279,-0.0278,42.44608345,-76.47234097,5,"$GNGGA,150156.000,4226.765007,N,07628.340458,W,5,32,0.40,271.603,M,-33.937,M,1.0,1855*64"
1777734117.54477,11:01:57.544,0.0238,-0.0963,42.44608283,-76.47234102,5,"$GNGGA,150157.000,4226.764970,N,07628.340461,W,5,32,0.39,271.506,M,-33.936,M,1.0,1855*6E"
1777734118.4068952,11:01:58.406,0.0416,-0.2186,42.44608173,-76.4723408,5,"$GNGGA,150158.000,4226.764904,N,07628.340448,W,5,32,0.39,271.365,M,-33.936,M,1.0,1855*6A"
1777734119.549082,11:01:59.549,-0.131,-0.3649,42.44608042,-76.4723429,5,"$GNGGA,150159.000,4226.764825,N,07628.340574,W,5,32,0.39,271.316,M,-33.936,M,1.0,1855*63"
1777734122.5118375,11:02:02.511,-0.2077,-0.4705,42.44607947,-76.47234383,5,"$GNGGA,150202.000,4226.764768,N,07628.340630,W,5,32,0.45,271.336,M,-33.936,M,1.0,1855*62"
1777734123.5280888,11:02:03.528,-0.2378,-0.489,42.4460793,-76.4723442,5,"$GNGGA,150203.000,4226.764758,N,07628.340652,W,5,32,0.40,271.483,M,-33.936,M,1.0,1855*68"
1777734124.5259628,11:02:04.525,-0.4337,-0.5705,42.44607857,-76.47234658,5,"$GNGGA,150204.000,4226.764714,N,07628.340795,W,5,32,0.40,271.635,M,-33.936,M,1.0,1855*62"
1777734125.5159938,11:02:05.515,-0.6419,-0.7446,42.446077,-76.47234912,5,"$GNGGA,150205.000,4226.764620,N,07628.340947,W,5,32,0.43,271.618,M,-33.937,M,1.0,1855*69"
1777734126.5690336,11:02:06.569,-0.6241,-0.7298,42.44607713,-76.4723489,5,"$GNGGA,150206.000,4226.764628,N,07628.340934,W,5,32,0.45,271.515,M,-33.936,M,1.0,1855*6F"
1777734127.558316,11:02:07.558,-0.5556,-0.7464,42.44607698,-76.47234807,5,"$GNGGA,150207.000,4226.764619,N,07628.340884,W,5,32,0.44,271.458,M,-33.937,M,1.0,1855*6E"
1777734128.5511644,11:02:08.551,-0.6734,-0.7131,42.44607728,-76.4723495,5,"$GNGGA,150208.000,4226.764637,N,07628.340970,W,5,32,0.44,271.527,M,-33.936,M,1.0,1855*6F"
1777734129.5264823,11:02:09.526,-0.7543,-0.7279,42.44607715,-76.47235048,5,"$GNGGA,150209.000,4226.764629,N,07628.341029,W,5,32,0.45,271.442,M,-33.936,M,2.0,1855*65"
1777734132.5069215,11:02:12.506,-1.1077,-0.7742,42.44607673,-76.47235478,5,"$GNGGA,150212.000,4226.764604,N,07628.341287,W,5,32,0.44,271.446,M,-33.937,M,1.0,1855*61"
1777734133.4914222,11:02:13.491,-1.2241,-0.7835,42.44607665,-76.4723562,5,"$GNGGA,150213.000,4226.764599,N,07628.341372,W,5,32,0.46,271.373,M,-33.937,M,1.0,1855*6F"
1777734134.5417757,11:02:14.541,-1.2748,-0.8131,42.44607638,-76.47235682,5,"$GNGGA,150214.000,4226.764583,N,07628.341409,W,5,32,0.42,271.545,M,-33.936,M,1.0,1855*6E"
1777734135.5224352,11:02:15.522,-1.3282,-0.8353,42.44607618,-76.47235747,5,"$GNGGA,150215.000,4226.764571,N,07628.341448,W,5,32,0.42,271.538,M,-33.936,M,1.0,1855*6D"
1777734136.4511251,11:02:16.451,-1.4474,-0.8483,42.44607607,-76.47235892,5,"$GNGGA,150216.000,4226.764564,N,07628.341535,W,5,32,0.42,271.519,M,-33.936,M,1.0,1855*62"
1777734137.5529683,11:02:17.552,-1.5132,-0.915,42.44607547,-76.47235972,5,"$GNGGA,150217.000,4226.764528,N,07628.341583,W,5,32,0.42,271.708,M,-33.936,M,1.0,1855*64"
1777734138.5369732,11:02:18.536,-1.5666,-0.8631,42.44607593,-76.47236037,5,"$GNGGA,150218.000,4226.764556,N,07628.341622,W,5,32,0.41,271.552,M,-33.937,M,1.0,1855*65"
1777734139.572187,11:02:19.572,-1.5885,-0.8798,42.44607578,-76.47236063,5,"$GNGGA,150219.000,4226.764547,N,07628.341638,W,5,32,0.41,271.578,M,-33.936,M,1.0,1855*66"
1777734142.5318944,11:02:22.531,-1.5501,-0.8668,42.4460759,-76.47236017,5,"$GNGGA,150222.000,4226.764554,N,07628.341610,W,5,32,0.40,271.541,M,-33.936,M,1.0,1855*6D"
1777734143.5604703,11:02:23.560,-1.5419,-0.8946,42.44607565,-76.47236007,5,"$GNGGA,150223.000,4226.764539,N,07628.341604,W,5,32,0.44,271.647,M,-33.936,M,2.0,1855*60"
1777734144.478435,11:02:24.478,-1.4652,-0.8872,42.44607572,-76.47235913,5,"$GNGGA,150224.000,4226.764543,N,07628.341548,W,5,32,0.41,271.686,M,-33.937,M,1.0,1855*6B"
1777734145.5026512,11:02:25.502,-1.394,-0.8928,42.44607567,-76.47235827,5,"$GNGGA,150225.000,4226.764540,N,07628.341496,W,5,32,0.40,271.766,M,-33.936,M,1.0,1855*64"
1777734146.5246282,11:02:26.524,-1.32,-0.8928,42.44607567,-76.47235737,5,"$GNGGA,150226.000,4226.764540,N,07628.341442,W,5,32,0.41,271.834,M,-33.936,M,1.0,1855*67"
1777734147.5494525,11:02:27.549,-1.2296,-0.9224,42.4460754,-76.47235627,5,"$GNGGA,150227.000,4226.764524,N,07628.341376,W,5,32,0.41,271.934,M,-33.936,M,1.0,1855*65"
1777734148.4961095,11:02:28.496,-1.2104,-0.9391,42.44607525,-76.47235603,5,"$GNGGA,150228.000,4226.764515,N,07628.341362,W,5,32,0.47,271.898,M,-33.936,M,1.0,1855*6C"
1777734149.4841962,11:02:29.484,-1.2351,-0.9391,42.44607525,-76.47235633,5,"$GNGGA,150229.000,4226.764515,N,07628.341380,W,5,32,0.46,271.947,M,-33.937,M,1.0,1855*62"
1777734152.5890908,11:02:32.589,-1.094,-1.0502,42.44607425,-76.47235462,5,"$GNGGA,150232.000,4226.764455,N,07628.341277,W,5,32,0.38,272.144,M,-33.936,M,1.0,1855*64"
1777734153.49759,11:02:33.497,-1.046,-1.0298,42.44607443,-76.47235403,5,"$GNGGA,150233.000,4226.764466,N,07628.341242,W,5,32,0.42,272.228,M,-33.936,M,1.0,1855*67"
1777734154.512842,11:02:34.512,-0.9748,-1.0724,42.44607405,-76.47235317,5,"$GNGGA,150234.000,4226.764443,N,07628.341190,W,5,32,0.38,272.250,M,-33.936,M,1.0,1855*69"
1777734155.5756059,11:02:35.575,-0.9214,-1.0872,42.44607392,-76.47235252,5,"$GNGGA,150235.000,4226.764435,N,07628.341151,W,5,32,0.39,272.357,M,-33.937,M,1.0,1855*62"
1777734156.5625372,11:02:36.562,-0.8228,-1.1224,42.4460736,-76.47235132,5,"$GNGGA,150236.000,4226.764416,N,07628.341079,W,5,32,0.42,272.384,M,-33.936,M,1.0,1855*68"
1777734157.5125208,11:02:37.512,-0.6789,-1.1335,42.4460735,-76.47234957,5,"$GNGGA,150237.000,4226.764410,N,07628.340974,W,5,32,0.39,272.444,M,-33.936,M,1.0,1855*6D"
1777734158.504534,11:02:38.504,-0.6022,-1.1447,42.4460734,-76.47234863,5,"$GNGGA,150238.000,4226.764404,N,07628.340918,W,5,32,0.43,272.445,M,-33.937,M,1.0,1855*60"
1777734159.4601436,11:02:39.460,-0.5337,-1.1724,42.44607315,-76.4723478,5,"$GNGGA,150239.000,4226.764389,N,07628.340868,W,5,32,0.41,272.525,M,-33.936,M,1.0,1855*61"
1777734162.5350232,11:02:42.535,-0.4282,-1.1558,42.4460733,-76.47234652,5,"$GNGGA,150242.000,4226.764398,N,07628.340791,W,5,32,0.39,272.585,M,-33.936,M,3.0,1855*63"
1777734163.552981,11:02:43.552,-0.3693,-1.1539,42.44607332,-76.4723458,5,"$GNGGA,150243.000,4226.764399,N,07628.340748,W,5,32,0.39,272.610,M,-33.936,M,1.0,1855*6A"
1777734164.5515792,11:02:44.551,-0.3474,-1.1706,42.44607317,-76.47234553,5,"$GNGGA,150244.000,4226.764390,N,07628.340732,W,5,32,0.40,272.715,M,-33.936,M,1.0,1855*63"
1777734165.5058692,11:02:45.505,-0.3433,-1.2188,42.44607273,-76.47234548,5,"$GNGGA,150245.000,4226.764364,N,07628.340729,W,5,32,0.40,272.831,M,-33.936,M,1.0,1855*6A"
1777734166.5266662,11:02:46.526,-0.3954,-1.2132,42.44607278,-76.47234612,5,"$GNGGA,150246.000,4226.764367,N,07628.340767,W,5,32,0.41,272.837,M,-33.937,M,1.0,1855*66"
1777734167.554992,11:02:47.554,-0.3652,-1.2576,42.44607238,-76.47234575,5,"$GNGGA,150247.000,4226.764343,N,07628.340745,W,5,32,0.44,272.969,M,-33.936,M,1.0,1855*6F"
1777734168.514449,11:02:48.514,-0.4118,-1.2743,42.44607223,-76.47234632,5,"$GNGGA,150248.000,4226.764334,N,07628.340779,W,5,32,0.43,273.056,M,-33.937,M,1.0,1855*6D"
1777734169.551973,11:02:49.551,-0.4502,-1.2891,42.4460721,-76.47234678,5,"$GNGGA,150249.000,4226.764326,N,07628.340807,W,5,32,0.38,273.049,M,-33.936,M,1.0,1855*6A"
1777734172.5033157,11:02:52.503,-0.6447,-1.2891,42.4460721,-76.47234915,5,"$GNGGA,150252.000,4226.764326,N,07628.340949,W,5,32,0.46,273.056,M,-33.936,M,1.0,1855*6C"
1777734173.5149977,11:02:53.515,-0.6529,-1.2947,42.44607205,-76.47234925,5,"$GNGGA,150253.000,4226.764323,N,07628.340955,W,5,32,0.38,273.042,M,-33.937,M,1.0,1855*68"
1777734174.4706628,11:02:54.470,-0.6447,-1.3114,42.4460719,-76.47234915,5,"$GNGGA,150254.000,4226.764314,N,07628.340949,W,5,32,0.41,273.112,M,-33.936,M,1.0,1855*6D"
1777734175.4992225,11:02:55.499,-0.6392,-1.2984,42.44607202,-76.47234908,5,"$GNGGA,150255.000,4226.764321,N,07628.340945,W,5,32,0.45,273.120,M,-33.937,M,1.0,1855*62"
1777734176.4988227,11:02:56.498,-0.5899,-1.3002,42.446072,-76.47234848,5,"$GNGGA,150256.000,4226.764320,N,07628.340909,W,5,32,0.38,273.114,M,-33.937,M,1.0,1855*65"
1777734177.572591,11:02:57.572,-0.5885,-1.291,42.44607208,-76.47234847,5,"$GNGGA,150257.000,4226.764325,N,07628.340908,W,5,32,0.39,273.107,M,-33.936,M,1.0,1855*62"
1777734178.4637463,11:02:58.463,-0.6022,-1.2836,42.44607215,-76.47234863,5,"$GNGGA,150258.000,4226.764329,N,07628.340918,W,5,32,0.41,273.113,M,-33.936,M,1.0,1855*6A"
1777734179.5197744,11:02:59.519,-0.6337,-1.2725,42.44607225,-76.47234902,5,"$GNGGA,150259.000,4226.764335,N,07628.340941,W,5,32,0.46,273.081,M,-33.937,M,1.0,1855*66"
1777734182.510548,11:03:02.510,-0.5789,-1.2502,42.44607245,-76.47234835,5,"$GNGGA,150302.000,4226.764347,N,07628.340901,W,5,32,0.40,273.076,M,-33.936,M,1.0,1855*67"
1777734183.567284,11:03:03.567,-0.5392,-1.2299,42.44607263,-76.47234787,5,"$GNGGA,150303.000,4226.764358,N,07628.340872,W,5,32,0.44,273.087,M,-33.936,M,2.0,1855*64"
1777734184.5256712,11:03:04.525,-0.4981,-1.2373,42.44607257,-76.47234737,5,"$GNGGA,150304.000,4226.764354,N,07628.340842,W,5,32,0.41,273.150,M,-33.936,M,2.0,1855*62"
1777734185.5246987,11:03:05.524,-0.4597,-1.2373,42.44607257,-76.4723469,5,"$GNGGA,150305.000,4226.764354,N,07628.340814,W,5,32,0.42,273.214,M,-33.937,M,1.0,1855*62"
1777734186.439857,11:03:06.439,-0.3817,-1.2243,42.44607268,-76.47234595,5,"$GNGGA,150306.000,4226.764361,N,07628.340757,W,5,32,0.42,273.214,M,-33.937,M,1.0,1855*6F"
1777734187.509658,11:03:07.509,-0.3241,-1.2058,42.44607285,-76.47234525,5,"$GNGGA,150307.000,4226.764371,N,07628.340715,W,5,32,0.42,273.217,M,-33.937,M,1.0,1855*6A"
1777734188.5003235,11:03:08.500,-0.2748,-1.2132,42.44607278,-76.47234465,5,"$GNGGA,150308.000,4226.764367,N,07628.340679,W,5,32,0.43,273.292,M,-33.936,M,1.0,1855*64"
1777734189.5707362,11:03:09.570,-0.2296,-1.2058,42.44607285,-76.4723441,5,"$GNGGA,150309.000,4226.764371,N,07628.340646,W,5,32,0.42,273.308,M,-33.936,M,1.0,1855*6D"
1777734192.5093584,11:03:12.509,-0.1365,-1.2076,42.44607283,-76.47234297,5,"$GNGGA,150312.000,4226.764370,N,07628.340578,W,5,32,0.44,273.403,M,-33.937,M,1.0,1855*63"
1777734193.5713034,11:03:13.571,-0.0707,-1.2021,42.44607288,-76.47234217,5,"$GNGGA,150313.000,4226.764373,N,07628.340530,W,5,32,0.46,273.396,M,-33.936,M,1.0,1855*65"
1777734194.4620109,11:03:14.462,-0.0556,-1.1965,42.44607293,-76.47234198,5,"$GNGGA,150314.000,4226.764376,N,07628.340519,W,5,32,0.41,273.448,M,-33.936,M,1.0,1855*6F"
1777734195.521778,11:03:15.521,-0.0255,-1.1928,42.44607297,-76.47234162,5,"$GNGGA,150315.000,4226.764378,N,07628.340497,W,5,32,0.46,273.466,M,-33.936,M,1.0,1855*6C"
1777734196.4886498,11:03:16.488,-0.0283,-1.1817,42.44607307,-76.47234165,5,"$GNGGA,150316.000,4226.764384,N,07628.340499,W,5,32,0.42,273.397,M,-33.937,M,1.0,1855*6E"
1777734197.4409368,11:03:17.440,-0.0036,-1.178,42.4460731,-76.47234135,5,"$GNGGA,150317.000,4226.764386,N,07628.340481,W,5,32,0.43,273.428,M,-33.936,M,1.0,1855*67"
1777734198.4714189,11:03:18.471,-0.0022,-1.165,42.44607322,-76.47234133,5,"$GNGGA,150318.000,4226.764393,N,07628.340480,W,5,32,0.46,273.416,M,-33.936,M,1.0,1855*65"
1777734199.4517221,11:03:19.451,0.0224,-1.1669,42.4460732,-76.47234103,5,"$GNGGA,150319.000,4226.764392,N,07628.340462,W,5,32,0.45,273.406,M,-33.937,M,1.0,1855*6A"
1777734202.5211635,11:03:22.521,0.0334,-1.1187,42.44607363,-76.4723409,5,"$GNGGA,150322.000,4226.764418,N,07628.340454,W,5,32,0.43,273.344,M,-33.937,M,1.0,1855*65"
1777734203.5647683,11:03:23.564,0.0443,-1.0965,42.44607383,-76.47234077,5,"$GNGGA,150323.000,4226.764430,N,07628.340446,W,5,32,0.41,273.261,M,-33.936,M,1.0,1855*68"
1777734204.5172765,11:03:24.517,0.0471,-1.0835,42.44607395,-76.47234073,5,"$GNGGA,150324.000,4226.764437,N,07628.340444,W,5,32,0.42,273.268,M,-33.937,M,1.0,1855*61"
1777734205.533203,11:03:25.533,0.0498,-1.0743,42.44607403,-76.4723407,5,"$GNGGA,150325.000,4226.764442,N,07628.340442,W,5,32,0.39,273.220,M,-33.936,M,2.0,1855*66"
1777734206.487256,11:03:26.487,0.043,-1.0502,42.44607425,-76.47234078,5,"$GNGGA,150326.000,4226.764455,N,07628.340447,W,5,32,0.44,273.185,M,-33.936,M,3.0,1855*61"
1777734207.5317523,11:03:27.531,0.0293,-1.0372,42.44607437,-76.47234095,5,"$GNGGA,150327.000,4226.764462,N,07628.340457,W,5,32,0.41,273.130,M,-33.936,M,1.0,1855*6C"
1777734208.5006251,11:03:28.500,0.0224,-1.0261,42.44607447,-76.47234103,5,"$GNGGA,150328.000,4226.764468,N,07628.340462,W,5,32,0.41,273.079,M,-33.936,M,1.0,1855*63"
1777734209.524286,11:03:29.524,0.0005,-1.0039,42.44607467,-76.4723413,5,"$GNGGA,150329.000,4226.764480,N,07628.340478,W,5,32,0.42,273.037,M,-33.936,M,1.0,1855*66"
1777734212.4936528,11:03:32.493,-0.0556,-0.9446,42.4460752,-76.47234198,5,"$GNGGA,150332.000,4226.764512,N,07628.340519,W,5,32,0.43,272.806,M,-33.937,M,1.0,1855*6B"
1777734213.5089402,11:03:33.508,-0.0707,-0.9094,42.44607552,-76.47234217,5,"$GNGGA,150333.000,4226.764531,N,07628.340530,W,5,32,0.43,272.715,M,-33.937,M,1.0,1855*6D"
1777734214.4874024,11:03:34.487,-0.0707,-0.8946,42.44607565,-76.47234217,5,"$GNGGA,150334.000,4226.764539,N,07628.340530,W,5,32,0.43,272.644,M,-33.937,M,1.0,1855*67"
1777734215.5157354,11:03:35.515,-0.1091,-0.8613,42.44607595,-76.47234263,5,"$GNGGA,150335.000,4226.764557,N,07628.340558,W,5,32,0.44,272.565,M,-33.936,M,1.0,1855*66"
1777734216.4924686,11:03:36.492,-0.1091,-0.8539,42.44607602,-76.47234263,5,"$GNGGA,150336.000,4226.764561,N,07628.340558,W,5,32,0.43,272.525,M,-33.937,M,1.0,1855*62"
1777734217.4874725,11:03:37.487,-0.1693,-0.8279,42.44607625,-76.47234337,5,"$GNGGA,150337.000,4226.764575,N,07628.340602,W,5,32,0.43,272.439,M,-33.936,M,1.0,1855*67"
1777734218.516647,11:03:38.516,-0.2104,-0.8057,42.44607645,-76.47234387,5,"$GNGGA,150338.000,4226.764587,N,07628.340632,W,5,32,0.42,272.352,M,-33.936,M,1.0,1855*6D"
1777734219.461897,11:03:39.461,-0.2693,-0.8002,42.4460765,-76.47234458,5,"$GNGGA,150339.000,4226.764590,N,07628.340675,W,5,32,0.42,272.336,M,-33.936,M,1.0,1855*6B"
1777734222.4933367,11:03:42.493,-0.368,-0.7835,42.44607665,-76.47234578,5,"$GNGGA,150342.000,4226.764599,N,07628.340747,W,5,32,0.45,272.252,M,-33.936,M,1.0,1855*6A"
1777734223.470221,11:03:43.470,-0.3885,-0.7687,42.44607678,-76.47234603,5,"$GNGGA,150343.000,4226.764607,N,07628.340762,W,5,32,0.41,272.246,M,-33.936,M,1.0,1855*69"
1777734224.4731174,11:03:44.473,-0.3981,-0.7668,42.4460768,-76.47234615,5,"$GNGGA,150344.000,4226.764608,N,07628.340769,W,5,32,0.41,272.240,M,-33.936,M,1.0,1855*6C"
1777734225.5428774,11:03:45.542,-0.3871,-0.765,42.44607682,-76.47234602,5,"$GNGGA,150345.000,4226.764609,N,07628.340761,W,5,32,0.43,272.238,M,-33.936,M,1.0,1855*69"
1777734226.5169954,11:03:46.517,-0.4022,-0.7538,42.44607692,-76.4723462,5,"$GNGGA,150346.000,4226.764615,N,07628.340772,W,5,32,0.47,272.234,M,-33.936,M,1.0,1855*6D"
1777734227.4310422,11:03:47.431,-0.3871,-0.7576,42.44607688,-76.47234602,5,"$GNGGA,150347.000,4226.764613,N,07628.340761,W,5,32,0.41,272.228,M,-33.936,M,1.0,1855*63"
1777734228.4175577,11:03:48.417,-0.3899,-0.7427,42.44607702,-76.47234605,5,"$GNGGA,150348.000,4226.764621,N,07628.340763,W,5,32,0.44,272.201,M,-33.936,M,1.0,1855*61"
1777734229.4528935,11:03:49.452,-0.4036,-0.7409,42.44607703,-76.47234622,5,"$GNGGA,150349.000,4226.764622,N,07628.340773,W,5,32,0.41,272.212,M,-33.937,M,1.0,1855*64"
1777734232.4444056,11:03:52.444,-0.4625,-0.7242,42.44607718,-76.47234693,5,"$GNGGA,150352.000,4226.764631,N,07628.340816,W,5,32,0.40,272.148,M,-33.937,M,1.0,1855*6D"
1777734233.4558635,11:03:53.455,-0.483,-0.7261,42.44607717,-76.47234718,5,"$GNGGA,150353.000,4226.764630,N,07628.340831,W,5,32,0.44,272.142,M,-33.936,M,1.0,1855*67"
1777734234.4129646,11:03:54.412,-0.5392,-0.7131,42.44607728,-76.47234787,5,"$GNGGA,150354.000,4226.764637,N,07628.340872,W,5,32,0.40,272.136,M,-33.937,M,1.0,1855*66"
1777734235.4468513,11:03:55.446,-0.5625,-0.7149,42.44607727,-76.47234815,5,"$GNGGA,150355.000,4226.764636,N,07628.340889,W,5,32,0.41,272.119,M,-33.937,M,1.0,1855*6E"
1777734236.4966733,11:03:56.496,-0.6118,-0.7112,42.4460773,-76.47234875,5,"$GNGGA,150356.000,4226.764638,N,07628.340925,W,5,32,0.42,272.130,M,-33.937,M,1.0,1855*6C"
1777734237.4434288,11:03:57.443,-0.6323,-0.7001,42.4460774,-76.472349,5,"$GNGGA,150357.000,4226.764644,N,07628.340940,W,5,31,0.43,272.080,M,-33.937,M,1.0,1855*6D"
1777734238.4248586,11:03:58.424,-0.668,-0.6853,42.44607753,-76.47234943,5,"$GNGGA,150358.000,4226.764652,N,07628.340966,W,5,31,0.43,272.052,M,-33.936,M,1.0,1855*6F"
1777734239.4672956,11:03:59.467,-0.6789,-0.6798,42.44607758,-76.47234957,5,"$GNGGA,150359.000,4226.764655,N,07628.340974,W,5,31,0.41,272.003,M,-33.936,M,2.0,1855*6F"
1777734242.4223456,11:04:02.422,-0.7433,-0.6557,42.4460778,-76.47235035,5,"$GNGGA,150402.000,4226.764668,N,07628.341021,W,5,31,0.48,271.924,M,-33.937,M,1.0,1855*64"
1777734243.4763098,11:04:03.476,-0.7803,-0.639,42.44607795,-76.4723508,5,"$GNGGA,150403.000,4226.764677,N,07628.341048,W,5,31,0.49,271.896,M,-33.936,M,1.0,1855*6C"
1777734244.4433808,11:04:04.443,-0.7981,-0.6205,42.44607812,-76.47235102,5,"$GNGGA,150404.000,4226.764687,N,07628.341061,W,5,31,0.47,271.839,M,-33.936,M,1.0,1855*64"
1777734245.4328458,11:04:05.432,-0.8282,-0.6112,42.4460782,-76.47235138,5,"$GNGGA,150405.000,4226.764692,N,07628.341083,W,5,31,0.45,271.807,M,-33.936,M,1.0,1855*62"
1777734246.475844,11:04:06.475,-0.8488,-0.6057,42.44607825,-76.47235163,5,"$GNGGA,150406.000,4226.764695,N,07628.341098,W,5,31,0.49,271.775,M,-33.936,M,1.0,1855*6A"
1777734247.4677284,11:04:07.467,-0.8748,-0.5871,42.44607842,-76.47235195,5,"$GNGGA,150407.000,4226.764705,N,07628.341117,W,5,31,0.46,271.739,M,-33.936,M,1.0,1855*62"
1777734248.3965433,11:04:08.396,-0.9063,-0.5909,42.44607838,-76.47235233,5,"$GNGGA,150408.000,4226.764703,N,07628.341140,W,5,31,0.47,271.714,M,-33.936,M,1.0,1855*67"
1777734249.4948423,11:04:09.494,-0.9173,-0.5723,42.44607855,-76.47235247,5,"$GNGGA,150409.000,4226.764713,N,07628.341148,W,5,31,0.42,271.698,M,-33.936,M,1.0,1855*6F"
1777734252.4187007,11:04:12.418,-0.9734,-0.5594,42.44607867,-76.47235315,5,"$GNGGA,150412.000,4226.764720,N,07628.341189,W,5,31,0.42,271.643,M,-33.936,M,1.0,1855*6E"
1777734253.4430814,11:04:13.443,-0.9981,-0.552,42.44607873,-76.47235345,5,"$GNGGA,150413.000,4226.764724,N,07628.341207,W,5,31,0.43,271.628,M,-33.937,M,1.0,1855*63"
1777734254.4321802,11:04:14.432,-1.0186,-0.552,42.44607873,-76.4723537,5,"$GNGGA,150414.000,4226.764724,N,07628.341222,W,5,31,0.49,271.612,M,-33.936,M,1.0,1855*61"
1777734255.4518867,11:04:15.451,-1.0501,-0.539,42.44607885,-76.47235408,5,"$GNGGA,150415.000,4226.764731,N,07628.341245,W,5,31,0.39,271.594,M,-33.936,M,1.0,1855*6F"
1777734256.457687,11:04:16.457,-1.0584,-0.5371,42.44607887,-76.47235418,5,"$GNGGA,150416.000,4226.764732,N,07628.341251,W,5,31,0.40,271.571,M,-33.936,M,2.0,1855*6C"
1777734257.497254,11:04:17.497,-1.0707,-0.5279,42.44607895,-76.47235433,5,"$GNGGA,150417.000,4226.764737,N,07628.341260,W,5,31,0.39,271.564,M,-33.937,M,3.0,1855*60"
1777734258.4455214,11:04:18.445,-1.0762,-0.5297,42.44607893,-76.4723544,5,"$GNGGA,150418.000,4226.764736,N,07628.341264,W,5,31,0.39,271.546,M,-33.936,M,4.0,1855*6C"
1777734259.4551384,11:04:19.455,-1.0885,-0.5242,42.44607898,-76.47235455,5,"$GNGGA,150419.000,4226.764739,N,07628.341273,W,5,31,0.39,271.541,M,-33.936,M,5.0,1855*62"
1777734262.4684079,11:04:22.468,-1.1077,-0.5186,42.44607903,-76.47235478,5,"$GNGGA,150422.000,4226.764742,N,07628.341287,W,5,31,0.43,271.514,M,-33.936,M,8.0,1855*6D"
1777734263.4978535,11:04:23.497,-1.1077,-0.5131,42.44607908,-76.47235478,5,"$GNGGA,150423.000,4226.764745,N,07628.341287,W,5,31,0.43,271.502,M,-33.936,M,9.0,1855*6D"
1777734264.4658406,11:04:24.465,-1.1118,-0.5094,42.44607912,-76.47235483,5,"$GNGGA,150424.000,4226.764747,N,07628.341290,W,5,31,0.41,271.499,M,-33.936,M,10.0,1855*57"
1777734265.4818034,11:04:25.481,-1.1104,-0.5131,42.44607908,-76.47235482,5,"$GNGGA,150425.000,4226.764745,N,07628.341289,W,5,31,0.43,271.496,M,-33.936,M,11.0,1855*50"
1777734266.4079368,11:04:26.407,-1.1118,-0.5057,42.44607915,-76.47235483,5,"$GNGGA,150426.000,4226.764749,N,07628.341290,W,5,31,0.39,271.488,M,-33.936,M,12.0,1855*56"
1777734267.4754415,11:04:27.475,-1.1214,-0.5057,42.44607915,-76.47235495,5,"$GNGGA,150427.000,4226.764749,N,07628.341297,W,5,31,0.41,271.470,M,-33.936,M,13.0,1855*59"
1777734268.45464,11:04:28.454,-1.1241,-0.5038,42.44607917,-76.47235498,5,"$GNGGA,150428.000,4226.764750,N,07628.341299,W,5,31,0.46,271.471,M,-33.936,M,14.0,1855*51"
1777734269.5274985,11:04:29.527,-1.1296,-0.5019,42.44607918,-76.47235505,5,"$GNGGA,150429.000,4226.764751,N,07628.341303,W,5,31,0.45,271.453,M,-33.937,M,15.0,1855*50"
1777734272.4707263,11:04:32.470,-1.1392,-0.4982,42.44607922,-76.47235517,5,"$GNGGA,150432.000,4226.764753,N,07628.341310,W,5,31,0.47,271.440,M,-33.937,M,18.0,1855*57"
1777734273.446705,11:04:33.446,-1.1433,-0.4945,42.44607925,-76.47235522,5,"$GNGGA,150433.000,4226.764755,N,07628.341313,W,5,31,0.42,271.434,M,-33.937,M,19.0,1855*54"
1777734274.5114622,11:04:34.511,-1.1433,-0.4982,42.44607922,-76.47235522,5,"$GNGGA,150434.000,4226.764753,N,07628.341313,W,5,31,0.44,271.432,M,-33.936,M,20.0,1855*5E"
1777734275.4633622,11:04:35.463,-1.1501,-0.4982,42.44607922,-76.4723553,5,"$GNGGA,150435.000,4226.764753,N,07628.341318,W,5,31,0.45,271.432,M,-33.937,M,21.0,1855*55"
1777734276.445351,11:04:36.445,-1.1501,-0.4982,42.44607922,-76.4723553,5,"$GNGGA,150436.000,4226.764753,N,07628.341318,W,5,31,0.49,271.420,M,-33.937,M,22.0,1855*5A"
1777734277.5349631,11:04:37.534,-1.1515,-0.4982,42.44607922,-76.47235532,5,"$GNGGA,150437.000,4226.764753,N,07628.341319,W,5,31,0.50,271.424,M,-33.937,M,23.0,1855*57"
1777734278.4257097,11:04:38.425,-1.1543,-0.4964,42.44607923,-76.47235535,5,"$GNGGA,150438.000,4226.764754,N,07628.341321,W,5,31,0.40,271.413,M,-33.936,M,24.0,1855*57"
1777734279.4505942,11:04:39.450,-1.1543,-0.4908,42.44607928,-76.47235535,5,"$GNGGA,150439.000,4226.764757,N,07628.341321,W,5,31,0.40,271.405,M,-33.936,M,25.0,1855*53"
1777734282.4035625,11:04:42.403,-1.1584,-0.4908,42.44607928,-76.4723554,5,"$GNGGA,150442.000,4226.764757,N,07628.341324,W,5,31,0.41,271.396,M,-33.936,M,28.0,1855*5B"
1777734283.496016,11:04:43.496,-1.1597,-0.4964,42.44607923,-76.47235542,5,"$GNGGA,150443.000,4226.764754,N,07628.341325,W,5,31,0.41,271.396,M,-33.936,M,29.0,1855*59"
1777734284.4247794,11:04:44.424,-1.1584,-0.4927,42.44607927,-76.4723554,5,"$GNGGA,150444.000,4226.764756,N,07628.341324,W,5,31,0.40,271.384,M,-33.936,M,30.0,1855*57"
1777734285.4558856,11:04:45.455,-1.1529,-0.4945,42.44607925,-76.47235533,5,"$GNGGA,150445.000,4226.764755,N,07628.341320,W,5,31,0.40,271.381,M,-33.936,M,31.0,1855*55"
1777734286.4338174,11:04:46.433,-1.1556,-0.4927,42.44607927,-76.47235537,5,"$GNGGA,150446.000,4226.764756,N,07628.341322,W,5,31,0.44,271.371,M,-33.936,M,32.0,1855*5F"
1777734287.5245113,11:04:47.524,-1.1529,-0.4908,42.44607928,-76.47235533,5,"$GNGGA,150447.000,4226.764757,N,07628.341320,W,5,31,0.41,271.361,M,-33.937,M,33.0,1855*59"
1777734288.4236305,11:04:48.423,-1.1543,-0.489,42.4460793,-76.47235535,5,"$GNGGA,150448.000,4226.764758,N,07628.341321,W,5,31,0.43,271.364,M,-33.937,M,34.0,1855*58"
1777734289.474762,11:04:49.474,-1.1543,-0.4871,42.44607932,-76.47235535,5,"$GNGGA,150449.000,4226.764759,N,07628.341321,W,5,31,0.43,271.358,M,-33.937,M,35.0,1855*56"
1777734292.4752853,11:04:52.475,-1.1556,-0.4871,42.44607932,-76.47235537,5,"$GNGGA,150452.000,4226.764759,N,07628.341322,W,5,31,0.41,271.346,M,-33.937,M,38.0,1855*5F"
1777734293.5111065,11:04:53.511,-1.1529,-0.489,42.4460793,-76.47235533,5,"$GNGGA,150453.000,4226.764758,N,07628.341320,W,5,31,0.42,271.338,M,-33.936,M,39.0,1855*57"
1777734294.4704533,11:04:54.470,-1.1501,-0.4871,42.44607932,-76.4723553,5,"$GNGGA,150454.000,4226.764759,N,07628.341318,W,5,31,0.42,271.326,M,-33.937,M,40.0,1855*5A"
1777734295.4970503,11:04:55.497,-1.1501,-0.4853,42.44607933,-76.4723553,5,"$GNGGA,150455.000,4226.764760,N,07628.341318,W,5,31,0.41,271.323,M,-33.936,M,41.0,1855*57"
1777734296.4503636,11:04:56.450,-1.1529,-0.4871,42.44607932,-76.47235533,5,"$GNGGA,150456.000,4226.764759,N,07628.341320,W,5,31,0.42,271.331,M,-33.936,M,42.0,1855*56"
1777734297.491748,11:04:57.491,-1.1556,-0.489,42.4460793,-76.47235537,5,"$GNGGA,150457.000,4226.764758,N,07628.341322,W,5,31,0.40,271.320,M,-33.937,M,43.0,1855*56"
1777734298.4493415,11:04:58.449,-1.1584,-0.4853,42.44607933,-76.4723554,5,"$GNGGA,150458.000,4226.764760,N,07628.341324,W,5,31,0.40,271.288,M,-33.937,M,44.0,1855*50"
1777734299.4923558,11:04:59.492,-1.1611,-0.4853,42.44607933,-76.47235543,5,"$GNGGA,150459.000,4226.764760,N,07628.341326,W,5,31,0.40,271.292,M,-33.936,M,45.0,1855*58"
1777734302.4055748,11:05:02.405,-1.1775,-0.4779,42.4460794,-76.47235563,5,"$GNGGA,150502.000,4226.764764,N,07628.341338,W,5,31,0.43,271.309,M,-33.936,M,48.0,1855*51"
1777734303.4882028,11:05:03.488,-1.1762,-0.4779,42.4460794,-76.47235562,5,"$GNGGA,150503.000,4226.764764,N,07628.341337,W,5,31,0.39,271.299,M,-33.937,M,49.0,1855*5A"
1777734304.399049,11:05:04.399,-1.1762,-0.4779,42.4460794,-76.47235562,5,"$GNGGA,150504.000,4226.764764,N,07628.341337,W,5,31,0.43,271.300,M,-33.937,M,50.0,1855*59"
1777734305.4640996,11:05:05.464,-1.1803,-0.4779,42.4460794,-76.47235567,5,"$GNGGA,150505.000,4226.764764,N,07628.341340,W,5,31,0.39,271.305,M,-33.936,M,51.0,1855*50"
1777734306.4308777,11:05:06.430,-1.1803,-0.4797,42.44607938,-76.47235567,5,"$GNGGA,150506.000,4226.764763,N,07628.341340,W,5,31,0.40,271.298,M,-33.936,M,52.0,1855*5C"
1777734307.4317243,11:05:07.431,-1.1762,-0.4797,42.44607938,-76.47235562,5,"$GNGGA,150507.000,4226.764763,N,07628.341337,W,5,31,0.40,271.304,M,-33.937,M,53.0,1855*59"
1777734308.4174187,11:05:08.417,-1.1775,-0.4779,42.4460794,-76.47235563,5,"$GNGGA,150508.000,4226.764764,N,07628.341338,W,5,31,0.40,271.303,M,-33.937,M,54.0,1855*5E"
1777734309.4397128,11:05:09.439,-1.1789,-0.4853,42.44607933,-76.47235565,5,"$GNGGA,150509.000,4226.764760,N,07628.341339,W,5,31,0.40,271.297,M,-33.936,M,55.0,1855*56"
1777734312.420606,11:05:12.420,-1.1693,-0.4871,42.44607932,-76.47235553,5,"$GNGGA,150512.000,4226.764759,N,07628.341332,W,5,31,0.40,271.313,M,-33.936,M,58.0,1855*5D"
1777734313.4545445,11:05:13.454,-1.168,-0.489,42.4460793,-76.47235552,5,"$GNGGA,150513.000,4226.764758,N,07628.341331,W,5,31,0.40,271.316,M,-33.937,M,59.0,1855*5B"
1777734314.4210267,11:05:14.421,-1.1584,-0.4908,42.44607928,-76.4723554,5,"$GNGGA,150514.000,4226.764757,N,07628.341324,W,5,31,0.40,271.316,M,-33.936,M,60.0,1855*5C"
1777734315.4975727,11:05:15.497,-1.1543,-0.4908,42.44607928,-76.47235535,5,"$GNGGA,150515.000,4226.764757,N,07628.341321,W,5,31,0.40,271.318,M,-33.937,M,61.0,1855*56"
1777734316.416251,11:05:16.416,-1.1447,-0.4908,42.44607928,-76.47235523,5,"$GNGGA,150516.000,4226.764757,N,07628.341314,W,5,31,0.39,271.311,M,-33.937,M,62.0,1855*57"
1777734317.4694965,11:05:17.469,-1.1392,-0.4964,42.44607923,-76.47235517,5,"$GNGGA,150517.000,4226.764754,N,07628.341310,W,5,31,0.42,271.326,M,-33.937,M,63.0,1855*58"
1777734318.434063,11:05:18.434,-1.1337,-0.4945,42.44607925,-76.4723551,5,"$GNGGA,150518.000,4226.764755,N,07628.341306,W,5,31,0.40,271.319,M,-33.936,M,64.0,1855*59"
1777734319.4536228,11:05:19.453,-1.1351,-0.4982,42.44607922,-76.47235512,5,"$GNGGA,150519.000,4226.764753,N,07628.341307,W,5,31,0.42,271.337,M,-33.936,M,65.0,1855*50"
1777734322.4247372,11:05:22.424,-1.146,-0.4982,42.44607922,-76.47235525,5,"$GNGGA,150522.000,4226.764753,N,07628.341315,W,5,31,0.43,271.339,M,-33.936,M,68.0,1855*59"
1777734323.4589791,11:05:23.458,-1.1529,-0.5019,42.44607918,-76.47235533,5,"$GNGGA,150523.000,4226.764751,N,07628.341320,W,5,31,0.42,271.346,M,-33.936,M,69.0,1855*54"
1777734324.4237826,11:05:24.423,-1.1515,-0.5038,42.44607917,-76.47235532,5,"$GNGGA,150524.000,4226.764750,N,07628.341319,W,5,31,0.43,271.347,M,-33.936,M,70.0,1855*50"
1777734325.4399636,11:05:25.439,-1.157,-0.5057,42.44607915,-76.47235538,5,"$GNGGA,150525.000,4226.764749,N,07628.341323,W,5,31,0.43,271.348,M,-33.936,M,71.0,1855*5E"
1777734326.4185212,11:05:26.418,-1.1543,-0.5038,42.44607917,-76.47235535,5,"$GNGGA,150526.000,4226.764750,N,07628.341321,W,5,31,0.43,271.346,M,-33.936,M,72.0,1855*5A"
1777734327.4286342,11:05:27.428,-1.1556,-0.5038,42.44607917,-76.47235537,5,"$GNGGA,150527.000,4226.764750,N,07628.341322,W,5,31,0.43,271.348,M,-33.936,M,73.0,1855*57"
1777734328.4188323,11:05:28.418,-1.1556,-0.5038,42.44607917,-76.47235537,5,"$GNGGA,150528.000,4226.764750,N,07628.341322,W,5,31,0.44,271.350,M,-33.936,M,74.0,1855*51"
1777734329.448819,11:05:29.448,-1.1625,-0.5075,42.44607913,-76.47235545,5,"$GNGGA,150529.000,4226.764748,N,07628.341327,W,5,31,0.42,271.351,M,-33.936,M,75.0,1855*5A"
1777734332.4247036,11:05:32.424,-1.1748,-0.5131,42.44607908,-76.4723556,5,"$GNGGA,150532.000,4226.764745,N,07628.341336,W,5,31,0.44,271.388,M,-33.936,M,78.0,1855*52"
1777734333.4811015,11:05:33.481,-1.1748,-0.5149,42.44607907,-76.4723556,5,"$GNGGA,150533.000,4226.764744,N,07628.341336,W,5,31,0.44,271.390,M,-33.937,M,79.0,1855*5B"
1777734334.436818,11:05:34.436,-1.1803,-0.5168,42.44607905,-76.47235567,5,"$GNGGA,150534.000,4226.764743,N,07628.341340,W,5,31,0.44,271.381,M,-33.936,M,80.0,1855*5D"
1777734335.4657695,11:05:35.465,-1.1816,-0.5223,42.446079,-76.47235568,5,"$GNGGA,150535.000,4226.764740,N,07628.341341,W,5,31,0.43,271.389,M,-33.936,M,81.0,1855*50"
1777734336.4610262,11:05:36.461,-1.183,-0.5205,42.44607902,-76.4723557,5,"$GNGGA,150536.000,4226.764741,N,07628.341342,W,5,31,0.43,271.395,M,-33.936,M,82.0,1855*5F"
1777734337.4729362,11:05:37.472,-1.1858,-0.5205,42.44607902,-76.47235573,5,"$GNGGA,150537.000,4226.764741,N,07628.341344,W,5,31,0.43,271.402,M,-33.936,M,83.0,1855*50"
1777734338.4531925,11:05:38.453,-1.1885,-0.5223,42.446079,-76.47235577,5,"$GNGGA,150538.000,4226.764740,N,07628.341346,W,5,31,0.43,271.393,M,-33.937,M,84.0,1855*55"
1777734339.4948885,11:05:39.494,-1.1926,-0.5223,42.446079,-76.47235582,5,"$GNGGA,150539.000,4226.764740,N,07628.341349,W,5,31,0.42,271.392,M,-33.936,M,85.0,1855*5B"
1777734342.4513633,11:05:42.451,-1.2063,-0.5279,42.44607895,-76.47235598,5,"$GNGGA,150542.000,4226.764737,N,07628.341359,W,5,31,0.42,271.413,M,-33.936,M,88.0,1855*55"
1777734343.4922938,11:05:43.492,-1.2063,-0.5242,42.44607898,-76.47235598,5,"$GNGGA,150543.000,4226.764739,N,07628.341359,W,5,31,0.42,271.403,M,-33.936,M,89.0,1855*5A"
1777734344.4577749,11:05:44.457,-1.22,-0.5279,42.44607895,-76.47235615,5,"$GNGGA,150544.000,4226.764737,N,07628.341369,W,5,31,0.42,271.417,M,-33.936,M,90.0,1855*5D"
1777734345.4814022,11:05:45.481,-1.2186,-0.526,42.44607897,-76.47235613,5,"$GNGGA,150545.000,4226.764738,N,07628.341368,W,5,31,0.41,271.403,M,-33.937,M,91.0,1855*54"
1777734346.4782517,11:05:46.478,-1.2241,-0.5279,42.44607895,-76.4723562,5,"$GNGGA,150546.000,4226.764737,N,07628.341372,W,5,32,0.40,271.404,M,-33.936,M,92.0,1855*54"
1777734347.4895744,11:05:47.489,-1.2282,-0.526,42.44607897,-76.47235625,5,"$GNGGA,150547.000,4226.764738,N,07628.341375,W,5,32,0.40,271.404,M,-33.937,M,93.0,1855*5D"
1777734348.4688468,11:05:48.468,-1.2296,-0.526,42.44607897,-76.47235627,5,"$GNGGA,150548.000,4226.764738,N,07628.341376,W,5,32,0.40,271.402,M,-33.937,M,94.0,1855*50"
1777734349.5117989,11:05:49.511,-1.2351,-0.526,42.44607897,-76.47235633,5,"$GNGGA,150549.000,4226.764738,N,07628.341380,W,5,32,0.43,271.413,M,-33.936,M,95.0,1855*5B"
1777734352.4736712,11:05:52.473,-1.2433,-0.5279,42.44607895,-76.47235643,5,"$GNGGA,150552.000,4226.764737,N,07628.341386,W,5,32,0.41,271.413,M,-33.937,M,98.0,1855*56"
1777734353.4902582,11:05:53.490,-1.2515,-0.526,42.44607897,-76.47235653,5,"$GNGGA,150553.000,4226.764738,N,07628.341392,W,5,32,0.43,271.416,M,-33.936,M,99.0,1855*5A"
1777734354.4553564,11:05:54.455,-1.2501,-0.5223,42.446079,-76.47235652,5,"$GNGGA,150554.000,4226.764740,N,07628.341391,W,5,32,0.41,271.390,M,-33.936,M,100.0,1855*6B"
1777734355.484064,11:05:55.484,-1.2515,-0.5205,42.44607902,-76.47235653,5,"$GNGGA,150555.000,4226.764741,N,07628.341392,W,5,32,0.42,271.383,M,-33.936,M,101.0,1855*68"
1777734356.4627202,11:05:56.462,-1.2515,-0.5186,42.44607903,-76.47235653,5,"$GNGGA,150556.000,4226.764742,N,07628.341392,W,5,32,0.41,271.388,M,-33.936,M,102.0,1855*63"
1777734357.4865327,11:05:57.486,-1.2515,-0.5242,42.44607898,-76.47235653,5,"$GNGGA,150557.000,4226.764739,N,07628.341392,W,5,32,0.42,271.405,M,-33.936,M,103.0,1855*6E"
1777734358.3793907,11:05:58.379,-1.2501,-0.5353,42.44607888,-76.47235652,5,"$GNGGA,150558.000,4226.764733,N,07628.341391,W,5,32,0.48,271.399,M,-33.936,M,104.0,1855*67"
1777734359.4845004,11:05:59.484,-1.2501,-0.5242,42.44607898,-76.47235652,5,"$GNGGA,150559.000,4226.764739,N,07628.341391,W,5,32,0.43,271.387,M,-33.936,M,105.0,1855*69"
1777734362.4684734,11:06:02.468,-1.2433,-0.5316,42.44607892,-76.47235643,5,"$GNGGA,150602.000,4226.764735,N,07628.341386,W,5,32,0.42,271.394,M,-33.937,M,108.0,1855*61"
1777734363.4936128,11:06:03.493,-1.2351,-0.5316,42.44607892,-76.47235633,5,"$GNGGA,150603.000,4226.764735,N,07628.341380,W,5,32,0.42,271.382,M,-33.936,M,109.0,1855*61"
1777734364.483628,11:06:04.483,-1.2323,-0.5334,42.4460789,-76.4723563,5,"$GNGGA,150604.000,4226.764734,N,07628.341378,W,5,32,0.42,271.388,M,-33.937,M,110.0,1855*63"
1777734365.5020647,11:06:05.502,-1.2296,-0.5279,42.44607895,-76.47235627,5,"$GNGGA,150605.000,4226.764737,N,07628.341376,W,5,32,0.42,271.392,M,-33.936,M,111.0,1855*64"
