unix_time,human_time,x_meters,y_meters,raw_lat,raw_lon,status_quality,raw_nmea
1777734824.3180733,11:13:44.318,0.4189,-0.2303,42.44607772,-76.47236035,4,"$GNGGA,151344.000,4226.764663,N,07628.341621,W,4,33,0.45,270.970,M,-33.936,M,1.0,1859*6E"
1777734825.362037,11:13:45.362,0.4189,-0.2266,42.44607775,-76.47236035,4,"$GNGGA,151345.000,4226.764665,N,07628.341621,W,4,33,0.45,270.971,M,-33.937,M,1.0,1859*69"
1777734826.4582438,11:13:46.458,-0.0414,-1.2972,42.44606812,-76.47236595,5,"$GNGGA,151346.000,4226.764087,N,07628.341957,W,5,33,0.47,271.187,M,-33.936,M,1.0,1862*64"
1777734827.3365016,11:13:47.336,-0.0743,-1.2416,42.44606862,-76.47236635,5,"$GNGGA,151347.000,4226.764117,N,07628.341981,W,5,33,0.46,271.562,M,-33.937,M,1.0,1862*69"
1777734828.3113306,11:13:48.311,-0.1209,-1.2249,42.44606877,-76.47236692,5,"$GNGGA,151348.000,4226.764126,N,07628.342015,W,5,33,0.49,271.619,M,-33.936,M,1.0,1862*62"
1777734829.4479814,11:13:49.447,-0.214,-1.4453,42.44606678,-76.47236805,5,"$GNGGA,151349.000,4226.764007,N,07628.342083,W,5,33,0.40,271.296,M,-33.937,M,1.0,1862*65"
1777734832.373884,11:13:52.373,-0.2428,-1.4564,42.44606668,-76.4723684,5,"$GNGGA,151352.000,4226.764001,N,07628.342104,W,5,33,0.41,271.613,M,-33.936,M,1.0,1862*6E"
1777734833.4146476,11:13:53.414,-0.24,-1.4509,42.44606673,-76.47236837,5,"$GNGGA,151353.000,4226.764004,N,07628.342102,W,5,33,0.40,271.668,M,-33.936,M,1.0,1862*61"
1777734834.3688593,11:13:54.368,-0.2222,-1.425,42.44606697,-76.47236815,5,"$GNGGA,151354.000,4226.764018,N,07628.342089,W,5,33,0.46,271.742,M,-33.936,M,1.0,1862*66"
1777734835.41752,11:13:55.417,-0.2208,-1.425,42.44606697,-76.47236813,5,"$GNGGA,151355.000,4226.764018,N,07628.342088,W,5,33,0.45,271.746,M,-33.937,M,1.0,1862*60"
1777734836.4406738,11:13:56.440,-0.2208,-1.4213,42.446067,-76.47236813,5,"$GNGGA,151356.000,4226.764020,N,07628.342088,W,5,33,0.44,271.738,M,-33.936,M,1.0,1862*61"
1777734837.411425,11:13:57.411,-0.2236,-1.4176,42.44606703,-76.47236817,5,"$GNGGA,151357.000,4226.764022,N,07628.342090,W,5,33,0.45,271.737,M,-33.937,M,1.0,1862*64"
1777734838.4372554,11:13:58.437,-0.2222,-1.4138,42.44606707,-76.47236815,5,"$GNGGA,151358.000,4226.764024,N,07628.342089,W,5,33,0.46,271.750,M,-33.936,M,1.0,1862*66"
1777734839.4067953,11:13:59.406,-0.2195,-1.4157,42.44606705,-76.47236812,5,"$GNGGA,151359.000,4226.764023,N,07628.342087,W,5,33,0.43,271.744,M,-33.936,M,1.0,1862*6E"
1777734842.4869146,11:14:02.486,-0.2072,-1.3879,42.4460673,-76.47236797,5,"$GNGGA,151402.000,4226.764038,N,07628.342078,W,5,33,0.38,271.848,M,-33.936,M,1.0,1862*62"
1777734843.5389466,11:14:03.538,-0.1935,-1.3879,42.4460673,-76.4723678,5,"$GNGGA,151403.000,4226.764038,N,07628.342068,W,5,33,0.40,271.832,M,-33.936,M,1.0,1862*60"
1777734844.4420269,11:14:04.442,-0.1907,-1.3675,42.44606748,-76.47236777,5,"$GNGGA,151404.000,4226.764049,N,07628.342066,W,5,33,0.38,271.806,M,-33.937,M,1.0,1862*66"
1777734845.490519,11:14:05.490,-0.1839,-1.3601,42.44606755,-76.47236768,5,"$GNGGA,151405.000,4226.764053,N,07628.342061,W,5,33,0.38,271.759,M,-33.936,M,1.0,1862*6F"
1777734846.450781,11:14:06.450,-0.1825,-1.3546,42.4460676,-76.47236767,5,"$GNGGA,151406.000,4226.764056,N,07628.342060,W,5,33,0.38,271.772,M,-33.936,M,1.0,1862*61"
1777734847.5285234,11:14:07.528,-0.1798,-1.3564,42.44606758,-76.47236763,5,"$GNGGA,151407.000,4226.764055,N,07628.342058,W,5,33,0.41,271.776,M,-33.937,M,1.0,1862*63"
1777734848.525713,11:14:08.525,-0.1743,-1.3509,42.44606763,-76.47236757,5,"$GNGGA,151408.000,4226.764058,N,07628.342054,W,5,33,0.39,271.762,M,-33.936,M,1.0,1862*66"
1777734849.5412524,11:14:09.541,-0.1743,-1.3268,42.44606785,-76.47236757,5,"$GNGGA,151409.000,4226.764071,N,07628.342054,W,5,33,0.40,271.783,M,-33.936,M,1.0,1862*6D"
1777734852.464172,11:14:12.464,-0.1702,-1.312,42.44606798,-76.47236752,5,"$GNGGA,151412.000,4226.764079,N,07628.342051,W,5,33,0.41,271.812,M,-33.937,M,1.0,1862*6D"
1777734853.5046346,11:14:13.504,-0.1661,-1.3046,42.44606805,-76.47236747,5,"$GNGGA,151413.000,4226.764083,N,07628.342048,W,5,33,0.47,271.817,M,-33.937,M,1.0,1862*62"
1777734854.4532294,11:14:14.453,-0.1661,-1.2768,42.4460683,-76.47236747,5,"$GNGGA,151414.000,4226.764098,N,07628.342048,W,5,33,0.43,271.847,M,-33.936,M,1.0,1862*6F"
1777734855.5133064,11:14:15.513,-0.1619,-1.2471,42.44606857,-76.47236742,5,"$GNGGA,151415.000,4226.764114,N,07628.342045,W,5,33,0.43,271.843,M,-33.937,M,1.0,1862*63"
1777734856.470757,11:14:16.470,-0.1647,-1.2249,42.44606877,-76.47236745,5,"$GNGGA,151416.000,4226.764126,N,07628.342047,W,5,33,0.41,271.857,M,-33.937,M,1.0,1862*64"
1777734857.4977906,11:14:17.497,-0.1688,-1.2138,42.44606887,-76.4723675,5,"$GNGGA,151417.000,4226.764132,N,07628.342050,W,5,33,0.40,271.865,M,-33.937,M,1.0,1862*66"
1777734858.4474607,11:14:18.447,-0.1688,-1.1712,42.44606925,-76.4723675,5,"$GNGGA,151418.000,4226.764155,N,07628.342050,W,5,33,0.42,271.898,M,-33.936,M,1.0,1862*69"
1777734859.4840434,11:14:19.484,-0.1619,-1.1342,42.44606958,-76.47236742,5,"$GNGGA,151419.000,4226.764175,N,07628.342045,W,5,32,0.40,271.895,M,-33.936,M,1.0,1862*60"
1777734862.4528098,11:14:22.452,-0.1661,-1.0786,42.44607008,-76.47236747,5,"$GNGGA,151422.000,4226.764205,N,07628.342048,W,5,32,0.45,271.880,M,-33.936,M,1.0,1862*60"
1777734863.474366,11:14:23.474,-0.1784,-1.0527,42.44607032,-76.47236762,5,"$GNGGA,151423.000,4226.764219,N,07628.342057,W,5,33,0.43,271.872,M,-33.936,M,1.0,1862*68"
1777734864.480809,11:14:24.480,-0.1798,-1.0323,42.4460705,-76.47236763,5,"$GNGGA,151424.000,4226.764230,N,07628.342058,W,5,33,0.45,271.882,M,-33.936,M,1.0,1862*62"
1777734865.5817628,11:14:25.581,-0.1729,-0.0136,42.44607967,-76.47236755,4,"$GNGGA,151425.000,4226.764780,N,07628.342053,W,4,33,0.43,270.861,M,-33.937,M,1.0,1862*6C"
1777734866.3451784,11:14:26.345,-0.1798,-0.0154,42.44607965,-76.47236763,4,"$GNGGA,151426.000,4226.764779,N,07628.342058,W,4,33,0.47,270.854,M,-33.937,M,1.0,1862*60"
1777734867.3672605,11:14:27.367,-0.1907,-0.008,42.44607972,-76.47236777,4,"$GNGGA,151427.000,4226.764783,N,07628.342066,W,4,33,0.50,270.852,M,-33.937,M,1.0,1862*69"
1777734868.3465292,11:14:28.346,-0.1893,-0.0043,42.44607975,-76.47236775,4,"$GNGGA,151428.000,4226.764785,N,07628.342065,W,4,33,0.41,270.839,M,-33.936,M,1.0,1862*6F"
1777734869.37455,11:14:29.374,-0.2072,0.0049,42.44607983,-76.47236797,4,"$GNGGA,151429.000,4226.764790,N,07628.342078,W,4,33,0.39,270.865,M,-33.936,M,1.0,1862*60"
1777734872.3393085,11:14:32.339,-0.2085,0.0031,42.44607982,-76.47236798,4,"$GNGGA,151432.000,4226.764789,N,07628.342079,W,4,33,0.37,270.862,M,-33.936,M,1.0,1862*6A"
1777734873.384828,11:14:33.384,-0.2181,0.0049,42.44607983,-76.4723681,4,"$GNGGA,151433.000,4226.764790,N,07628.342086,W,4,33,0.38,270.853,M,-33.937,M,1.0,1862*6F"
1777734874.3649726,11:14:34.364,-0.2154,0.0031,42.44607982,-76.47236807,4,"$GNGGA,151434.000,4226.764789,N,07628.342084,W,4,33,0.43,270.864,M,-33.937,M,1.0,1862*6A"
1777734875.3596888,11:14:35.359,-0.2236,0.0068,42.44607985,-76.47236817,4,"$GNGGA,151435.000,4226.764791,N,07628.342090,W,4,33,0.49,270.857,M,-33.936,M,1.0,1862*6C"
1777734876.3502166,11:14:36.350,-0.2208,0.0068,42.44607985,-76.47236813,4,"$GNGGA,151436.000,4226.764791,N,07628.342088,W,4,33,0.45,270.845,M,-33.936,M,1.0,1862*69"
1777734877.3726532,11:14:37.372,-0.2332,0.0086,42.44607987,-76.47236828,4,"$GNGGA,151437.000,4226.764792,N,07628.342097,W,4,33,0.46,270.858,M,-33.936,M,1.0,1862*6A"
1777734878.353231,11:14:38.353,-0.251,0.0012,42.4460798,-76.4723685,4,"$GNGGA,151438.000,4226.764788,N,07628.342110,W,4,33,0.46,270.850,M,-33.936,M,1.0,1862*68"
1777734879.3720622,11:14:39.372,-0.2496,-0.0006,42.44607978,-76.47236848,4,"$GNGGA,151439.000,4226.764787,N,07628.342109,W,4,33,0.37,270.858,M,-33.936,M,1.0,1862*60"
1777734882.351096,11:14:42.351,-0.2469,-0.0117,42.44607968,-76.47236845,4,"$GNGGA,151442.000,4226.764781,N,07628.342107,W,4,33,0.37,270.865,M,-33.937,M,1.0,1862*6B"
1777734883.3725357,11:14:43.372,-0.2455,-0.0173,42.44607963,-76.47236843,4,"$GNGGA,151443.000,4226.764778,N,07628.342106,W,4,33,0.39,270.858,M,-33.936,M,1.0,1862*6C"
1777734884.3368566,11:14:44.336,-0.2702,-0.008,42.44607972,-76.47236873,4,"$GNGGA,151444.000,4226.764783,N,07628.342124,W,4,33,0.46,270.866,M,-33.936,M,1.0,1862*6A"
1777734885.368387,11:14:45.368,-0.2688,-0.0154,42.44607965,-76.47236872,4,"$GNGGA,151445.000,4226.764779,N,07628.342123,W,4,33,0.40,270.859,M,-33.936,M,1.0,1862*63"
1777734886.3449063,11:14:46.344,-0.2825,-0.0062,42.44607973,-76.47236888,4,"$GNGGA,151446.000,4226.764784,N,07628.342133,W,4,33,0.40,270.857,M,-33.936,M,1.0,1862*6D"
1777734887.3810332,11:14:47.381,-0.2784,-0.0154,42.44607965,-76.47236883,4,"$GNGGA,151447.000,4226.764779,N,07628.342130,W,4,33,0.44,270.862,M,-33.936,M,1.0,1862*6F"
1777734888.3530307,11:14:48.353,-0.2935,-0.0062,42.44607973,-76.47236902,4,"$GNGGA,151448.000,4226.764784,N,07628.342141,W,4,33,0.37,270.855,M,-33.936,M,1.0,1862*64"
1777734889.3500452,11:14:49.350,-0.2976,-0.0154,42.44607965,-76.47236907,4,"$GNGGA,151449.000,4226.764779,N,07628.342144,W,4,33,0.37,270.862,M,-33.937,M,1.0,1862*67"
1777734892.3266225,11:14:52.326,-0.3208,-0.021,42.4460796,-76.47236935,4,"$GNGGA,151452.000,4226.764776,N,07628.342161,W,4,33,0.44,270.864,M,-33.937,M,1.0,1862*67"
1777734893.3488736,11:14:53.348,-0.3222,-0.0154,42.44607965,-76.47236937,4,"$GNGGA,151453.000,4226.764779,N,07628.342162,W,4,33,0.43,270.860,M,-33.936,M,1.0,1862*68"
1777734894.3305864,11:14:54.330,-0.3222,-0.0173,42.44607963,-76.47236937,4,"$GNGGA,151454.000,4226.764778,N,07628.342162,W,4,33,0.39,270.857,M,-33.936,M,1.0,1862*67"
1777734895.3263342,11:14:55.326,-0.3181,-0.0173,42.44607963,-76.47236932,4,"$GNGGA,151455.000,4226.764778,N,07628.342159,W,4,33,0.43,270.857,M,-33.936,M,1.0,1862*63"
1777734896.279281,11:14:56.279,-0.3291,-0.0154,42.44607965,-76.47236945,4,"$GNGGA,151456.000,4226.764779,N,07628.342167,W,4,33,0.45,270.863,M,-33.936,M,1.0,1862*6D"
1777734897.3371687,11:14:57.337,-0.3277,-0.0154,42.44607965,-76.47236943,4,"$GNGGA,151457.000,4226.764779,N,07628.342166,W,4,33,0.39,270.854,M,-33.936,M,1.0,1862*62"
1777734898.3261662,11:14:58.326,-0.3469,-0.0154,42.44607965,-76.47236967,4,"$GNGGA,151458.000,4226.764779,N,07628.342180,W,4,33,0.38,270.867,M,-33.936,M,1.0,1862*64"
1777734899.366781,11:14:59.366,-0.3455,-0.0191,42.44607962,-76.47236965,4,"$GNGGA,151459.000,4226.764777,N,07628.342179,W,4,33,0.39,270.870,M,-33.936,M,1.0,1862*6A"
1777734902.3329856,11:15:02.332,-0.3907,-0.0265,42.44607955,-76.4723702,4,"$GNGGA,151502.000,4226.764773,N,07628.342212,W,4,33,0.39,270.879,M,-33.936,M,1.0,1862*66"
1777734903.373001,11:15:03.373,-0.3839,-0.0247,42.44607957,-76.47237012,4,"$GNGGA,151503.000,4226.764774,N,07628.342207,W,4,33,0.39,270.874,M,-33.937,M,1.0,1862*68"
1777734904.328098,11:15:04.328,-0.3811,-0.0247,42.44607957,-76.47237008,4,"$GNGGA,151504.000,4226.764774,N,07628.342205,W,4,33,0.45,270.864,M,-33.936,M,1.0,1862*66"
1777734905.3719208,11:15:05.371,-0.3852,-0.0117,42.44607968,-76.47237013,4,"$GNGGA,151505.000,4226.764781,N,07628.342208,W,4,33,0.39,270.862,M,-33.937,M,1.0,1862*6C"
1777734906.3364089,11:15:06.336,-0.3866,-0.0284,42.44607953,-76.47237015,4,"$GNGGA,151506.000,4226.764772,N,07628.342209,W,4,33,0.38,270.853,M,-33.937,M,1.0,1862*61"
1777734907.3786726,11:15:07.378,-0.3866,-0.0228,42.44607958,-76.47237015,4,"$GNGGA,151507.000,4226.764775,N,07628.342209,W,4,33,0.38,270.858,M,-33.937,M,1.0,1862*6C"
1777734908.3253455,11:15:08.325,-0.3852,-0.0173,42.44607963,-76.47237013,4,"$GNGGA,151508.000,4226.764778,N,07628.342208,W,4,33,0.44,270.849,M,-33.937,M,1.0,1862*64"
1777734909.3487031,11:15:09.348,-0.4017,-0.021,42.4460796,-76.47237033,4,"$GNGGA,151509.000,4226.764776,N,07628.342220,W,4,33,0.45,270.862,M,-33.936,M,1.0,1862*68"
1777734912.3439238,11:15:12.343,-0.4113,-0.0302,42.44607952,-76.47237045,4,"$GNGGA,151512.000,4226.764771,N,07628.342227,W,4,33,0.43,270.859,M,-33.937,M,1.0,1862*6D"
1777734913.3335238,11:15:13.333,-0.4277,-0.0414,42.44607942,-76.47237065,4,"$GNGGA,151513.000,4226.764765,N,07628.342239,W,4,33,0.58,270.854,M,-33.936,M,1.0,1862*60"
1777734914.330701,11:15:14.330,-0.4304,-0.0432,42.4460794,-76.47237068,4,"$GNGGA,151514.000,4226.764764,N,07628.342241,W,4,33,0.43,270.867,M,-33.937,M,1.0,1862*62"
1777734915.3600104,11:15:15.360,-0.4414,-0.0358,42.44607947,-76.47237082,4,"$GNGGA,151515.000,4226.764768,N,07628.342249,W,4,33,0.45,270.856,M,-33.936,M,1.0,1862*62"
1777734916.3248982,11:15:16.324,-0.4496,-0.0451,42.44607938,-76.47237092,4,"$GNGGA,151516.000,4226.764763,N,07628.342255,W,4,33,0.47,270.865,M,-33.937,M,1.0,1862*64"
1777734917.3664703,11:15:17.366,-0.4606,-0.0395,42.44607943,-76.47237105,4,"$GNGGA,151517.000,4226.764766,N,07628.342263,W,4,33,0.43,270.874,M,-33.936,M,1.0,1862*60"
1777734918.336708,11:15:18.336,-0.4578,-0.0469,42.44607937,-76.47237102,4,"$GNGGA,151518.000,4226.764762,N,07628.342261,W,4,33,0.42,270.853,M,-33.937,M,1.0,1862*6C"
1777734919.3767045,11:15:19.376,-0.4647,-0.0414,42.44607942,-76.4723711,4,"$GNGGA,151519.000,4226.764765,N,07628.342266,W,4,33,0.39,270.867,M,-33.936,M,1.0,1862*67"
1777734922.3232856,11:15:22.323,-0.477,-0.0488,42.44607935,-76.47237125,4,"$GNGGA,151522.000,4226.764761,N,07628.342275,W,4,33,0.38,270.865,M,-33.937,M,1.0,1862*6B"
1777734923.3419359,11:15:23.341,-0.5181,-0.0599,42.44607925,-76.47237175,4,"$GNGGA,151523.000,4226.764755,N,07628.342305,W,4,33,0.38,270.886,M,-33.936,M,1.0,1862*67"
1777734924.3074427,11:15:24.307,-0.5113,-0.0488,42.44607935,-76.47237167,4,"$GNGGA,151524.000,4226.764761,N,07628.342300,W,4,33,0.37,270.870,M,-33.936,M,1.0,1862*64"
1777734925.3246346,11:15:25.324,-0.5167,-0.0525,42.44607932,-76.47237173,4,"$GNGGA,151525.000,4226.764759,N,07628.342304,W,4,33,0.39,270.877,M,-33.936,M,1.0,1862*63"
1777734926.3055177,11:15:26.305,-0.5181,-0.0525,42.44607932,-76.47237175,4,"$GNGGA,151526.000,4226.764759,N,07628.342305,W,4,33,0.37,270.869,M,-33.937,M,1.0,1862*61"
1777734927.3358834,11:15:27.335,-0.5195,-0.0543,42.4460793,-76.47237177,4,"$GNGGA,151527.000,4226.764758,N,07628.342306,W,4,33,0.38,270.869,M,-33.936,M,1.0,1862*6C"
1777734928.3067033,11:15:28.306,-0.5181,-0.0543,42.4460793,-76.47237175,4,"$GNGGA,151528.000,4226.764758,N,07628.342305,W,4,33,0.43,270.878,M,-33.937,M,1.0,1862*6D"
1777734929.3460667,11:15:29.346,-0.5222,-0.0636,42.44607922,-76.4723718,4,"$GNGGA,151529.000,4226.764753,N,07628.342308,W,4,33,0.48,270.883,M,-33.936,M,1.0,1862*64"
1777734932.3276987,11:15:32.327,-0.5387,-0.0543,42.4460793,-76.472372,4,"$GNGGA,151532.000,4226.764758,N,07628.342320,W,4,33,0.39,270.884,M,-33.937,M,1.0,1862*6F"
1777734933.3719783,11:15:33.371,-0.5359,-0.058,42.44607927,-76.47237197,4,"$GNGGA,151533.000,4226.764756,N,07628.342318,W,4,33,0.45,270.883,M,-33.936,M,1.0,1862*66"
1777734934.3036077,11:15:34.303,-0.5455,-0.0599,42.44607925,-76.47237208,4,"$GNGGA,151534.000,4226.764755,N,07628.342325,W,4,33,0.46,270.885,M,-33.936,M,1.0,1862*69"
1777734935.3465762,11:15:35.346,-0.5441,-0.0543,42.4460793,-76.47237207,4,"$GNGGA,151535.000,4226.764758,N,07628.342324,W,4,33,0.38,270.860,M,-33.936,M,1.0,1862*66"
1777734936.2871904,11:15:36.287,-0.5496,-0.058,42.44607927,-76.47237213,4,"$GNGGA,151536.000,4226.764756,N,07628.342328,W,4,33,0.52,270.870,M,-33.936,M,1.0,1862*6A"
1777734937.3415198,11:15:37.341,-0.5702,-0.0654,42.4460792,-76.47237238,4,"$GNGGA,151537.000,4226.764752,N,07628.342343,W,4,33,0.39,270.883,M,-33.937,M,1.0,1862*62"
1777734938.3136232,11:15:38.313,-0.5715,-0.058,42.44607927,-76.4723724,4,"$GNGGA,151538.000,4226.764756,N,07628.342344,W,4,33,0.37,270.875,M,-33.937,M,1.0,1862*69"
1777734939.3535213,11:15:39.353,-0.5729,-0.0691,42.44607917,-76.47237242,4,"$GNGGA,151539.000,4226.764750,N,07628.342345,W,4,33,0.37,270.861,M,-33.937,M,1.0,1862*6A"
1777734942.3097162,11:15:42.309,-0.6167,-0.0673,42.44607918,-76.47237295,4,"$GNGGA,151542.000,4226.764751,N,07628.342377,W,4,33,0.42,270.868,M,-33.936,M,1.0,1862*6C"
1777734943.3328776,11:15:43.332,-0.6181,-0.0784,42.44607908,-76.47237297,4,"$GNGGA,151543.000,4226.764745,N,07628.342378,W,4,33,0.42,270.877,M,-33.937,M,1.0,1862*68"
1777734944.3266087,11:15:44.326,-0.6208,-0.0691,42.44607917,-76.472373,4,"$GNGGA,151544.000,4226.764750,N,07628.342380,W,4,33,0.44,270.878,M,-33.937,M,1.0,1862*65"
1777734945.3648305,11:15:45.364,-0.6291,-0.0673,42.44607918,-76.4723731,4,"$GNGGA,151545.000,4226.764751,N,07628.342386,W,4,33,0.42,270.865,M,-33.937,M,1.0,1862*69"
1777734946.3530602,11:15:46.353,-0.6263,-0.0654,42.4460792,-76.47237307,4,"$GNGGA,151546.000,4226.764752,N,07628.342384,W,4,33,0.38,270.871,M,-33.936,M,1.0,1862*62"
1777734947.361025,11:15:47.361,-0.6332,-0.0691,42.44607917,-76.47237315,4,"$GNGGA,151547.000,4226.764750,N,07628.342389,W,4,33,0.39,270.864,M,-33.936,M,1.0,1862*69"
1777734948.3422208,11:15:48.342,-0.6387,-0.071,42.44607915,-76.47237322,4,"$GNGGA,151548.000,4226.764749,N,07628.342393,W,4,33,0.39,270.875,M,-33.936,M,1.0,1862*65"
1777734949.389753,11:15:49.389,-0.6469,-0.071,42.44607915,-76.47237332,4,"$GNGGA,151549.000,4226.764749,N,07628.342399,W,4,33,0.40,270.865,M,-33.937,M,1.0,1862*60"
1777734952.343335,11:15:52.343,-0.6688,-0.0821,42.44607905,-76.47237358,4,"$GNGGA,151552.000,4226.764743,N,07628.342415,W,4,33,0.39,270.859,M,-33.937,M,1.0,1862*62"
1777734953.3651896,11:15:53.365,-0.6729,-0.0821,42.44607905,-76.47237363,4,"$GNGGA,151553.000,4226.764743,N,07628.342418,W,4,33,0.38,270.864,M,-33.936,M,1.0,1862*60"
1777734954.3314526,11:15:54.331,-0.6729,-0.0821,42.44607905,-76.47237363,4,"$GNGGA,151554.000,4226.764743,N,07628.342418,W,4,33,0.44,270.871,M,-33.936,M,1.0,1862*68"
1777734955.3754308,11:15:55.375,-0.6784,-0.0766,42.4460791,-76.4723737,4,"$GNGGA,151555.000,4226.764746,N,07628.342422,W,4,33,0.37,270.875,M,-33.937,M,1.0,1862*64"
1777734956.3302517,11:15:56.330,-0.6756,-0.0803,42.44607907,-76.47237367,4,"$GNGGA,151556.000,4226.764744,N,07628.342420,W,4,33,0.39,270.847,M,-33.937,M,1.0,1862*68"
1777734957.3449292,11:15:57.344,-0.7058,-0.0784,42.44607908,-76.47237403,4,"$GNGGA,151557.000,4226.764745,N,07628.342442,W,4,33,0.38,270.863,M,-33.937,M,1.0,1862*6B"
1777734958.3438184,11:15:58.343,-0.7099,-0.0766,42.4460791,-76.47237408,4,"$GNGGA,151558.000,4226.764746,N,07628.342445,W,4,33,0.39,270.863,M,-33.937,M,1.0,1862*61"
1777734959.3709152,11:15:59.370,-0.7112,-0.0729,42.44607913,-76.4723741,4,"$GNGGA,151559.000,4226.764748,N,07628.342446,W,4,33,0.40,270.869,M,-33.936,M,1.0,1862*68"
1777734962.3460045,11:16:02.346,-0.7222,-0.0803,42.44607907,-76.47237423,4,"$GNGGA,151602.000,4226.764744,N,07628.342454,W,4,33,0.42,270.849,M,-33.936,M,1.0,1862*6A"
1777734963.379344,11:16:03.379,-0.7345,-0.0766,42.4460791,-76.47237438,4,"$GNGGA,151603.000,4226.764746,N,07628.342463,W,4,33,0.41,270.861,M,-33.937,M,1.0,1862*65"
1777734964.3291128,11:16:04.329,-0.7318,-0.0747,42.44607912,-76.47237435,4,"$GNGGA,151604.000,4226.764747,N,07628.342461,W,4,33,0.47,270.843,M,-33.936,M,1.0,1862*66"
1777734965.352338,11:16:05.352,-0.7359,-0.0691,42.44607917,-76.4723744,4,"$GNGGA,151605.000,4226.764750,N,07628.342464,W,4,33,0.45,270.853,M,-33.936,M,1.0,1862*67"
1777734966.3353465,11:16:06.335,-0.7345,-0.0729,42.44607913,-76.47237438,4,"$GNGGA,151606.000,4226.764748,N,07628.342463,W,4,33,0.44,270.849,M,-33.936,M,1.0,1862*60"
1777734967.384578,11:16:07.384,-0.7386,-0.0803,42.44607907,-76.47237443,4,"$GNGGA,151607.000,4226.764744,N,07628.342466,W,4,33,0.41,270.853,M,-33.936,M,1.0,1862*66"
1777734968.3342721,11:16:08.334,-0.7428,-0.0747,42.44607912,-76.47237448,4,"$GNGGA,151608.000,4226.764747,N,07628.342469,W,4,33,0.43,270.851,M,-33.936,M,1.0,1862*65"
1777734969.3634944,11:16:09.363,-0.7496,-0.084,42.44607903,-76.47237457,4,"$GNGGA,151609.000,4226.764742,N,07628.342474,W,4,33,0.43,270.837,M,-33.936,M,1.0,1862*6D"
1777734972.335136,11:16:12.335,-0.7619,-0.0821,42.44607905,-76.47237472,4,"$GNGGA,151612.000,4226.764743,N,07628.342483,W,4,33,0.41,270.846,M,-33.936,M,1.0,1862*6A"
1777734973.3683624,11:16:13.368,-0.7619,-0.084,42.44607903,-76.47237472,4,"$GNGGA,151613.000,4226.764742,N,07628.342483,W,4,33,0.39,270.842,M,-33.936,M,1.0,1862*61"
1777734974.3282044,11:16:14.328,-0.766,-0.084,42.44607903,-76.47237477,4,"$GNGGA,151614.000,4226.764742,N,07628.342486,W,4,33,0.45,270.850,M,-33.936,M,1.0,1862*6B"
1777734975.3622355,11:16:15.362,-0.766,-0.0858,42.44607902,-76.47237477,4,"$GNGGA,151615.000,4226.764741,N,07628.342486,W,4,33,0.43,270.838,M,-33.936,M,1.0,1862*61"
1777734976.3368294,11:16:16.336,-0.766,-0.084,42.44607903,-76.47237477,4,"$GNGGA,151616.000,4226.764742,N,07628.342486,W,4,33,0.44,270.843,M,-33.937,M,1.0,1862*6B"
1777734977.3578546,11:16:17.357,-0.777,-0.0821,42.44607905,-76.4723749,4,"$GNGGA,151617.000,4226.764743,N,07628.342494,W,4,33,0.42,270.841,M,-33.937,M,1.0,1862*6C"
1777734978.3273044,11:16:18.327,-0.7756,-0.0821,42.44607905,-76.47237488,4,"$GNGGA,151618.000,4226.764743,N,07628.342493,W,4,33,0.43,270.846,M,-33.936,M,1.0,1862*63"
1777734979.344521,11:16:19.344,-0.7975,-0.0877,42.446079,-76.47237515,4,"$GNGGA,151619.000,4226.764740,N,07628.342509,W,4,33,0.48,270.857,M,-33.936,M,1.0,1862*68"
1777734982.334027,11:16:22.334,-0.8071,-0.0914,42.44607897,-76.47237527,4,"$GNGGA,151622.000,4226.764738,N,07628.342516,W,4,33,0.41,270.844,M,-33.936,M,1.0,1862*6A"
1777734983.3606393,11:16:23.360,-0.8071,-0.0877,42.446079,-76.47237527,4,"$GNGGA,151623.000,4226.764740,N,07628.342516,W,4,33,0.41,270.844,M,-33.937,M,1.0,1862*65"
1777734984.321682,11:16:24.321,-0.8058,-0.0858,42.44607902,-76.47237525,4,"$GNGGA,151624.000,4226.764741,N,07628.342515,W,4,33,0.42,270.848,M,-33.936,M,1.0,1862*6E"
1777734985.3510666,11:16:25.351,-0.803,-0.0877,42.446079,-76.47237522,4,"$GNGGA,151625.000,4226.764740,N,07628.342513,W,4,33,0.44,270.857,M,-33.937,M,1.0,1862*61"
1777734986.3214378,11:16:26.321,-0.8099,-0.0877,42.446079,-76.4723753,4,"$GNGGA,151626.000,4226.764740,N,07628.342518,W,4,33,0.42,270.853,M,-33.937,M,1.0,1862*6B"
1777734987.3532832,11:16:27.353,-0.8181,-0.0932,42.44607895,-76.4723754,4,"$GNGGA,151627.000,4226.764737,N,07628.342524,W,4,33,0.44,270.840,M,-33.936,M,1.0,1862*60"
1777734988.3310194,11:16:28.331,-0.8249,-0.0895,42.44607898,-76.47237548,4,"$GNGGA,151628.000,4226.764739,N,07628.342529,W,4,33,0.42,270.851,M,-33.936,M,1.0,1862*6A"
1777734989.374834,11:16:29.374,-0.8455,-0.0951,42.44607893,-76.47237573,4,"$GNGGA,151629.000,4226.764736,N,07628.342544,W,4,33,0.37,270.829,M,-33.936,M,1.0,1862*62"
1777734992.324769,11:16:32.324,-0.8441,-0.1043,42.44607885,-76.47237572,4,"$GNGGA,151632.000,4226.764731,N,07628.342543,W,4,33,0.42,270.844,M,-33.936,M,1.0,1862*61"
1777734993.3536851,11:16:33.353,-0.8414,-0.1099,42.4460788,-76.47237568,4,"$GNGGA,151633.000,4226.764728,N,07628.342541,W,4,33,0.41,270.842,M,-33.936,M,1.0,1862*6F"
1777734994.3269753,11:16:34.326,-0.8482,-0.1043,42.44607885,-76.47237577,4,"$GNGGA,151634.000,4226.764731,N,07628.342546,W,4,33,0.44,270.848,M,-33.936,M,1.0,1862*68"
1777734995.346276,11:16:35.346,-0.8606,-0.1118,42.44607878,-76.47237592,4,"$GNGGA,151635.000,4226.764727,N,07628.342555,W,4,33,0.51,270.832,M,-33.937,M,1.0,1862*64"
1777734996.3325648,11:16:36.332,-0.8701,-0.1025,42.44607887,-76.47237603,4,"$GNGGA,151636.000,4226.764732,N,07628.342562,W,4,33,0.46,270.849,M,-33.937,M,1.0,1862*6D"
1777734997.349731,11:16:37.349,-0.8784,-0.1006,42.44607888,-76.47237613,4,"$GNGGA,151637.000,4226.764733,N,07628.342568,W,4,33,0.42,270.851,M,-33.937,M,1.0,1862*6A"
1777734998.330767,11:16:38.330,-0.8784,-0.1136,42.44607877,-76.47237613,4,"$GNGGA,151638.000,4226.764726,N,07628.342568,W,4,33,0.44,270.847,M,-33.937,M,1.0,1862*60"
1777734999.3604984,11:16:39.360,-0.9058,-0.0877,42.446079,-76.47237647,4,"$GNGGA,151639.000,4226.764740,N,07628.342588,W,4,33,0.42,270.850,M,-33.937,M,1.0,1862*6F"
1777735002.3291268,11:16:42.329,-0.9154,-0.0803,42.44607907,-76.47237658,4,"$GNGGA,151642.000,4226.764744,N,07628.342595,W,4,33,0.44,270.838,M,-33.936,M,1.0,1862*62"
1777735003.3450372,11:16:43.345,-0.9167,-0.0821,42.44607905,-76.4723766,4,"$GNGGA,151643.000,4226.764743,N,07628.342596,W,4,33,0.44,270.853,M,-33.936,M,1.0,1862*6A"
1777735004.3102717,11:16:44.310,-0.9181,-0.0877,42.446079,-76.47237662,4,"$GNGGA,151644.000,4226.764740,N,07628.342597,W,4,33,0.42,270.837,M,-33.937,M,1.0,1862*6A"
1777735005.3495567,11:16:45.349,-0.9277,-0.0895,42.44607898,-76.47237673,4,"$GNGGA,151645.000,4226.764739,N,07628.342604,W,4,33,0.42,270.839,M,-33.937,M,1.0,1862*62"
1777735006.310472,11:16:46.310,-0.9208,-0.0895,42.44607898,-76.47237665,4,"$GNGGA,151646.000,4226.764739,N,07628.342599,W,4,33,0.39,270.848,M,-33.936,M,1.0,1862*6D"
1777735007.3503444,11:16:47.350,-0.9332,-0.0858,42.44607902,-76.4723768,4,"$GNGGA,151647.000,4226.764741,N,07628.342608,W,4,33,0.40,270.833,M,-33.937,M,1.0,1862*6B"
1777735008.3524451,11:16:48.352,-0.9345,-0.0914,42.44607897,-76.47237682,4,"$GNGGA,151648.000,4226.764738,N,07628.342609,W,4,33,0.40,270.835,M,-33.936,M,1.0,1862*6C"
1777735009.364335,11:16:49.364,-0.9318,-0.084,42.44607903,-76.47237678,4,"$GNGGA,151649.000,4226.764742,N,07628.342607,W,4,33,0.44,270.827,M,-33.936,M,1.0,1862*69"
1777735012.3095071,11:16:52.309,-0.9455,-0.0636,42.44607922,-76.47237695,4,"$GNGGA,151652.000,4226.764753,N,07628.342617,W,4,33,0.40,270.835,M,-33.936,M,1.0,1862*65"
1777735013.3497646,11:16:53.349,-0.9332,-0.071,42.44607915,-76.4723768,4,"$GNGGA,151653.000,4226.764749,N,07628.342608,W,4,33,0.39,270.844,M,-33.936,M,1.0,1862*69"
1777735014.3228612,11:16:54.322,-0.9249,-0.0766,42.4460791,-76.4723767,4,"$GNGGA,151654.000,4226.764746,N,07628.342602,W,4,33,0.39,270.845,M,-33.936,M,1.0,1862*6A"
1777735015.3504312,11:16:55.350,-0.9222,-0.0673,42.44607918,-76.47237667,4,"$GNGGA,151655.000,4226.764751,N,07628.342600,W,4,33,0.39,270.831,M,-33.937,M,1.0,1862*6D"
1777735016.3120537,11:16:56.312,-0.9263,-0.0691,42.44607917,-76.47237672,4,"$GNGGA,151656.000,4226.764750,N,07628.342603,W,4,33,0.47,270.844,M,-33.936,M,1.0,1862*66"
1777735017.3496768,11:16:57.349,-0.9181,-0.0673,42.44607918,-76.47237662,4,"$GNGGA,151657.000,4226.764751,N,07628.342597,W,4,33,0.40,270.857,M,-33.936,M,1.0,1862*6D"
1777735018.319571,11:16:58.319,-0.9167,-0.0636,42.44607922,-76.4723766,4,"$GNGGA,151658.000,4226.764753,N,07628.342596,W,4,33,0.40,270.846,M,-33.936,M,1.0,1862*61"
1777735019.3538923,11:16:59.353,-0.9112,-0.0525,42.44607932,-76.47237653,4,"$GNGGA,151659.000,4226.764759,N,07628.342592,W,4,33,0.41,270.853,M,-33.936,M,1.0,1862*6B"
1777735022.3068278,11:17:02.306,-0.9085,-0.0525,42.44607932,-76.4723765,4,"$GNGGA,151702.000,4226.764759,N,07628.342590,W,4,33,0.41,270.870,M,-33.937,M,3.0,1862*64"
1777735023.345539,11:17:03.345,-0.9044,-0.0525,42.44607932,-76.47237645,4,"$GNGGA,151703.000,4226.764759,N,07628.342587,W,4,33,0.41,270.844,M,-33.936,M,4.0,1862*62"
1777735024.4441993,11:17:04.444,-0.8921,-0.0506,42.44607933,-76.4723763,4,"$GNGGA,151704.000,4226.764760,N,07628.342578,W,4,33,0.41,270.844,M,-33.937,M,5.0,1862*6F"
1777735025.339081,11:17:05.339,-0.8934,-0.0525,42.44607932,-76.47237632,4,"$GNGGA,151705.000,4226.764759,N,07628.342579,W,4,33,0.43,270.852,M,-33.936,M,1.0,1862*65"
1777735026.3226876,11:17:06.322,-0.8975,-0.0488,42.44607935,-76.47237637,4,"$GNGGA,151706.000,4226.764761,N,07628.342582,W,4,33,0.40,270.857,M,-33.936,M,1.0,1862*6F"
1777735027.3462744,11:17:07.346,-0.8989,-0.0599,42.44607925,-76.47237638,4,"$GNGGA,151707.000,4226.764755,N,07628.342583,W,4,33,0.39,270.858,M,-33.936,M,1.0,1862*69"
1777735028.3238878,11:17:08.323,-0.8921,-0.0488,42.44607935,-76.4723763,4,"$GNGGA,151708.000,4226.764761,N,07628.342578,W,4,33,0.41,270.868,M,-33.937,M,1.0,1862*68"
1777735029.3582134,11:17:09.358,-0.8921,-0.0543,42.4460793,-76.4723763,4,"$GNGGA,151709.000,4226.764758,N,07628.342578,W,4,33,0.39,270.855,M,-33.936,M,1.0,1862*63"
1777735032.3310156,11:17:12.331,-0.8866,-0.0395,42.44607943,-76.47237623,4,"$GNGGA,151712.000,4226.764766,N,07628.342574,W,4,33,0.41,270.849,M,-33.936,M,1.0,1862*6A"
1777735033.3562725,11:17:13.356,-0.8921,-0.0395,42.44607943,-76.4723763,4,"$GNGGA,151713.000,4226.764766,N,07628.342578,W,4,33,0.42,270.845,M,-33.936,M,1.0,1862*68"
1777735034.3222673,11:17:14.322,-0.8893,-0.0321,42.4460795,-76.47237627,4,"$GNGGA,151714.000,4226.764770,N,07628.342576,W,4,33,0.44,270.861,M,-33.936,M,1.0,1862*66"
1777735035.3745458,11:17:15.374,-0.8893,-0.0265,42.44607955,-76.47237627,4,"$GNGGA,151715.000,4226.764773,N,07628.342576,W,4,33,0.41,270.836,M,-33.937,M,1.0,1862*62"
1777735036.3228066,11:17:16.322,-0.8852,-0.0265,42.44607955,-76.47237622,4,"$GNGGA,151716.000,4226.764773,N,07628.342573,W,4,33,0.42,270.853,M,-33.936,M,1.0,1862*65"
1777735037.35961,11:17:17.359,-0.8825,-0.021,42.4460796,-76.47237618,4,"$GNGGA,151717.000,4226.764776,N,07628.342571,W,4,33,0.42,270.849,M,-33.937,M,1.0,1862*69"
1777735038.3368404,11:17:18.336,-0.8866,-0.021,42.4460796,-76.47237623,4,"$GNGGA,151718.000,4226.764776,N,07628.342574,W,4,33,0.44,270.844,M,-33.937,M,1.0,1862*68"
1777735039.3562002,11:17:19.356,-0.8811,-0.0043,42.44607975,-76.47237617,4,"$GNGGA,151719.000,4226.764785,N,07628.342570,W,4,33,0.43,270.849,M,-33.936,M,1.0,1862*6A"
1777735042.3362951,11:17:22.336,-0.8893,-0.0043,42.44607975,-76.47237627,4,"$GNGGA,151722.000,4226.764785,N,07628.342576,W,4,33,0.44,270.855,M,-33.936,M,1.0,1862*6E"
1777735043.3622284,11:17:23.362,-0.8866,0.0031,42.44607982,-76.47237623,4,"$GNGGA,151723.000,4226.764789,N,07628.342574,W,4,33,0.44,270.854,M,-33.936,M,1.0,1862*60"
1777735044.3527415,11:17:24.352,-0.8921,0.0031,42.44607982,-76.4723763,4,"$GNGGA,151724.000,4226.764789,N,07628.342578,W,4,33,0.42,270.842,M,-33.936,M,1.0,1862*6A"
1777735045.3628523,11:17:25.362,-0.8797,0.0272,42.44608003,-76.47237615,4,"$GNGGA,151725.000,4226.764802,N,07628.342569,W,4,33,0.41,270.847,M,-33.937,M,1.0,1862*60"
1777735046.368147,11:17:26.368,-0.8797,0.0253,42.44608002,-76.47237615,4,"$GNGGA,151726.000,4226.764801,N,07628.342569,W,4,33,0.44,270.843,M,-33.937,M,1.0,1862*61"
1777735047.376607,11:17:27.376,-0.8729,0.0309,42.44608007,-76.47237607,4,"$GNGGA,151727.000,4226.764804,N,07628.342564,W,4,33,0.41,270.861,M,-33.937,M,1.0,1862*6D"
1777735048.3413594,11:17:28.341,-0.8811,0.0346,42.4460801,-76.47237617,4,"$GNGGA,151728.000,4226.764806,N,07628.342570,W,4,33,0.40,270.844,M,-33.936,M,1.0,1862*62"
1777735049.3789752,11:17:29.378,-0.8729,0.0401,42.44608015,-76.47237607,4,"$GNGGA,151729.000,4226.764809,N,07628.342564,W,4,33,0.38,270.855,M,-33.936,M,1.0,1862*66"
1777735052.3350496,11:17:32.335,-0.8866,0.0679,42.4460804,-76.47237623,4,"$GNGGA,151732.000,4226.764824,N,07628.342574,W,4,33,0.41,270.852,M,-33.936,M,1.0,1862*6B"
1777735053.3828163,11:17:33.382,-0.8921,0.0587,42.44608032,-76.4723763,4,"$GNGGA,151733.000,4226.764819,N,07628.342578,W,4,33,0.38,270.863,M,-33.936,M,1.0,1862*64"
1777735054.3508837,11:17:34.350,-0.8948,0.0568,42.4460803,-76.47237633,4,"$GNGGA,151734.000,4226.764818,N,07628.342580,W,4,33,0.42,270.874,M,-33.937,M,1.0,1862*6F"
1777735055.3863559,11:17:35.386,-0.8962,0.0568,42.4460803,-76.47237635,4,"$GNGGA,151735.000,4226.764818,N,07628.342581,W,4,33,0.42,270.869,M,-33.936,M,1.0,1862*62"
1777735056.360112,11:17:36.360,-0.8934,0.0661,42.44608038,-76.47237632,4,"$GNGGA,151736.000,4226.764823,N,07628.342579,W,4,33,0.42,270.880,M,-33.936,M,1.0,1862*69"
1777735057.3559406,11:17:37.355,-0.8948,0.0735,42.44608045,-76.47237633,4,"$GNGGA,151737.000,4226.764827,N,07628.342580,W,4,33,0.42,270.855,M,-33.936,M,1.0,1862*62"
1777735058.3333688,11:17:38.333,-0.888,0.0846,42.44608055,-76.47237625,4,"$GNGGA,151738.000,4226.764833,N,07628.342575,W,4,33,0.40,270.866,M,-33.936,M,1.0,1862*60"
1777735059.3601527,11:17:39.360,-0.8893,0.0809,42.44608052,-76.47237627,4,"$GNGGA,151739.000,4226.764831,N,07628.342576,W,4,33,0.50,270.862,M,-33.937,M,1.0,1862*64"
1777735062.3280153,11:17:42.328,-0.8838,0.1068,42.44608075,-76.4723762,4,"$GNGGA,151742.000,4226.764845,N,07628.342572,W,4,34,0.46,270.870,M,-33.936,M,3.0,1862*6F"
1777735063.3705943,11:17:43.370,-0.8852,0.1142,42.44608082,-76.47237622,4,"$GNGGA,151743.000,4226.764849,N,07628.342573,W,4,34,0.46,270.873,M,-33.937,M,4.0,1862*66"
1777735064.3563833,11:17:44.356,-0.8811,0.1161,42.44608083,-76.47237617,4,"$GNGGA,151744.000,4226.764850,N,07628.342570,W,4,34,0.45,270.867,M,-33.937,M,1.0,1862*69"
1777735065.3595273,11:17:45.359,-0.8866,0.1179,42.44608085,-76.47237623,4,"$GNGGA,151745.000,4226.764851,N,07628.342574,W,4,34,0.49,270.872,M,-33.937,M,1.0,1862*65"
1777735066.333076,11:17:46.333,-0.8838,0.1161,42.44608083,-76.4723762,4,"$GNGGA,151746.000,4226.764850,N,07628.342572,W,4,34,0.42,270.873,M,-33.937,M,1.0,1862*6B"
1777735067.3733222,11:17:47.373,-0.8838,0.1161,42.44608083,-76.4723762,4,"$GNGGA,151747.000,4226.764850,N,07628.342572,W,4,34,0.40,270.867,M,-33.937,M,1.0,1862*6D"
1777735068.344447,11:17:48.344,-0.8784,0.1198,42.44608087,-76.47237613,4,"$GNGGA,151748.000,4226.764852,N,07628.342568,W,4,34,0.48,270.878,M,-33.937,M,1.0,1862*6D"
1777735069.3813303,11:17:49.381,-0.8852,0.1179,42.44608085,-76.47237622,4,"$GNGGA,151749.000,4226.764851,N,07628.342573,W,4,34,0.43,270.867,M,-33.936,M,1.0,1862*61"
1777735072.344671,11:17:52.344,-0.8893,0.1216,42.44608088,-76.47237627,4,"$GNGGA,151752.000,4226.764853,N,07628.342576,W,4,34,0.51,270.875,M,-33.936,M,1.0,1862*6C"
1777735073.3697302,11:17:53.369,-0.8866,0.129,42.44608095,-76.47237623,4,"$GNGGA,151753.000,4226.764857,N,07628.342574,W,4,34,0.46,270.886,M,-33.937,M,1.0,1862*60"
1777735074.3285747,11:17:54.328,-0.888,0.1327,42.44608098,-76.47237625,4,"$GNGGA,151754.000,4226.764859,N,07628.342575,W,4,34,0.43,270.873,M,-33.936,M,1.0,1862*66"
1777735075.3660429,11:17:55.366,-0.8838,0.1439,42.44608108,-76.4723762,4,"$GNGGA,151755.000,4226.764865,N,07628.342572,W,4,34,0.43,270.869,M,-33.936,M,1.0,1862*64"
1777735076.3391516,11:17:56.339,-0.8907,0.1439,42.44608108,-76.47237628,4,"$GNGGA,151756.000,4226.764865,N,07628.342577,W,4,34,0.43,270.869,M,-33.937,M,1.0,1862*63"
1777735077.3698077,11:17:57.369,-0.888,0.1402,42.44608105,-76.47237625,4,"$GNGGA,151757.000,4226.764863,N,07628.342575,W,4,34,0.43,270.872,M,-33.936,M,1.0,1862*6D"
1777735078.3392837,11:17:58.339,-0.8893,0.142,42.44608107,-76.47237627,4,"$GNGGA,151758.000,4226.764864,N,07628.342576,W,4,34,0.43,270.872,M,-33.936,M,1.0,1862*66"
1777735079.3688114,11:17:59.368,-0.8934,0.142,42.44608107,-76.47237632,4,"$GNGGA,151759.000,4226.764864,N,07628.342579,W,4,34,0.46,270.865,M,-33.936,M,1.0,1862*6B"
1777735082.3209636,11:18:02.320,-0.8907,0.1531,42.44608117,-76.47237628,4,"$GNGGA,151802.000,4226.764870,N,07628.342577,W,4,34,0.40,270.861,M,-33.937,M,2.0,1862*61"
1777735083.3532903,11:18:03.353,-0.8866,0.1568,42.4460812,-76.47237623,4,"$GNGGA,151803.000,4226.764872,N,07628.342574,W,4,34,0.40,270.880,M,-33.936,M,1.0,1862*6C"
1777735084.322195,11:18:04.322,-0.8921,0.1605,42.44608123,-76.4723763,4,"$GNGGA,151804.000,4226.764874,N,07628.342578,W,4,34,0.40,270.873,M,-33.936,M,1.0,1862*6D"
1777735085.3513215,11:18:05.351,-0.8852,0.1605,42.44608123,-76.47237622,4,"$GNGGA,151805.000,4226.764874,N,07628.342573,W,4,34,0.43,270.884,M,-33.937,M,1.0,1862*6D"
1777735086.3344228,11:18:06.334,-0.8797,0.1846,42.44608145,-76.47237615,4,"$GNGGA,151806.000,4226.764887,N,07628.342569,W,4,34,0.40,270.872,M,-33.936,M,1.0,1862*62"
1777735087.35664,11:18:07.356,-0.8825,0.1827,42.44608143,-76.47237618,4,"$GNGGA,151807.000,4226.764886,N,07628.342571,W,4,34,0.38,270.872,M,-33.936,M,1.0,1862*64"
1777735088.3325377,11:18:08.332,-0.9003,0.205,42.44608163,-76.4723764,4,"$GNGGA,151808.000,4226.764898,N,07628.342584,W,4,34,0.38,270.873,M,-33.936,M,1.0,1862*6F"
1777735089.3624756,11:18:09.362,-0.9017,0.2013,42.4460816,-76.47237642,4,"$GNGGA,151809.000,4226.764896,N,07628.342585,W,4,34,0.39,270.879,M,-33.937,M,1.0,1862*6B"
1777735092.3274965,11:18:12.327,-0.8934,0.2031,42.44608162,-76.47237632,4,"$GNGGA,151812.000,4226.764897,N,07628.342579,W,4,34,0.39,270.878,M,-33.936,M,1.0,1862*63"
1777735093.3809996,11:18:13.381,-0.8962,0.2068,42.44608165,-76.47237635,4,"$GNGGA,151813.000,4226.764899,N,07628.342581,W,4,34,0.41,270.871,M,-33.937,M,1.0,1862*6C"
1777735094.3335354,11:18:14.333,-0.888,0.2068,42.44608165,-76.47237625,4,"$GNGGA,151814.000,4226.764899,N,07628.342575,W,4,34,0.39,270.878,M,-33.937,M,1.0,1862*66"
1777735095.3714986,11:18:15.371,-0.8852,0.2142,42.44608172,-76.47237622,4,"$GNGGA,151815.000,4226.764903,N,07628.342573,W,4,34,0.39,270.851,M,-33.936,M,1.0,1862*69"
1777735096.3161077,11:18:16.316,-0.8811,0.2235,42.4460818,-76.47237617,4,"$GNGGA,151816.000,4226.764908,N,07628.342570,W,4,33,0.38,270.860,M,-33.936,M,1.0,1862*66"
1777735097.3500118,11:18:17.350,-0.8934,0.2457,42.446082,-76.47237632,4,"$GNGGA,151817.000,4226.764920,N,07628.342579,W,4,34,0.38,270.862,M,-33.936,M,1.0,1862*61"
1777735098.3447156,11:18:18.344,-0.8948,0.2476,42.44608202,-76.47237633,4,"$GNGGA,151818.000,4226.764921,N,07628.342580,W,4,34,0.38,270.860,M,-33.936,M,1.0,1862*6B"
1777735099.3585124,11:18:19.358,-0.8948,0.2383,42.44608193,-76.47237633,4,"$GNGGA,151819.000,4226.764916,N,07628.342580,W,4,34,0.40,270.878,M,-33.936,M,1.0,1862*68"
1777735102.3432133,11:18:22.343,-0.8989,0.2383,42.44608193,-76.47237638,4,"$GNGGA,151822.000,4226.764916,N,07628.342583,W,4,34,0.42,270.880,M,-33.936,M,1.0,1862*66"
1777735103.3601263,11:18:23.360,-0.8948,0.2568,42.4460821,-76.47237633,4,"$GNGGA,151823.000,4226.764926,N,07628.342580,W,4,33,0.39,270.875,M,-33.936,M,1.0,1862*66"
1777735104.3387034,11:18:24.338,-0.8989,0.2605,42.44608213,-76.47237638,4,"$GNGGA,151824.000,4226.764928,N,07628.342583,W,4,34,0.38,270.887,M,-33.936,M,1.0,1862*67"
1777735105.3760157,11:18:25.376,-0.8975,0.2717,42.44608223,-76.47237637,4,"$GNGGA,151825.000,4226.764934,N,07628.342582,W,4,34,0.39,270.883,M,-33.936,M,1.0,1862*6F"
1777735106.3390517,11:18:26.339,-0.8948,0.2717,42.44608223,-76.47237633,4,"$GNGGA,151826.000,4226.764934,N,07628.342580,W,4,34,0.44,270.882,M,-33.936,M,1.0,1862*65"
1777735107.3582916,11:18:27.358,-0.8948,0.2846,42.44608235,-76.47237633,4,"$GNGGA,151827.000,4226.764941,N,07628.342580,W,4,34,0.43,270.898,M,-33.936,M,1.0,1862*6A"
1777735108.3380878,11:18:28.338,-0.8989,0.2846,42.44608235,-76.47237638,4,"$GNGGA,151828.000,4226.764941,N,07628.342583,W,4,34,0.40,270.875,M,-33.936,M,1.0,1862*66"
1777735109.3626533,11:18:29.362,-0.903,0.2902,42.4460824,-76.47237643,4,"$GNGGA,151829.000,4226.764944,N,07628.342586,W,4,34,0.41,270.889,M,-33.936,M,1.0,1862*65"
1777735112.3447096,11:18:32.344,-0.8921,0.2957,42.44608245,-76.4723763,4,"$GNGGA,151832.000,4226.764947,N,07628.342578,W,4,34,0.41,270.875,M,-33.936,M,1.0,1862*6E"
1777735113.3679998,11:18:33.368,-0.8962,0.3068,42.44608255,-76.47237635,4,"$GNGGA,151833.000,4226.764953,N,07628.342581,W,4,33,0.40,270.890,M,-33.936,M,1.0,1862*61"
1777735114.3198056,11:18:34.319,-0.8962,0.3068,42.44608255,-76.47237635,4,"$GNGGA,151834.000,4226.764953,N,07628.342581,W,4,34,0.44,270.895,M,-33.937,M,1.0,1862*61"
1777735115.349879,11:18:35.349,-0.8921,0.3161,42.44608263,-76.4723763,4,"$GNGGA,151835.000,4226.764958,N,07628.342578,W,4,34,0.43,270.893,M,-33.936,M,1.0,1862*6D"
1777735116.3322532,11:18:36.332,-0.8934,0.3217,42.44608268,-76.47237632,4,"$GNGGA,151836.000,4226.764961,N,07628.342579,W,4,34,0.46,270.879,M,-33.937,M,1.0,1862*65"
1777735117.359359,11:18:37.359,-0.8934,0.3254,42.44608272,-76.47237632,4,"$GNGGA,151837.000,4226.764963,N,07628.342579,W,4,34,0.39,270.893,M,-33.936,M,1.0,1862*6B"
1777735118.3350184,11:18:38.335,-0.8975,0.3235,42.4460827,-76.47237637,4,"$GNGGA,151838.000,4226.764962,N,07628.342582,W,4,34,0.39,270.884,M,-33.937,M,1.0,1862*66"
1777735119.3591971,11:18:39.359,-0.8934,0.3291,42.44608275,-76.47237632,4,"$GNGGA,151839.000,4226.764965,N,07628.342579,W,4,34,0.44,270.896,M,-33.936,M,1.0,1862*6C"
1777735122.3335764,11:18:42.333,-0.8907,0.3494,42.44608293,-76.47237628,4,"$GNGGA,151842.000,4226.764976,N,07628.342577,W,4,33,0.39,270.886,M,-33.937,M,1.0,1862*61"
1777735123.3731472,11:18:43.373,-0.8921,0.3494,42.44608293,-76.4723763,4,"$GNGGA,151843.000,4226.764976,N,07628.342578,W,4,34,0.39,270.886,M,-33.937,M,1.0,1862*68"
1777735124.3418882,11:18:44.341,-0.888,0.3606,42.44608303,-76.47237625,4,"$GNGGA,151844.000,4226.764982,N,07628.342575,W,4,34,0.39,270.885,M,-33.936,M,1.0,1862*6B"
1777735125.3667445,11:18:45.366,-0.8934,0.3624,42.44608305,-76.47237632,4,"$GNGGA,151845.000,4226.764983,N,07628.342579,W,4,33,0.39,270.873,M,-33.936,M,1.0,1862*69"
1777735126.3487296,11:18:46.348,-0.8893,0.3735,42.44608315,-76.47237627,4,"$GNGGA,151846.000,4226.764989,N,07628.342576,W,4,34,0.39,270.884,M,-33.937,M,1.0,1862*61"
1777735127.3697522,11:18:47.369,-0.8893,0.3698,42.44608312,-76.47237627,4,"$GNGGA,151847.000,4226.764987,N,07628.342576,W,4,33,0.41,270.883,M,-33.936,M,1.0,1862*60"
1777735128.3426309,11:18:48.342,-0.8866,0.3809,42.44608322,-76.47237623,4,"$GNGGA,151848.000,4226.764993,N,07628.342574,W,4,34,0.38,270.888,M,-33.936,M,1.0,1862*6A"
1777735129.3671076,11:18:49.367,-0.8852,0.3809,42.44608322,-76.47237622,4,"$GNGGA,151849.000,4226.764993,N,07628.342573,W,4,34,0.39,270.872,M,-33.936,M,1.0,1862*68"
1777735132.3489914,11:18:52.348,-0.888,0.4013,42.4460834,-76.47237625,4,"$GNGGA,151852.000,4226.765004,N,07628.342575,W,4,34,0.39,270.891,M,-33.937,M,1.0,1862*6E"
1777735133.378845,11:18:53.378,-0.8893,0.4032,42.44608342,-76.47237627,4,"$GNGGA,151853.000,4226.765005,N,07628.342576,W,4,34,0.39,270.877,M,-33.936,M,1.0,1862*64"
1777735134.3358233,11:18:54.335,-0.8866,0.4161,42.44608353,-76.47237623,4,"$GNGGA,151854.000,4226.765012,N,07628.342574,W,4,34,0.40,270.889,M,-33.936,M,1.0,1862*68"
1777735135.364363,11:18:55.364,-0.8907,0.4143,42.44608352,-76.47237628,4,"$GNGGA,151855.000,4226.765011,N,07628.342577,W,4,34,0.42,270.888,M,-33.937,M,1.0,1862*6B"
1777735136.326799,11:18:56.326,-0.8893,0.4217,42.44608358,-76.47237627,4,"$GNGGA,151856.000,4226.765015,N,07628.342576,W,4,34,0.43,270.896,M,-33.936,M,1.0,1862*62"
1777735137.3657658,11:18:57.365,-0.8907,0.4254,42.44608362,-76.47237628,4,"$GNGGA,151857.000,4226.765017,N,07628.342577,W,4,34,0.45,270.881,M,-33.936,M,1.0,1862*60"
1777735138.3315465,11:18:58.331,-0.8921,0.4254,42.44608362,-76.4723763,4,"$GNGGA,151858.000,4226.765017,N,07628.342578,W,4,34,0.39,270.891,M,-33.936,M,1.0,1862*6A"
1777735139.365787,11:18:59.365,-0.8934,0.431,42.44608367,-76.47237632,4,"$GNGGA,151859.000,4226.765020,N,07628.342579,W,4,34,0.40,270.882,M,-33.936,M,1.0,1862*62"
1777735142.3378499,11:19:02.337,-0.8948,0.4384,42.44608373,-76.47237633,4,"$GNGGA,151902.000,4226.765024,N,07628.342580,W,4,34,0.42,270.885,M,-33.936,M,1.0,1862*6A"
1777735143.3762183,11:19:03.376,-0.8989,0.4421,42.44608377,-76.47237638,4,"$GNGGA,151903.000,4226.765026,N,07628.342583,W,4,34,0.40,270.890,M,-33.936,M,1.0,1862*6C"
1777735144.3511255,11:19:04.351,-0.8934,0.4421,42.44608377,-76.47237632,4,"$GNGGA,151904.000,4226.765026,N,07628.342579,W,4,34,0.44,270.886,M,-33.936,M,1.0,1862*6D"
1777735145.3728862,11:19:05.372,-0.8921,0.4495,42.44608383,-76.4723763,4,"$GNGGA,151905.000,4226.765030,N,07628.342578,W,4,34,0.42,270.894,M,-33.937,M,1.0,1862*6E"
1777735146.350211,11:19:06.350,-0.8921,0.4458,42.4460838,-76.4723763,4,"$GNGGA,151906.000,4226.765028,N,07628.342578,W,4,34,0.44,270.889,M,-33.936,M,1.0,1862*6F"
1777735147.3671546,11:19:07.367,-0.8934,0.455,42.44608388,-76.47237632,4,"$GNGGA,151907.000,4226.765033,N,07628.342579,W,4,34,0.42,270.883,M,-33.936,M,1.0,1862*69"
1777735148.3342535,11:19:08.334,-0.8962,0.455,42.44608388,-76.47237635,4,"$GNGGA,151908.000,4226.765033,N,07628.342581,W,4,34,0.41,270.885,M,-33.936,M,1.0,1862*64"
1777735149.363133,11:19:09.363,-0.8921,0.4606,42.44608393,-76.4723763,4,"$GNGGA,151909.000,4226.765036,N,07628.342578,W,4,34,0.41,270.886,M,-33.936,M,1.0,1862*65"
1777735152.346751,11:19:12.346,-0.8962,0.4735,42.44608405,-76.47237635,4,"$GNGGA,151912.000,4226.765043,N,07628.342581,W,4,34,0.43,270.888,M,-33.937,M,1.0,1862*66"
1777735153.3761857,11:19:13.376,-0.8921,0.4735,42.44608405,-76.4723763,4,"$GNGGA,151913.000,4226.765043,N,07628.342578,W,4,34,0.42,270.890,M,-33.937,M,1.0,1862*69"
1777735154.3467095,11:19:14.346,-0.8975,0.4754,42.44608407,-76.47237637,4,"$GNGGA,151914.000,4226.765044,N,07628.342582,W,4,34,0.45,270.884,M,-33.936,M,1.0,1862*6F"
1777735155.3942618,11:19:15.394,-0.8975,0.4772,42.44608408,-76.47237637,4,"$GNGGA,151915.000,4226.765045,N,07628.342582,W,4,34,0.47,270.889,M,-33.936,M,1.0,1862*60"
1777735156.3520832,11:19:16.352,-0.8989,0.4791,42.4460841,-76.47237638,4,"$GNGGA,151916.000,4226.765046,N,07628.342583,W,4,34,0.39,270.879,M,-33.936,M,1.0,1862*67"
1777735157.366938,11:19:17.366,-0.8989,0.4791,42.4460841,-76.47237638,4,"$GNGGA,151917.000,4226.765046,N,07628.342583,W,4,34,0.42,270.885,M,-33.936,M,1.0,1862*69"
1777735158.3483353,11:19:18.348,-0.9003,0.4828,42.44608413,-76.4723764,4,"$GNGGA,151918.000,4226.765048,N,07628.342584,W,4,34,0.43,270.888,M,-33.936,M,1.0,1862*63"
1777735159.3721669,11:19:19.372,-0.9003,0.4865,42.44608417,-76.4723764,4,"$GNGGA,151919.000,4226.765050,N,07628.342584,W,4,34,0.45,270.886,M,-33.937,M,1.0,1862*62"
1777735162.3441336,11:19:22.344,-0.9003,0.4976,42.44608427,-76.4723764,4,"$GNGGA,151922.000,4226.765056,N,07628.342584,W,4,34,0.49,270.897,M,-33.936,M,1.0,1862*61"
1777735163.3696034,11:19:23.369,-0.903,0.4921,42.44608422,-76.47237643,4,"$GNGGA,151923.000,4226.765053,N,07628.342586,W,4,34,0.45,270.883,M,-33.936,M,1.0,1862*6E"
1777735164.3445027,11:19:24.344,-0.9044,0.5032,42.44608432,-76.47237645,4,"$GNGGA,151924.000,4226.765059,N,07628.342587,W,4,34,0.50,270.894,M,-33.936,M,1.0,1862*60"
1777735165.3724074,11:19:25.372,-0.9003,0.4976,42.44608427,-76.4723764,4,"$GNGGA,151925.000,4226.765056,N,07628.342584,W,4,34,0.49,270.892,M,-33.937,M,1.0,1862*62"
1777735166.3556733,11:19:26.355,-0.8948,0.5013,42.4460843,-76.47237633,4,"$GNGGA,151926.000,4226.765058,N,07628.342580,W,4,34,0.49,270.894,M,-33.937,M,1.0,1862*6D"
1777735167.3906155,11:19:27.390,-0.9003,0.5069,42.44608435,-76.4723764,4,"$GNGGA,151927.000,4226.765061,N,07628.342584,W,4,34,0.48,270.879,M,-33.937,M,1.0,1862*60"
1777735168.3574176,11:19:28.357,-0.8989,0.505,42.44608433,-76.47237638,4,"$GNGGA,151928.000,4226.765060,N,07628.342583,W,4,34,0.47,270.888,M,-33.936,M,1.0,1862*69"
1777735169.3710945,11:19:29.371,-0.9003,0.5032,42.44608432,-76.4723764,4,"$GNGGA,151929.000,4226.765059,N,07628.342584,W,4,34,0.48,270.883,M,-33.937,M,1.0,1862*60"
1777735172.360453,11:19:32.360,-0.8975,0.5143,42.44608442,-76.47237637,4,"$GNGGA,151932.000,4226.765065,N,07628.342582,W,4,34,0.42,270.897,M,-33.936,M,1.0,1862*6D"
1777735173.3874338,11:19:33.387,-0.9003,0.518,42.44608445,-76.4723764,4,"$GNGGA,151933.000,4226.765067,N,07628.342584,W,4,34,0.43,270.890,M,-33.936,M,1.0,1862*6E"
1777735174.3605144,11:19:34.360,-0.8989,0.518,42.44608445,-76.47237638,4,"$GNGGA,151934.000,4226.765067,N,07628.342583,W,4,34,0.43,270.891,M,-33.937,M,1.0,1862*6E"
1777735175.3830144,11:19:35.383,-0.8975,0.5236,42.4460845,-76.47237637,4,"$GNGGA,151935.000,4226.765070,N,07628.342582,W,4,34,0.44,270.895,M,-33.936,M,1.0,1862*6A"
1777735176.354765,11:19:36.354,-0.903,0.5254,42.44608452,-76.47237643,4,"$GNGGA,151936.000,4226.765071,N,07628.342586,W,4,34,0.43,270.882,M,-33.936,M,1.0,1862*6D"
1777735177.3846898,11:19:37.384,-0.9044,0.5273,42.44608453,-76.47237645,4,"$GNGGA,151937.000,4226.765072,N,07628.342587,W,4,34,0.43,270.894,M,-33.936,M,1.0,1862*69"
1777735178.3490572,11:19:38.349,-0.9003,0.531,42.44608457,-76.4723764,4,"$GNGGA,151938.000,4226.765074,N,07628.342584,W,4,34,0.47,270.895,M,-33.936,M,1.0,1862*66"
1777735179.3879123,11:19:39.387,-0.9017,0.5273,42.44608453,-76.47237642,4,"$GNGGA,151939.000,4226.765072,N,07628.342585,W,4,34,0.46,270.890,M,-33.936,M,1.0,1862*64"
1777735182.369781,11:19:42.369,-0.9017,0.531,42.44608457,-76.47237642,4,"$GNGGA,151942.000,4226.765074,N,07628.342585,W,4,34,0.40,270.893,M,-33.937,M,1.0,1862*6A"
1777735183.39066,11:19:43.390,-0.9017,0.531,42.44608457,-76.47237642,4,"$GNGGA,151943.000,4226.765074,N,07628.342585,W,4,34,0.42,270.893,M,-33.936,M,1.0,1862*68"
1777735184.3518224,11:19:44.351,-0.9003,0.5291,42.44608455,-76.4723764,4,"$GNGGA,151944.000,4226.765073,N,07628.342584,W,4,34,0.43,270.891,M,-33.936,M,1.0,1862*6A"
1777735185.375411,11:19:45.375,-0.903,0.5273,42.44608453,-76.47237643,4,"$GNGGA,151945.000,4226.765072,N,07628.342586,W,4,34,0.43,270.897,M,-33.937,M,1.0,1862*6F"
1777735186.3585496,11:19:46.358,-0.9017,0.5291,42.44608455,-76.47237642,4,"$GNGGA,151946.000,4226.765073,N,07628.342585,W,4,34,0.46,270.894,M,-33.937,M,1.0,1862*68"
1777735187.3757079,11:19:47.375,-0.9017,0.531,42.44608457,-76.47237642,4,"$GNGGA,151947.000,4226.765074,N,07628.342585,W,4,34,0.44,270.894,M,-33.937,M,1.0,1862*6C"
1777735188.348988,11:19:48.348,-0.8989,0.5291,42.44608455,-76.47237638,4,"$GNGGA,151948.000,4226.765073,N,07628.342583,W,4,34,0.45,270.898,M,-33.937,M,1.0,1862*6F"
1777735189.380779,11:19:49.380,-0.9017,0.531,42.44608457,-76.47237642,4,"$GNGGA,151949.000,4226.765074,N,07628.342585,W,4,34,0.43,270.888,M,-33.936,M,1.0,1862*69"
1777735192.361264,11:19:52.361,-0.9044,0.5291,42.44608455,-76.47237645,4,"$GNGGA,151952.000,4226.765073,N,07628.342587,W,4,34,0.43,270.893,M,-33.936,M,1.0,1862*6C"
1777735193.3938289,11:19:53.393,-0.9017,0.5273,42.44608453,-76.47237642,4,"$GNGGA,151953.000,4226.765072,N,07628.342585,W,4,34,0.43,270.896,M,-33.936,M,1.0,1862*6B"
1777735194.3647997,11:19:54.364,-0.9044,0.531,42.44608457,-76.47237645,4,"$GNGGA,151954.000,4226.765074,N,07628.342587,W,4,34,0.43,270.894,M,-33.936,M,1.0,1862*6A"
1777735195.3859944,11:19:55.385,-0.903,0.531,42.44608457,-76.47237643,4,"$GNGGA,151955.000,4226.765074,N,07628.342586,W,4,34,0.43,270.896,M,-33.937,M,1.0,1862*69"
1777735196.3753452,11:19:56.375,-0.9058,0.531,42.44608457,-76.47237647,4,"$GNGGA,151956.000,4226.765074,N,07628.342588,W,4,34,0.40,270.891,M,-33.936,M,1.0,1862*61"
1777735197.4000645,11:19:57.400,-0.9044,0.5291,42.44608455,-76.47237645,4,"$GNGGA,151957.000,4226.765073,N,07628.342587,W,4,34,0.40,270.891,M,-33.937,M,1.0,1862*69"
1777735198.3757944,11:19:58.375,-0.9017,0.5273,42.44608453,-76.47237642,4,"$GNGGA,151958.000,4226.765072,N,07628.342585,W,4,34,0.42,270.898,M,-33.937,M,1.0,1862*6E"
1777735199.3930318,11:19:59.393,-0.903,0.5291,42.44608455,-76.47237643,4,"$GNGGA,151959.000,4226.765073,N,07628.342586,W,4,34,0.39,270.897,M,-33.936,M,1.0,1862*6F"
1777735202.3668652,11:20:02.366,-0.903,0.5291,42.44608455,-76.47237643,4,"$GNGGA,152002.000,4226.765073,N,07628.342586,W,4,34,0.40,270.887,M,-33.936,M,1.0,1862*64"
1777735203.396548,11:20:03.396,-0.903,0.531,42.44608457,-76.47237643,4,"$GNGGA,152003.000,4226.765074,N,07628.342586,W,4,34,0.42,270.889,M,-33.937,M,1.0,1862*6F"
1777735204.3725944,11:20:04.372,-0.903,0.5273,42.44608453,-76.47237643,4,"$GNGGA,152004.000,4226.765072,N,07628.342586,W,4,34,0.39,270.893,M,-33.937,M,1.0,1862*69"
1777735205.3942869,11:20:05.394,-0.9017,0.5291,42.44608455,-76.47237642,4,"$GNGGA,152005.000,4226.765073,N,07628.342585,W,4,34,0.43,270.897,M,-33.937,M,1.0,1862*63"
1777735206.376206,11:20:06.376,-0.903,0.5273,42.44608453,-76.47237643,4,"$GNGGA,152006.000,4226.765072,N,07628.342586,W,4,34,0.39,270.889,M,-33.937,M,1.0,1862*60"
1777735207.3963928,11:20:07.396,-0.9017,0.5273,42.44608453,-76.47237642,4,"$GNGGA,152007.000,4226.765072,N,07628.342585,W,4,34,0.39,270.895,M,-33.936,M,1.0,1862*6E"
1777735208.3647842,11:20:08.364,-0.903,0.531,42.44608457,-76.47237643,4,"$GNGGA,152008.000,4226.765074,N,07628.342586,W,4,34,0.39,270.893,M,-33.937,M,1.0,1862*63"
1777735209.4023404,11:20:09.402,-0.9017,0.5291,42.44608455,-76.47237642,4,"$GNGGA,152009.000,4226.765073,N,07628.342585,W,4,34,0.39,270.892,M,-33.936,M,1.0,1862*66"
1777735212.3675852,11:20:12.367,-0.9044,0.5291,42.44608455,-76.47237645,4,"$GNGGA,152012.000,4226.765073,N,07628.342587,W,4,34,0.40,270.889,M,-33.936,M,1.0,1862*6A"
1777735213.3764064,11:20:13.376,-0.9044,0.5291,42.44608455,-76.47237645,4,"$GNGGA,152013.000,4226.765073,N,07628.342587,W,4,34,0.42,270.890,M,-33.937,M,1.0,1862*60"
1777735214.3727987,11:20:14.372,-0.903,0.5291,42.44608455,-76.47237643,4,"$GNGGA,152014.000,4226.765073,N,07628.342586,W,4,34,0.42,270.893,M,-33.936,M,1.0,1862*64"
1777735215.377913,11:20:15.377,-0.9017,0.5291,42.44608455,-76.47237642,4,"$GNGGA,152015.000,4226.765073,N,07628.342585,W,4,33,0.40,270.889,M,-33.936,M,1.0,1862*68"
1777735216.3566546,11:20:16.356,-0.9017,0.5273,42.44608453,-76.47237642,4,"$GNGGA,152016.000,4226.765072,N,07628.342585,W,4,34,0.42,270.891,M,-33.936,M,1.0,1862*66"
1777735217.3950603,11:20:17.395,-0.903,0.5291,42.44608455,-76.47237643,4,"$GNGGA,152017.000,4226.765073,N,07628.342586,W,4,33,0.41,270.890,M,-33.937,M,1.0,1862*61"
1777735218.3637574,11:20:18.363,-0.9017,0.5291,42.44608455,-76.47237642,4,"$GNGGA,152018.000,4226.765073,N,07628.342585,W,4,33,0.40,270.891,M,-33.936,M,1.0,1862*6C"
1777735219.382539,11:20:19.382,-0.903,0.531,42.44608457,-76.47237643,4,"$GNGGA,152019.000,4226.765074,N,07628.342586,W,4,34,0.40,270.891,M,-33.937,M,1.0,1862*6F"
1777735222.36163,11:20:22.361,-0.903,0.5291,42.44608455,-76.47237643,4,"$GNGGA,152022.000,4226.765073,N,07628.342586,W,4,34,0.40,270.892,M,-33.936,M,1.0,1862*62"
1777735223.3789809,11:20:23.378,-0.903,0.5273,42.44608453,-76.47237643,4,"$GNGGA,152023.000,4226.765072,N,07628.342586,W,4,34,0.40,270.890,M,-33.937,M,1.0,1862*61"
1777735224.356865,11:20:24.356,-0.903,0.5291,42.44608455,-76.47237643,4,"$GNGGA,152024.000,4226.765073,N,07628.342586,W,4,34,0.40,270.893,M,-33.936,M,1.0,1862*65"
1777735225.3851638,11:20:25.385,-0.9044,0.5291,42.44608455,-76.47237645,4,"$GNGGA,152025.000,4226.765073,N,07628.342587,W,4,34,0.40,270.889,M,-33.936,M,1.0,1862*6E"
1777735226.3555431,11:20:26.355,-0.9058,0.5273,42.44608453,-76.47237647,4,"$GNGGA,152026.000,4226.765072,N,07628.342588,W,4,34,0.39,270.893,M,-33.937,M,1.0,1862*67"
