unix_time,human_time,x_meters,y_meters,raw_lat,raw_lon,status_quality,raw_nmea
1777319385.2879922,15:49:45.287,-0.2745,0.5726,42.44635805,-76.47109948,5,"$GNGGA,194945.000,4226.781483,N,07628.265969,W,5,30,0.61,271.430,M,-33.937,M,1.0,0703*63"
1777319386.315719,15:49:46.315,-0.2526,0.6578,42.44635882,-76.47109922,5,"$GNGGA,194946.000,4226.781529,N,07628.265953,W,5,30,0.61,271.453,M,-33.937,M,1.0,0703*6D"
1777319387.3011034,15:49:47.301,-0.2594,0.6115,42.4463584,-76.4710993,5,"$GNGGA,194947.000,4226.781504,N,07628.265958,W,5,30,0.62,271.425,M,-33.936,M,1.0,0703*6B"
1777319388.2797387,15:49:48.279,-0.28,0.8689,42.44636072,-76.47109955,5,"$GNGGA,194948.000,4226.781643,N,07628.265973,W,5,30,0.68,271.484,M,-33.936,M,1.0,0703*6C"
1777319389.2650607,15:49:49.265,-0.243,0.7578,42.44635972,-76.4710991,5,"$GNGGA,194949.000,4226.781583,N,07628.265946,W,5,30,0.68,271.553,M,-33.936,M,1.0,0703*6F"
1777319392.2981794,15:49:52.298,-0.1786,0.4318,42.44635678,-76.47109832,5,"$GNGGA,194952.000,4226.781407,N,07628.265899,W,5,30,0.70,271.788,M,-33.936,M,1.0,0703*66"
1777319393.2875648,15:49:53.287,-0.1567,0.2818,42.44635543,-76.47109805,5,"$GNGGA,194953.000,4226.781326,N,07628.265883,W,5,30,0.71,271.990,M,-33.937,M,1.0,0703*6F"
1777319394.2965314,15:49:54.296,-0.1827,0.1132,42.44635392,-76.47109837,5,"$GNGGA,194954.000,4226.781235,N,07628.265902,W,5,30,0.71,271.794,M,-33.936,M,1.0,0703*68"
1777319395.2873273,15:49:55.287,-0.158,-0.3202,42.44635002,-76.47109807,5,"$GNGGA,194955.000,4226.781001,N,07628.265884,W,5,30,0.64,271.785,M,-33.937,M,1.0,0703*66"
1777319396.305437,15:49:56.305,-0.1471,-0.3554,42.4463497,-76.47109793,5,"$GNGGA,194956.000,4226.780982,N,07628.265876,W,5,30,0.62,271.880,M,-33.937,M,1.0,0703*67"
1777319397.2739198,15:49:57.273,-0.158,-0.248,42.44635067,-76.47109807,5,"$GNGGA,194957.000,4226.781040,N,07628.265884,W,5,30,0.62,271.883,M,-33.936,M,2.0,0703*6C"
1777319398.3643742,15:49:58.364,-0.1485,-0.2739,42.44635043,-76.47109795,5,"$GNGGA,194958.000,4226.781026,N,07628.265877,W,5,30,0.63,271.965,M,-33.936,M,3.0,0703*66"
1777319399.2749825,15:49:59.274,-0.1033,-0.398,42.44634932,-76.4710974,5,"$GNGGA,194959.000,4226.780959,N,07628.265844,W,5,30,0.64,272.315,M,-33.937,M,1.0,0703*6D"
1777319402.2786927,15:50:02.278,-0.0663,-0.5721,42.44634775,-76.47109695,5,"$GNGGA,195002.000,4226.780865,N,07628.265817,W,5,29,0.64,272.345,M,-33.936,M,1.0,0703*6F"
1777319403.2687287,15:50:03.268,-0.0389,-0.5906,42.44634758,-76.47109662,5,"$GNGGA,195003.000,4226.780855,N,07628.265797,W,5,29,0.65,272.340,M,-33.936,M,1.0,0703*6E"
1777319404.2801142,15:50:04.280,-0.0361,-0.3146,42.44635007,-76.47109658,5,"$GNGGA,195004.000,4226.781004,N,07628.265795,W,5,29,0.65,272.415,M,-33.936,M,1.0,0703*61"
1777319405.2574422,15:50:05.257,-0.0279,-0.2702,42.44635047,-76.47109648,5,"$GNGGA,195005.000,4226.781028,N,07628.265789,W,5,28,0.65,272.493,M,-33.936,M,1.0,0703*6C"
1777319406.2672968,15:50:06.267,-0.0074,-0.3424,42.44634982,-76.47109623,5,"$GNGGA,195006.000,4226.780989,N,07628.265774,W,5,28,0.67,272.459,M,-33.936,M,1.0,0703*6A"
1777319407.2557702,15:50:07.255,0.0255,-0.3684,42.44634958,-76.47109583,5,"$GNGGA,195007.000,4226.780975,N,07628.265750,W,5,28,0.77,272.564,M,-33.937,M,1.0,0703*61"
1777319408.2445657,15:50:08.244,0.0406,-0.4202,42.44634912,-76.47109565,5,"$GNGGA,195008.000,4226.780947,N,07628.265739,W,5,29,0.70,272.616,M,-33.936,M,1.0,0703*61"
1777319409.2569976,15:50:09.257,0.0598,-0.298,42.44635022,-76.47109542,5,"$GNGGA,195009.000,4226.781013,N,07628.265725,W,5,29,0.72,272.620,M,-33.936,M,1.0,0703*63"
1777319412.302542,15:50:12.302,0.1378,-0.5202,42.44634822,-76.47109447,5,"$GNGGA,195012.000,4226.780893,N,07628.265668,W,5,29,0.57,273.005,M,-33.936,M,1.0,0703*67"
1777319413.285303,15:50:13.285,0.1461,-0.6999,42.4463466,-76.47109437,5,"$GNGGA,195013.000,4226.780796,N,07628.265662,W,5,29,0.57,272.916,M,-33.936,M,1.0,0703*6C"
1777319414.2977571,15:50:14.297,0.1515,-0.4758,42.44634862,-76.4710943,5,"$GNGGA,195014.000,4226.780917,N,07628.265658,W,5,29,0.56,272.770,M,-33.936,M,1.0,0703*6A"
1777319415.2131023,15:50:15.213,0.183,-0.6203,42.44634732,-76.47109392,5,"$GNGGA,195015.000,4226.780839,N,07628.265635,W,5,29,0.55,272.621,M,-33.936,M,1.0,0703*6B"
1777319416.3115442,15:50:16.311,0.1762,-0.6129,42.44634738,-76.471094,5,"$GNGGA,195016.000,4226.780843,N,07628.265640,W,5,29,0.61,272.389,M,-33.936,M,1.0,0703*67"
1777319417.2787838,15:50:17.278,0.194,-0.6258,42.44634727,-76.47109378,5,"$GNGGA,195017.000,4226.780836,N,07628.265627,W,5,29,0.63,272.410,M,-33.937,M,1.0,0703*61"
1777319418.2867289,15:50:18.286,0.2063,-0.6592,42.44634697,-76.47109363,5,"$GNGGA,195018.000,4226.780818,N,07628.265618,W,5,28,0.57,272.508,M,-33.937,M,1.0,0703*60"
1777319419.2442994,15:50:19.244,0.2556,-0.5165,42.44634825,-76.47109303,5,"$GNGGA,195019.000,4226.780895,N,07628.265582,W,5,29,0.74,272.436,M,-33.937,M,1.0,0703*68"
1777319422.2847023,15:50:22.284,0.3241,-0.2109,42.446351,-76.4710922,5,"$GNGGA,195022.000,4226.781060,N,07628.265532,W,5,28,0.62,272.886,M,-33.936,M,1.0,0703*68"
1777319423.2816792,15:50:23.281,0.2967,-0.1276,42.44635175,-76.47109253,5,"$GNGGA,195023.000,4226.781105,N,07628.265552,W,5,30,0.58,272.770,M,-33.937,M,1.0,0703*6A"
1777319424.2676532,15:50:24.267,0.3461,0.0484,42.44635333,-76.47109193,5,"$GNGGA,195024.000,4226.781200,N,07628.265516,W,5,29,0.73,272.677,M,-33.937,M,1.0,0703*6C"
1777319425.2291017,15:50:25.229,0.3625,-0.0239,42.44635268,-76.47109173,5,"$GNGGA,195025.000,4226.781161,N,07628.265504,W,5,28,0.76,272.706,M,-33.936,M,1.0,0703*68"
1777319426.2847826,15:50:26.284,0.3844,-0.0627,42.44635233,-76.47109147,5,"$GNGGA,195026.000,4226.781140,N,07628.265488,W,5,28,0.62,272.828,M,-33.937,M,1.0,0703*6A"
1777319427.2279513,15:50:27.227,0.3967,-0.109,42.44635192,-76.47109132,5,"$GNGGA,195027.000,4226.781115,N,07628.265479,W,5,28,0.63,272.909,M,-33.936,M,1.0,0703*67"
1777319428.2442727,15:50:28.244,0.4173,-0.222,42.4463509,-76.47109107,5,"$GNGGA,195028.000,4226.781054,N,07628.265464,W,5,28,0.64,273.047,M,-33.937,M,1.0,0703*64"
1777319429.2262256,15:50:29.226,0.4337,-0.2887,42.4463503,-76.47109087,5,"$GNGGA,195029.000,4226.781018,N,07628.265452,W,5,28,0.68,273.155,M,-33.937,M,1.0,0703*66"
1777319432.262166,15:50:32.262,0.5296,-0.3128,42.44635008,-76.4710897,5,"$GNGGA,195032.000,4226.781005,N,07628.265382,W,5,29,0.76,273.226,M,-33.936,M,1.0,0703*62"
1777319433.2521856,15:50:33.252,0.5337,-0.2924,42.44635027,-76.47108965,5,"$GNGGA,195033.000,4226.781016,N,07628.265379,W,5,28,0.72,273.188,M,-33.936,M,1.0,0703*67"
1777319434.2525382,15:50:34.252,0.5597,-0.4128,42.44634918,-76.47108933,5,"$GNGGA,195034.000,4226.780951,N,07628.265360,W,5,28,0.75,273.289,M,-33.937,M,1.0,0703*67"
1777319435.231714,15:50:35.231,0.5721,-0.4221,42.4463491,-76.47108918,5,"$GNGGA,195035.000,4226.780946,N,07628.265351,W,5,28,0.93,273.241,M,-33.936,M,1.0,0703*6F"
1777319436.276244,15:50:36.276,0.6022,-0.4684,42.44634868,-76.47108882,5,"$GNGGA,195036.000,4226.780921,N,07628.265329,W,5,28,0.74,273.301,M,-33.936,M,1.0,0703*6E"
1777319437.225547,15:50:37.225,0.6173,-0.4925,42.44634847,-76.47108863,5,"$GNGGA,195037.000,4226.780908,N,07628.265318,W,5,28,0.70,273.374,M,-33.936,M,1.0,0703*60"
1777319438.2765982,15:50:38.276,0.6419,-0.4739,42.44634863,-76.47108833,5,"$GNGGA,195038.000,4226.780918,N,07628.265300,W,5,28,0.70,273.354,M,-33.936,M,1.0,0703*65"
1777319439.221753,15:50:39.221,0.6707,-0.5276,42.44634815,-76.47108798,5,"$GNGGA,195039.000,4226.780889,N,07628.265279,W,5,28,0.67,273.353,M,-33.936,M,1.0,0703*63"
1777319442.2520826,15:50:42.252,0.6707,-0.5369,42.44634807,-76.47108798,5,"$GNGGA,195042.000,4226.780884,N,07628.265279,W,5,28,0.56,273.190,M,-33.937,M,1.0,0703*6C"
1777319443.2431085,15:50:43.243,0.6597,-0.5388,42.44634805,-76.47108812,5,"$GNGGA,195043.000,4226.780883,N,07628.265287,W,5,28,0.55,273.204,M,-33.936,M,1.0,0703*67"
1777319444.263592,15:50:44.263,0.6556,-0.5295,42.44634813,-76.47108817,5,"$GNGGA,195044.000,4226.780888,N,07628.265290,W,5,28,0.56,273.243,M,-33.936,M,2.0,0703*6E"
1777319445.3381937,15:50:45.338,0.6721,-0.5999,42.4463475,-76.47108797,5,"$GNGGA,195045.000,4226.780850,N,07628.265278,W,5,28,0.58,273.316,M,-33.936,M,3.0,0703*62"
1777319446.2465787,15:50:46.246,0.6721,-0.5647,42.44634782,-76.47108797,5,"$GNGGA,195046.000,4226.780869,N,07628.265278,W,5,28,0.58,273.330,M,-33.937,M,1.0,0703*6C"
1777319447.2703617,15:50:47.270,0.7337,-0.6017,42.44634748,-76.47108722,5,"$GNGGA,195047.000,4226.780849,N,07628.265233,W,5,28,0.58,273.410,M,-33.936,M,1.0,0703*64"
1777319448.2546985,15:50:48.254,0.7228,-0.611,42.4463474,-76.47108735,5,"$GNGGA,195048.000,4226.780844,N,07628.265241,W,5,28,0.63,273.278,M,-33.936,M,1.0,0703*63"
1777319449.2297828,15:50:49.229,0.7611,-0.6166,42.44634735,-76.47108688,5,"$GNGGA,195049.000,4226.780841,N,07628.265213,W,5,28,0.58,273.323,M,-33.937,M,1.0,0703*66"
1777319452.2710428,15:50:52.271,0.783,-0.8481,42.44634527,-76.47108662,5,"$GNGGA,195052.000,4226.780716,N,07628.265197,W,5,28,0.65,273.472,M,-33.937,M,1.0,0703*63"
1777319453.2460446,15:50:53.246,0.7871,-0.8888,42.4463449,-76.47108657,5,"$GNGGA,195053.000,4226.780694,N,07628.265194,W,5,28,0.63,273.495,M,-33.936,M,1.0,0703*64"
1777319454.2448382,15:50:54.244,0.7926,-0.9203,42.44634462,-76.4710865,5,"$GNGGA,195054.000,4226.780677,N,07628.265190,W,5,28,0.64,273.473,M,-33.936,M,1.0,0703*65"
1777319455.2432904,15:50:55.243,0.8091,-0.9851,42.44634403,-76.4710863,5,"$GNGGA,195055.000,4226.780642,N,07628.265178,W,5,28,0.54,273.597,M,-33.936,M,1.0,0703*6C"
1777319456.2545285,15:50:56.254,0.8186,-0.9833,42.44634405,-76.47108618,5,"$GNGGA,195056.000,4226.780643,N,07628.265171,W,5,28,0.59,273.635,M,-33.937,M,1.0,0703*60"
1777319457.2451415,15:50:57.245,0.8228,-0.9703,42.44634417,-76.47108613,5,"$GNGGA,195057.000,4226.780650,N,07628.265168,W,5,28,0.66,273.742,M,-33.937,M,1.0,0703*66"
1777319458.2380707,15:50:58.238,0.8693,-0.9925,42.44634397,-76.47108557,5,"$GNGGA,195058.000,4226.780638,N,07628.265134,W,5,28,0.53,273.598,M,-33.936,M,1.0,0703*6C"
1777319459.2157319,15:50:59.215,0.8762,-1.0314,42.44634362,-76.47108548,5,"$GNGGA,195059.000,4226.780617,N,07628.265129,W,5,28,0.56,273.439,M,-33.936,M,1.0,0703*63"
1777319462.2423909,15:51:02.242,0.8844,-0.9796,42.44634408,-76.47108538,5,"$GNGGA,195102.000,4226.780645,N,07628.265123,W,5,28,0.54,273.544,M,-33.937,M,1.0,0703*69"
1777319463.2306123,15:51:03.230,0.8995,-0.987,42.44634402,-76.4710852,5,"$GNGGA,195103.000,4226.780641,N,07628.265112,W,5,28,0.59,273.645,M,-33.937,M,1.0,0703*61"
1777319464.2550898,15:51:04.255,0.9159,-0.9518,42.44634433,-76.471085,5,"$GNGGA,195104.000,4226.780660,N,07628.265100,W,5,28,0.54,273.764,M,-33.936,M,1.0,0703*68"
1777319465.2397487,15:51:05.239,0.8954,-0.9462,42.44634438,-76.47108525,5,"$GNGGA,195105.000,4226.780663,N,07628.265115,W,5,29,0.53,273.824,M,-33.936,M,1.0,0703*63"
1777319466.3190262,15:51:06.319,0.9227,-0.9814,42.44634407,-76.47108492,5,"$GNGGA,195106.000,4226.780644,N,07628.265095,W,5,28,0.55,273.877,M,-33.936,M,1.0,0703*6D"
1777319467.2542143,15:51:07.254,0.92,-1.0,42.4463439,-76.47108495,5,"$GNGGA,195107.000,4226.780634,N,07628.265097,W,5,28,0.55,273.832,M,-33.936,M,1.0,0703*68"
1777319468.2826307,15:51:08.282,0.9227,-0.987,42.44634402,-76.47108492,5,"$GNGGA,195108.000,4226.780641,N,07628.265095,W,5,29,0.59,273.884,M,-33.936,M,1.0,0703*67"
1777319469.2707653,15:51:09.270,0.9337,-0.9833,42.44634405,-76.47108478,5,"$GNGGA,195109.000,4226.780643,N,07628.265087,W,5,29,0.55,273.902,M,-33.937,M,1.0,0703*65"
1777319472.2845464,15:51:12.284,0.9693,-0.9907,42.44634398,-76.47108435,5,"$GNGGA,195112.000,4226.780639,N,07628.265061,W,5,29,0.60,274.125,M,-33.937,M,1.0,0703*66"
1777319473.266662,15:51:13.266,0.9926,-0.9574,42.44634428,-76.47108407,5,"$GNGGA,195113.000,4226.780657,N,07628.265044,W,5,29,0.60,274.184,M,-33.936,M,1.0,0703*62"
1777319474.2898226,15:51:14.289,0.9967,-0.9555,42.4463443,-76.47108402,5,"$GNGGA,195114.000,4226.780658,N,07628.265041,W,5,29,0.55,274.216,M,-33.937,M,1.0,0703*60"
1777319475.2687142,15:51:15.268,1.0063,-0.9703,42.44634417,-76.4710839,5,"$GNGGA,195115.000,4226.780650,N,07628.265034,W,5,29,0.55,274.140,M,-33.937,M,1.0,0703*6B"
1777319476.27075,15:51:16.270,1.0022,-0.9629,42.44634423,-76.47108395,5,"$GNGGA,195116.000,4226.780654,N,07628.265037,W,5,29,0.55,274.107,M,-33.937,M,1.0,0703*6C"
1777319477.248243,15:51:17.248,1.0132,-0.9833,42.44634405,-76.47108382,5,"$GNGGA,195117.000,4226.780643,N,07628.265029,W,5,29,0.52,274.059,M,-33.936,M,1.0,0703*68"
1777319478.3250291,15:51:18.325,1.0241,-1.0018,42.44634388,-76.47108368,5,"$GNGGA,195118.000,4226.780633,N,07628.265021,W,5,29,0.56,274.121,M,-33.937,M,1.0,0703*63"
1777319479.2606936,15:51:19.260,1.0419,-0.9666,42.4463442,-76.47108347,5,"$GNGGA,195119.000,4226.780652,N,07628.265008,W,5,29,0.54,274.120,M,-33.937,M,1.0,0703*6D"
1777319482.2945466,15:51:22.294,1.0433,-0.9277,42.44634455,-76.47108345,5,"$GNGGA,195122.000,4226.780673,N,07628.265007,W,5,29,0.52,274.192,M,-33.936,M,1.0,0703*67"
1777319483.280229,15:51:23.280,1.0515,-0.9481,42.44634437,-76.47108335,5,"$GNGGA,195123.000,4226.780662,N,07628.265001,W,5,29,0.52,274.112,M,-33.936,M,1.0,0703*68"
1777319484.279364,15:51:24.279,1.0447,-0.9462,42.44634438,-76.47108343,5,"$GNGGA,195124.000,4226.780663,N,07628.265006,W,5,29,0.52,274.004,M,-33.936,M,1.0,0703*6F"
1777319485.274453,15:51:25.274,1.0515,-0.9444,42.4463444,-76.47108335,5,"$GNGGA,195125.000,4226.780664,N,07628.265001,W,5,29,0.54,274.021,M,-33.937,M,1.0,0703*6E"
1777319486.2890403,15:51:26.289,1.057,-0.9499,42.44634435,-76.47108328,5,"$GNGGA,195126.000,4226.780661,N,07628.264997,W,5,29,0.53,273.940,M,-33.937,M,1.0,0703*61"
1777319487.2774396,15:51:27.277,1.0529,-0.9574,42.44634428,-76.47108333,5,"$GNGGA,195127.000,4226.780657,N,07628.265000,W,5,29,0.52,273.786,M,-33.936,M,1.0,0703*67"
1777319488.2631001,15:51:28.263,1.0693,-0.974,42.44634413,-76.47108313,5,"$GNGGA,195128.000,4226.780648,N,07628.264988,W,5,29,0.61,273.606,M,-33.937,M,1.0,0703*66"
1777319489.24033,15:51:29.240,1.068,-0.9925,42.44634397,-76.47108315,5,"$GNGGA,195129.000,4226.780638,N,07628.264989,W,5,29,0.59,273.524,M,-33.936,M,1.0,0703*68"
1777319492.2548406,15:51:32.254,1.0597,-1.0481,42.44634347,-76.47108325,5,"$GNGGA,195132.000,4226.780608,N,07628.264995,W,5,29,0.66,273.310,M,-33.936,M,1.0,0703*61"
1777319493.2448575,15:51:33.244,1.0365,-1.0407,42.44634353,-76.47108353,5,"$GNGGA,195133.000,4226.780612,N,07628.265012,W,5,28,0.73,273.258,M,-33.936,M,1.0,0703*64"
1777319494.2861135,15:51:34.286,1.0529,-1.0389,42.44634355,-76.47108333,5,"$GNGGA,195134.000,4226.780613,N,07628.265000,W,5,28,0.70,273.255,M,-33.936,M,1.0,0703*6F"
1777319495.2646554,15:51:35.264,1.057,-1.0333,42.4463436,-76.47108328,5,"$GNGGA,195135.000,4226.780616,N,07628.264997,W,5,28,0.71,273.246,M,-33.937,M,1.0,0703*6F"
1777319496.2790494,15:51:36.279,1.0789,-1.0407,42.44634353,-76.47108302,5,"$GNGGA,195136.000,4226.780612,N,07628.264981,W,5,29,0.55,273.063,M,-33.937,M,1.0,0703*6D"
1777319497.2579827,15:51:37.257,1.0967,-1.0222,42.4463437,-76.4710828,5,"$GNGGA,195137.000,4226.780622,N,07628.264968,W,5,29,0.64,273.058,M,-33.936,M,1.0,0703*63"
1777319498.2679462,15:51:38.267,1.094,-0.9925,42.44634397,-76.47108283,5,"$GNGGA,195138.000,4226.780638,N,07628.264970,W,5,29,0.67,273.009,M,-33.936,M,1.0,0703*69"
1777319499.2875648,15:51:39.287,1.0858,-1.0333,42.4463436,-76.47108293,5,"$GNGGA,195139.000,4226.780616,N,07628.264976,W,5,29,0.54,272.953,M,-33.936,M,1.0,0703*65"
1777319502.293206,15:51:42.293,1.0762,-1.0796,42.44634318,-76.47108305,5,"$GNGGA,195142.000,4226.780591,N,07628.264983,W,5,29,0.70,272.830,M,-33.936,M,1.0,0703*6D"
1777319503.2874634,15:51:43.287,1.0611,-1.1037,42.44634297,-76.47108323,5,"$GNGGA,195143.000,4226.780578,N,07628.264994,W,5,29,0.59,272.740,M,-33.937,M,1.0,0703*6F"
1777319504.302394,15:51:44.302,1.0501,-1.1111,42.4463429,-76.47108337,5,"$GNGGA,195144.000,4226.780574,N,07628.265002,W,5,29,0.55,272.680,M,-33.936,M,1.0,0703*63"
1777319505.2820709,15:51:45.282,1.0556,-1.1166,42.44634285,-76.4710833,5,"$GNGGA,195145.000,4226.780571,N,07628.264998,W,5,29,0.56,272.646,M,-33.936,M,1.0,0703*65"
1777319506.252355,15:51:46.252,1.046,-1.1537,42.44634252,-76.47108342,5,"$GNGGA,195146.000,4226.780551,N,07628.265005,W,5,28,0.58,272.598,M,-33.936,M,1.0,0703*67"
1777319507.278324,15:51:47.278,1.0337,-1.1648,42.44634242,-76.47108357,5,"$GNGGA,195147.000,4226.780545,N,07628.265014,W,5,29,0.69,272.537,M,-33.937,M,1.0,0703*64"
1777319508.291021,15:51:48.291,1.0474,-1.1815,42.44634227,-76.4710834,5,"$GNGGA,195148.000,4226.780536,N,07628.265004,W,5,29,0.75,272.506,M,-33.937,M,1.0,0703*61"
1777319509.2559683,15:51:49.255,1.0323,-1.1685,42.44634238,-76.47108358,5,"$GNGGA,195149.000,4226.780543,N,07628.265015,W,5,28,0.75,272.436,M,-33.937,M,1.0,0703*61"
1777319512.2722223,15:51:52.272,1.0789,-1.1611,42.44634245,-76.47108302,5,"$GNGGA,195152.000,4226.780547,N,07628.264981,W,5,29,0.75,272.427,M,-33.936,M,1.0,0703*6A"
1777319513.2534883,15:51:53.253,1.1036,-1.187,42.44634222,-76.47108272,5,"$GNGGA,195153.000,4226.780533,N,07628.264963,W,5,29,0.75,272.403,M,-33.936,M,1.0,0703*62"
1777319514.2988586,15:51:54.298,1.1228,-1.1611,42.44634245,-76.47108248,5,"$GNGGA,195154.000,4226.780547,N,07628.264949,W,5,29,0.75,272.391,M,-33.936,M,1.0,0703*62"
1777319515.2778642,15:51:55.277,1.0885,-1.1704,42.44634237,-76.4710829,5,"$GNGGA,195155.000,4226.780542,N,07628.264974,W,5,29,0.69,272.323,M,-33.937,M,1.0,0703*6D"
1777319516.2401001,15:51:56.240,1.0762,-1.2093,42.44634202,-76.47108305,5,"$GNGGA,195156.000,4226.780521,N,07628.264983,W,5,29,0.83,272.293,M,-33.936,M,1.0,0703*6C"
1777319517.2120402,15:51:57.212,1.0707,-1.1889,42.4463422,-76.47108312,5,"$GNGGA,195157.000,4226.780532,N,07628.264987,W,5,29,0.81,272.252,M,-33.936,M,2.0,0703*67"
1777319518.389382,15:51:58.389,1.0707,-1.213,42.44634198,-76.47108312,5,"$GNGGA,195158.000,4226.780519,N,07628.264987,W,5,29,0.61,272.225,M,-33.936,M,3.0,0703*6E"
1777319519.2480633,15:51:59.248,1.0433,-1.2519,42.44634163,-76.47108345,5,"$GNGGA,195159.000,4226.780498,N,07628.265007,W,5,28,0.75,272.159,M,-33.936,M,1.0,0703*69"
1777319522.2594125,15:52:02.259,1.0488,-1.263,42.44634153,-76.47108338,5,"$GNGGA,195202.000,4226.780492,N,07628.265003,W,5,28,0.76,272.082,M,-33.936,M,1.0,0703*6E"
1777319523.283508,15:52:03.283,1.046,-1.2852,42.44634133,-76.47108342,5,"$GNGGA,195203.000,4226.780480,N,07628.265005,W,5,28,0.60,272.042,M,-33.936,M,1.0,0703*61"
1777319524.2930887,15:52:04.293,1.0556,-1.2759,42.44634142,-76.4710833,5,"$GNGGA,195204.000,4226.780485,N,07628.264998,W,5,28,0.69,271.985,M,-33.936,M,1.0,0703*67"
1777319525.2681487,15:52:05.268,1.1063,-1.2945,42.44634125,-76.47108268,5,"$GNGGA,195205.000,4226.780475,N,07628.264961,W,5,28,0.75,272.041,M,-33.937,M,1.0,0703*61"
1777319526.2391155,15:52:06.239,1.109,-1.2722,42.44634145,-76.47108265,5,"$GNGGA,195206.000,4226.780487,N,07628.264959,W,5,28,0.75,272.015,M,-33.936,M,1.0,0703*64"
1777319527.2539296,15:52:07.253,1.1406,-1.3056,42.44634115,-76.47108227,5,"$GNGGA,195207.000,4226.780469,N,07628.264936,W,5,28,0.75,272.029,M,-33.936,M,1.0,0703*63"
1777319528.2323422,15:52:08.232,1.1844,-1.3482,42.44634077,-76.47108173,5,"$GNGGA,195208.000,4226.780446,N,07628.264904,W,5,27,0.71,272.089,M,-33.936,M,1.0,0703*61"
1777319529.2058265,15:52:09.205,1.1967,-1.3593,42.44634067,-76.47108158,5,"$GNGGA,195209.000,4226.780440,N,07628.264895,W,5,27,0.71,272.104,M,-33.936,M,1.0,0703*6B"
1777319532.233231,15:52:12.233,1.1953,-1.35,42.44634075,-76.4710816,5,"$GNGGA,195212.000,4226.780445,N,07628.264896,W,5,27,0.70,272.127,M,-33.937,M,1.0,0703*66"
1777319533.2069237,15:52:13.206,1.1899,-1.3723,42.44634055,-76.47108167,5,"$GNGGA,195213.000,4226.780433,N,07628.264900,W,5,28,0.72,272.124,M,-33.937,M,1.0,0703*66"
1777319534.2724607,15:52:14.272,1.1775,-1.3723,42.44634055,-76.47108182,5,"$GNGGA,195214.000,4226.780433,N,07628.264909,W,5,28,0.79,272.110,M,-33.936,M,1.0,0703*65"
1777319535.2572193,15:52:15.257,1.1734,-1.3648,42.44634062,-76.47108187,5,"$GNGGA,195215.000,4226.780437,N,07628.264912,W,5,28,0.72,272.085,M,-33.936,M,1.0,0703*6C"
1777319536.2694132,15:52:16.269,1.1707,-1.3611,42.44634065,-76.4710819,5,"$GNGGA,195216.000,4226.780439,N,07628.264914,W,5,27,0.70,272.109,M,-33.936,M,1.0,0703*6F"
1777319537.2556758,15:52:17.255,1.1625,-1.3519,42.44634073,-76.471082,5,"$GNGGA,195217.000,4226.780444,N,07628.264920,W,5,27,0.68,272.103,M,-33.937,M,1.0,0703*61"
1777319538.2700875,15:52:18.270,1.1693,-1.3445,42.4463408,-76.47108192,5,"$GNGGA,195218.000,4226.780448,N,07628.264915,W,5,27,0.83,272.098,M,-33.936,M,1.0,0703*63"
1777319539.2429788,15:52:19.242,1.1789,-1.3445,42.4463408,-76.4710818,5,"$GNGGA,195219.000,4226.780448,N,07628.264908,W,5,27,0.61,272.104,M,-33.936,M,1.0,0703*66"
1777319542.265971,15:52:22.265,1.1707,-1.3519,42.44634073,-76.4710819,5,"$GNGGA,195222.000,4226.780444,N,07628.264914,W,5,27,0.67,272.078,M,-33.936,M,1.0,0703*63"
1777319543.239291,15:52:23.239,1.1666,-1.3463,42.44634078,-76.47108195,5,"$GNGGA,195223.000,4226.780447,N,07628.264917,W,5,27,0.67,272.058,M,-33.936,M,1.0,0703*60"
1777319544.2494938,15:52:24.249,1.1816,-1.3389,42.44634085,-76.47108177,5,"$GNGGA,195224.000,4226.780451,N,07628.264906,W,5,28,0.70,272.088,M,-33.937,M,1.0,0703*65"
1777319545.268994,15:52:25.269,1.1652,-1.3426,42.44634082,-76.47108197,5,"$GNGGA,195225.000,4226.780449,N,07628.264918,W,5,28,0.70,272.078,M,-33.937,M,1.0,0703*6D"
1777319546.236046,15:52:26.236,1.1611,-1.3889,42.4463404,-76.47108202,5,"$GNGGA,195226.000,4226.780424,N,07628.264921,W,5,28,0.71,272.089,M,-33.936,M,1.0,0703*61"
1777319547.2224932,15:52:27.222,1.1543,-1.3445,42.4463408,-76.4710821,5,"$GNGGA,195227.000,4226.780448,N,07628.264926,W,5,28,0.75,272.091,M,-33.936,M,1.0,0703*60"
1777319548.2481737,15:52:28.248,1.1625,-1.3482,42.44634077,-76.471082,5,"$GNGGA,195228.000,4226.780446,N,07628.264920,W,5,28,0.79,272.069,M,-33.937,M,1.0,0703*6D"
1777319549.224096,15:52:29.224,1.1638,-1.3648,42.44634062,-76.47108198,5,"$GNGGA,195229.000,4226.780437,N,07628.264919,W,5,28,0.72,272.039,M,-33.936,M,1.0,0703*6F"
1777319552.2523112,15:52:32.252,1.1858,-1.4093,42.44634022,-76.47108172,5,"$GNGGA,195232.000,4226.780413,N,07628.264903,W,5,27,0.59,272.063,M,-33.936,M,1.0,0703*61"
1777319553.2322538,15:52:33.232,1.1899,-1.3908,42.44634038,-76.47108167,5,"$GNGGA,195233.000,4226.780423,N,07628.264900,W,5,28,0.58,272.042,M,-33.936,M,1.0,0703*6D"
1777319554.2515461,15:52:34.251,1.1775,-1.3815,42.44634047,-76.47108182,5,"$GNGGA,195234.000,4226.780428,N,07628.264909,W,5,29,0.65,272.017,M,-33.936,M,1.0,0703*67"
1777319555.229791,15:52:35.229,1.194,-1.4,42.4463403,-76.47108162,5,"$GNGGA,195235.000,4226.780418,N,07628.264897,W,5,30,0.63,272.042,M,-33.936,M,1.0,0703*6D"
1777319556.2278745,15:52:36.227,1.1967,-1.4186,42.44634013,-76.47108158,5,"$GNGGA,195236.000,4226.780408,N,07628.264895,W,5,29,0.75,272.047,M,-33.936,M,1.0,0703*67"
1777319557.2421224,15:52:37.242,1.2241,-1.4649,42.44633972,-76.47108125,5,"$GNGGA,195237.000,4226.780383,N,07628.264875,W,5,30,0.71,272.116,M,-33.936,M,1.0,0703*65"
1777319558.2576816,15:52:38.257,1.2145,-1.4352,42.44633998,-76.47108137,5,"$GNGGA,195238.000,4226.780399,N,07628.264882,W,5,30,0.70,272.086,M,-33.936,M,1.0,0703*60"
1777319559.2105048,15:52:39.210,1.2241,-1.4352,42.44633998,-76.47108125,5,"$GNGGA,195239.000,4226.780399,N,07628.264875,W,5,30,0.70,272.046,M,-33.936,M,1.0,0703*65"
1777319562.3382273,15:52:42.338,1.1953,-1.4426,42.44633992,-76.4710816,5,"$GNGGA,195242.000,4226.780395,N,07628.264896,W,5,30,0.58,271.996,M,-33.936,M,1.0,0703*65"
1777319563.2702777,15:52:43.270,1.1995,-1.4686,42.44633968,-76.47108155,5,"$GNGGA,195243.000,4226.780381,N,07628.264893,W,5,30,0.58,271.966,M,-33.936,M,1.0,0703*6B"
1777319564.2817807,15:52:44.281,1.1597,-1.4223,42.4463401,-76.47108203,5,"$GNGGA,195244.000,4226.780406,N,07628.264922,W,5,29,0.60,271.946,M,-33.936,M,1.0,0703*6E"
1777319565.29324,15:52:45.293,1.146,-1.4426,42.44633992,-76.4710822,5,"$GNGGA,195245.000,4226.780395,N,07628.264932,W,5,29,0.56,271.895,M,-33.936,M,1.0,0703*69"
1777319566.3385353,15:52:46.338,1.1433,-1.4315,42.44634002,-76.47108223,5,"$GNGGA,195246.000,4226.780401,N,07628.264934,W,5,29,0.52,271.874,M,-33.937,M,1.0,0703*6C"
1777319567.2910542,15:52:47.291,1.1556,-1.4204,42.44634012,-76.47108208,5,"$GNGGA,195247.000,4226.780407,N,07628.264925,W,5,29,0.55,271.846,M,-33.936,M,1.0,0703*6C"
1777319568.2805161,15:52:48.280,1.1543,-1.4241,42.44634008,-76.4710821,5,"$GNGGA,195248.000,4226.780405,N,07628.264926,W,5,29,0.53,271.824,M,-33.936,M,1.0,0703*60"
1777319569.2565827,15:52:49.256,1.1543,-1.4074,42.44634023,-76.4710821,5,"$GNGGA,195249.000,4226.780414,N,07628.264926,W,5,29,0.53,271.808,M,-33.936,M,1.0,0703*6F"
1777319572.4089084,15:52:52.408,1.1488,-1.3834,42.44634045,-76.47108217,5,"$GNGGA,195252.000,4226.780427,N,07628.264930,W,5,29,0.59,271.779,M,-33.936,M,3.0,0703*63"
1777319573.22898,15:52:53.228,1.1488,-1.4204,42.44634012,-76.47108217,5,"$GNGGA,195253.000,4226.780407,N,07628.264930,W,5,29,0.69,271.811,M,-33.936,M,1.0,0703*60"
1777319574.256429,15:52:54.256,1.1611,-1.4223,42.4463401,-76.47108202,5,"$GNGGA,195254.000,4226.780406,N,07628.264921,W,5,28,0.63,271.802,M,-33.936,M,1.0,0703*6F"
1777319575.2376497,15:52:55.237,1.1666,-1.4167,42.44634015,-76.47108195,5,"$GNGGA,195255.000,4226.780409,N,07628.264917,W,5,28,0.72,271.811,M,-33.937,M,1.0,0703*67"
1777319576.245587,15:52:56.245,1.1734,-1.4111,42.4463402,-76.47108187,5,"$GNGGA,195256.000,4226.780412,N,07628.264912,W,5,28,0.75,271.843,M,-33.936,M,1.0,0703*6A"
1777319577.2611704,15:52:57.261,1.1775,-1.4278,42.44634005,-76.47108182,5,"$GNGGA,195257.000,4226.780403,N,07628.264909,W,5,28,0.71,271.849,M,-33.936,M,1.0,0703*6F"
1777319578.2673142,15:52:58.267,1.1844,-1.426,42.44634007,-76.47108173,5,"$GNGGA,195258.000,4226.780404,N,07628.264904,W,5,28,0.71,271.913,M,-33.937,M,1.0,0703*65"
1777319579.2518961,15:52:59.251,1.1858,-1.4408,42.44633993,-76.47108172,5,"$GNGGA,195259.000,4226.780396,N,07628.264903,W,5,28,0.71,271.907,M,-33.936,M,1.0,0703*6B"
1777319582.3021414,15:53:02.302,1.1858,-1.426,42.44634007,-76.47108172,5,"$GNGGA,195302.000,4226.780404,N,07628.264903,W,5,28,0.55,271.907,M,-33.937,M,1.0,0703*6F"
1777319583.2970579,15:53:03.297,1.1885,-1.4649,42.44633972,-76.47108168,5,"$GNGGA,195303.000,4226.780383,N,07628.264901,W,5,28,0.63,271.981,M,-33.937,M,1.0,0703*6F"
1777319584.297786,15:53:04.297,1.1926,-1.4537,42.44633982,-76.47108163,5,"$GNGGA,195304.000,4226.780389,N,07628.264898,W,5,28,0.64,271.973,M,-33.936,M,1.0,0703*68"
1777319585.2724092,15:53:05.272,1.209,-1.4667,42.4463397,-76.47108143,5,"$GNGGA,195305.000,4226.780382,N,07628.264886,W,5,29,0.74,272.029,M,-33.936,M,1.0,0703*68"
1777319586.315501,15:53:06.315,1.2173,-1.4778,42.4463396,-76.47108133,5,"$GNGGA,195306.000,4226.780376,N,07628.264880,W,5,28,0.67,272.032,M,-33.937,M,1.0,0703*6E"
1777319587.2842987,15:53:07.284,1.2104,-1.4686,42.44633968,-76.47108142,5,"$GNGGA,195307.000,4226.780381,N,07628.264885,W,5,28,0.67,272.062,M,-33.936,M,1.0,0703*66"
1777319588.3355253,15:53:08.335,1.2077,-1.4797,42.44633958,-76.47108145,5,"$GNGGA,195308.000,4226.780375,N,07628.264887,W,5,28,0.67,272.043,M,-33.936,M,2.0,0703*60"
1777319589.2926095,15:53:09.292,1.2104,-1.4926,42.44633947,-76.47108142,5,"$GNGGA,195309.000,4226.780368,N,07628.264885,W,5,27,0.67,272.083,M,-33.937,M,1.0,0703*6E"
1777319592.3143778,15:53:12.314,1.2118,-1.5112,42.4463393,-76.4710814,5,"$GNGGA,195312.000,4226.780358,N,07628.264884,W,5,27,0.67,272.094,M,-33.936,M,1.0,0703*61"
1777319593.258033,15:53:13.258,1.2077,-1.5186,42.44633923,-76.47108145,5,"$GNGGA,195313.000,4226.780354,N,07628.264887,W,5,26,0.70,272.096,M,-33.936,M,1.0,0703*6A"
1777319594.2552462,15:53:14.255,1.2227,-1.5445,42.446339,-76.47108127,5,"$GNGGA,195314.000,4226.780340,N,07628.264876,W,5,26,0.68,272.097,M,-33.937,M,1.0,0703*6F"
1777319595.2672858,15:53:15.267,1.2406,-1.5352,42.44633908,-76.47108105,5,"$GNGGA,195315.000,4226.780345,N,07628.264863,W,5,26,0.68,272.116,M,-33.937,M,1.0,0703*67"
1777319596.32433,15:53:16.324,1.2351,-1.5593,42.44633887,-76.47108112,5,"$GNGGA,195316.000,4226.780332,N,07628.264867,W,5,27,0.66,272.107,M,-33.937,M,1.0,0703*6F"
1777319597.288748,15:53:17.288,1.2214,-1.5945,42.44633855,-76.47108128,5,"$GNGGA,195317.000,4226.780313,N,07628.264877,W,5,27,0.69,272.134,M,-33.936,M,1.0,0703*62"
1777319598.324623,15:53:18.324,1.2214,-1.5815,42.44633867,-76.47108128,5,"$GNGGA,195318.000,4226.780320,N,07628.264877,W,5,28,0.67,272.087,M,-33.936,M,1.0,0703*65"
1777319599.2959616,15:53:19.295,1.2186,-1.5834,42.44633865,-76.47108132,5,"$GNGGA,195319.000,4226.780319,N,07628.264879,W,5,28,0.66,272.082,M,-33.937,M,1.0,0703*65"
1777319602.3083816,15:53:22.308,1.2214,-1.6075,42.44633843,-76.47108128,5,"$GNGGA,195322.000,4226.780306,N,07628.264877,W,5,28,0.68,272.116,M,-33.937,M,1.0,0703*6F"
1777319603.2581637,15:53:23.258,1.209,-1.6075,42.44633843,-76.47108143,5,"$GNGGA,195323.000,4226.780306,N,07628.264886,W,5,28,0.69,272.112,M,-33.936,M,1.0,0703*64"
1777319604.2944405,15:53:24.294,1.2022,-1.626,42.44633827,-76.47108152,5,"$GNGGA,195324.000,4226.780296,N,07628.264891,W,5,28,0.68,272.091,M,-33.936,M,1.0,0703*66"
1777319605.2728035,15:53:25.272,1.1885,-1.6297,42.44633823,-76.47108168,5,"$GNGGA,195325.000,4226.780294,N,07628.264901,W,5,28,0.72,272.060,M,-33.936,M,1.0,0703*68"
1777319606.297458,15:53:26.297,1.2173,-1.6297,42.44633823,-76.47108133,5,"$GNGGA,195326.000,4226.780294,N,07628.264880,W,5,28,0.67,272.158,M,-33.937,M,1.0,0703*6C"
1777319607.276397,15:53:27.276,1.2145,-1.6427,42.44633812,-76.47108137,5,"$GNGGA,195327.000,4226.780287,N,07628.264882,W,5,29,0.64,272.190,M,-33.936,M,1.0,0703*6A"
1777319608.2830653,15:53:28.283,1.2255,-1.6705,42.44633787,-76.47108123,5,"$GNGGA,195328.000,4226.780272,N,07628.264874,W,5,30,0.60,272.206,M,-33.937,M,1.0,0703*67"
1777319609.265648,15:53:29.265,1.2269,-1.676,42.44633782,-76.47108122,5,"$GNGGA,195329.000,4226.780269,N,07628.264873,W,5,30,0.65,272.214,M,-33.937,M,1.0,0703*6D"
1777319612.2680848,15:53:32.268,1.2447,-1.6964,42.44633763,-76.471081,5,"$GNGGA,195332.000,4226.780258,N,07628.264860,W,5,30,0.64,272.299,M,-33.936,M,1.0,0703*62"
1777319613.263113,15:53:33.263,1.2364,-1.7112,42.4463375,-76.4710811,5,"$GNGGA,195333.000,4226.780250,N,07628.264866,W,5,30,0.61,272.307,M,-33.937,M,1.0,0703*6F"
1777319614.292389,15:53:34.292,1.246,-1.726,42.44633737,-76.47108098,5,"$GNGGA,195334.000,4226.780242,N,07628.264859,W,5,30,0.53,272.347,M,-33.936,M,1.0,0703*63"
1777319615.233973,15:53:35.233,1.2419,-1.7205,42.44633742,-76.47108103,5,"$GNGGA,195335.000,4226.780245,N,07628.264862,W,5,30,0.72,272.370,M,-33.937,M,1.0,0703*6B"
1777319616.317633,15:53:36.317,1.2679,-1.7668,42.446337,-76.47108072,5,"$GNGGA,195336.000,4226.780220,N,07628.264843,W,5,30,0.67,272.381,M,-33.936,M,1.0,0703*63"
1777319617.2644932,15:53:37.264,1.2871,-1.7242,42.44633738,-76.47108048,5,"$GNGGA,195337.000,4226.780243,N,07628.264829,W,5,30,0.67,272.348,M,-33.936,M,1.0,0703*6E"
1777319618.2651937,15:53:38.265,1.294,-1.7649,42.44633702,-76.4710804,5,"$GNGGA,195338.000,4226.780221,N,07628.264824,W,5,30,0.78,272.443,M,-33.936,M,1.0,0703*6A"
1777319619.2486706,15:53:39.248,1.3036,-1.7723,42.44633695,-76.47108028,5,"$GNGGA,195339.000,4226.780217,N,07628.264817,W,5,30,0.78,272.429,M,-33.937,M,1.0,0703*63"
1777319622.2739859,15:53:42.273,1.3145,-1.7742,42.44633693,-76.47108015,5,"$GNGGA,195342.000,4226.780216,N,07628.264809,W,5,30,0.70,272.459,M,-33.936,M,1.0,0703*6F"
1777319623.2651987,15:53:43.265,1.3077,-1.7964,42.44633673,-76.47108023,5,"$GNGGA,195343.000,4226.780204,N,07628.264814,W,5,30,0.78,272.529,M,-33.937,M,1.0,0703*6E"
1777319624.2660253,15:53:44.266,1.3145,-1.7927,42.44633677,-76.47108015,5,"$GNGGA,195344.000,4226.780206,N,07628.264809,W,5,30,0.60,272.603,M,-33.936,M,1.0,0703*64"
1777319625.2512715,15:53:45.251,1.3255,-1.7834,42.44633685,-76.47108002,5,"$GNGGA,195345.000,4226.780211,N,07628.264801,W,5,30,0.70,272.614,M,-33.936,M,1.0,0703*6C"
1777319626.3321183,15:53:46.332,1.3269,-1.7853,42.44633683,-76.47108,5,"$GNGGA,195346.000,4226.780210,N,07628.264800,W,5,30,0.62,272.548,M,-33.936,M,1.0,0703*66"
1777319627.279177,15:53:47.279,1.3159,-1.7816,42.44633687,-76.47108013,5,"$GNGGA,195347.000,4226.780212,N,07628.264808,W,5,30,0.71,272.579,M,-33.936,M,1.0,0703*6D"
1777319628.2708976,15:53:48.270,1.32,-1.7797,42.44633688,-76.47108008,5,"$GNGGA,195348.000,4226.780213,N,07628.264805,W,5,30,0.55,272.570,M,-33.936,M,1.0,0703*61"
1777319629.2720766,15:53:49.272,1.3173,-1.7946,42.44633675,-76.47108012,5,"$GNGGA,195349.000,4226.780205,N,07628.264807,W,5,30,0.55,272.509,M,-33.937,M,1.0,0703*6A"
1777319632.331833,15:53:52.331,1.309,-1.826,42.44633647,-76.47108022,5,"$GNGGA,195352.000,4226.780188,N,07628.264813,W,5,30,0.56,272.461,M,-33.937,M,1.0,0703*6F"
1777319633.2763472,15:53:53.276,1.3104,-1.7816,42.44633687,-76.4710802,5,"$GNGGA,195353.000,4226.780212,N,07628.264812,W,5,30,0.57,272.415,M,-33.936,M,1.0,0703*6C"
1777319634.2987416,15:53:54.298,1.2981,-1.7686,42.44633698,-76.47108035,5,"$GNGGA,195354.000,4226.780219,N,07628.264821,W,5,30,0.64,272.411,M,-33.937,M,1.0,0703*65"
1777319635.2797217,15:53:55.279,1.3022,-1.7501,42.44633715,-76.4710803,5,"$GNGGA,195355.000,4226.780229,N,07628.264818,W,5,30,0.63,272.403,M,-33.936,M,1.0,0703*68"
1777319636.3107865,15:53:56.310,1.3049,-1.7612,42.44633705,-76.47108027,5,"$GNGGA,195356.000,4226.780223,N,07628.264816,W,5,30,0.54,272.366,M,-33.937,M,1.0,0703*6E"
1777319637.2427123,15:53:57.242,1.3022,-1.7297,42.44633733,-76.4710803,5,"$GNGGA,195357.000,4226.780240,N,07628.264818,W,5,30,0.63,272.335,M,-33.936,M,1.0,0703*67"
1777319638.3258245,15:53:58.325,1.2871,-1.6945,42.44633765,-76.47108048,5,"$GNGGA,195358.000,4226.780259,N,07628.264829,W,5,30,0.54,272.278,M,-33.936,M,1.0,0703*6E"
1777319639.2810004,15:53:59.281,1.2816,-1.7131,42.44633748,-76.47108055,5,"$GNGGA,195359.000,4226.780249,N,07628.264833,W,5,30,0.68,272.242,M,-33.936,M,1.0,0703*63"
1777319642.2827234,15:54:02.282,1.283,-1.6834,42.44633775,-76.47108053,5,"$GNGGA,195402.000,4226.780265,N,07628.264832,W,5,30,0.64,272.254,M,-33.936,M,1.0,0703*6E"
1777319643.2753468,15:54:03.275,1.2912,-1.6519,42.44633803,-76.47108043,5,"$GNGGA,195403.000,4226.780282,N,07628.264826,W,5,30,0.56,272.242,M,-33.936,M,1.0,0703*65"
1777319644.2694085,15:54:04.269,1.2488,-1.6593,42.44633797,-76.47108095,5,"$GNGGA,195404.000,4226.780278,N,07628.264857,W,5,30,0.65,272.374,M,-33.936,M,1.0,0703*65"
1777319645.2507553,15:54:05.250,1.2625,-1.6686,42.44633788,-76.47108078,5,"$GNGGA,195405.000,4226.780273,N,07628.264847,W,5,30,0.64,272.340,M,-33.936,M,1.0,0703*68"
1777319646.2766757,15:54:06.276,1.2638,-1.6723,42.44633785,-76.47108077,5,"$GNGGA,195406.000,4226.780271,N,07628.264846,W,5,30,0.63,272.320,M,-33.936,M,1.0,0703*69"
1777319647.2625794,15:54:07.262,1.2652,-1.6723,42.44633785,-76.47108075,5,"$GNGGA,195407.000,4226.780271,N,07628.264845,W,5,30,0.63,272.314,M,-33.937,M,2.0,0703*6E"
1777319648.2843623,15:54:08.284,1.2734,-1.6742,42.44633783,-76.47108065,5,"$GNGGA,195408.000,4226.780270,N,07628.264839,W,5,30,0.64,272.316,M,-33.937,M,1.0,0703*6D"
1777319649.2958848,15:54:09.295,1.2816,-1.6631,42.44633793,-76.47108055,5,"$GNGGA,195409.000,4226.780276,N,07628.264833,W,5,30,0.65,272.308,M,-33.937,M,1.0,0703*6E"
