unix_time,human_time,x_meters,y_meters,raw_lat,raw_lon,status_quality,raw_nmea
1776536872.5462897,14:27:52.546,0.0908,-0.3533,42.44638463,-76.47162048,5,"$GNGGA,182752.000,4226.783078,N,07628.297229,W,5,40,0.66,277.376,M,-33.936,M,1.0,1299*69"
1776536873.5484507,14:27:53.548,0.0414,-0.3311,42.44638483,-76.47162108,5,"$GNGGA,182753.000,4226.783090,N,07628.297265,W,5,40,0.67,277.465,M,-33.937,M,1.0,1299*63"
1776536874.3967338,14:27:54.396,0.0332,-0.4848,42.44638345,-76.47162118,5,"$GNGGA,182754.000,4226.783007,N,07628.297271,W,5,40,0.53,277.368,M,-33.936,M,1.0,1299*63"
1776536875.5153265,14:27:55.515,0.0223,-0.67,42.44638178,-76.47162132,5,"$GNGGA,182755.000,4226.782907,N,07628.297279,W,5,41,0.62,277.619,M,-33.936,M,1.0,1299*62"
1776536876.5936272,14:27:56.593,0.0524,-0.5626,42.44638275,-76.47162095,5,"$GNGGA,182756.000,4226.782965,N,07628.297257,W,5,41,0.64,277.874,M,-33.936,M,1.0,1299*6A"
1776536877.3530624,14:27:57.353,0.0003,-0.5922,42.44638248,-76.47162158,5,"$GNGGA,182757.000,4226.782949,N,07628.297295,W,5,41,0.67,277.701,M,-33.937,M,1.0,1299*64"
1776536878.549988,14:27:58.549,-0.127,-0.5996,42.44638242,-76.47162313,5,"$GNGGA,182758.000,4226.782945,N,07628.297388,W,5,41,0.70,277.161,M,-33.937,M,1.0,1299*6C"
1776536879.4275706,14:27:59.427,-0.1997,-0.6941,42.44638157,-76.47162402,5,"$GNGGA,182759.000,4226.782894,N,07628.297441,W,5,41,0.68,276.913,M,-33.936,M,1.0,1299*66"
1776536882.560553,14:28:02.560,-0.138,-1.0238,42.4463786,-76.47162327,5,"$GNGGA,182802.000,4226.782716,N,07628.297396,W,5,40,0.71,277.335,M,-33.936,M,1.0,1299*69"
1776536883.5308378,14:28:03.530,-0.1805,-1.1979,42.44637703,-76.47162378,5,"$GNGGA,182803.000,4226.782622,N,07628.297427,W,5,41,0.71,277.046,M,-33.936,M,1.0,1299*65"
1776536884.4944663,14:28:04.494,-0.2065,-0.9701,42.44637908,-76.4716241,5,"$GNGGA,182804.000,4226.782745,N,07628.297446,W,5,41,0.66,276.936,M,-33.936,M,1.0,1299*6C"
1776536885.4444568,14:28:05.444,-0.1942,-0.5459,42.4463829,-76.47162395,5,"$GNGGA,182805.000,4226.782974,N,07628.297437,W,5,41,0.70,276.706,M,-33.937,M,1.0,1299*6C"
1776536886.5846608,14:28:06.584,-0.1969,-0.2403,42.44638565,-76.47162398,5,"$GNGGA,182806.000,4226.783139,N,07628.297439,W,5,41,0.66,276.333,M,-33.936,M,1.0,1299*65"
1776536887.5285454,14:28:07.528,-0.3065,-0.0125,42.4463877,-76.47162532,5,"$GNGGA,182807.000,4226.783262,N,07628.297519,W,5,41,0.67,275.980,M,-33.937,M,1.0,1299*6B"
1776536888.572993,14:28:08.572,-0.501,-0.0736,42.44638715,-76.47162768,5,"$GNGGA,182808.000,4226.783229,N,07628.297661,W,5,41,0.61,275.098,M,-33.937,M,1.0,1299*61"
1776536889.4623575,14:28:09.462,-0.675,0.0264,42.44638805,-76.4716298,5,"$GNGGA,182809.000,4226.783283,N,07628.297788,W,5,41,0.63,274.972,M,-33.936,M,1.0,1299*69"
1776536892.5979345,14:28:12.597,-1.1243,-0.0477,42.44638738,-76.47163527,5,"$GNGGA,182812.000,4226.783243,N,07628.298116,W,5,41,0.63,274.547,M,-33.937,M,1.0,1299*6A"
1776536893.576978,14:28:13.576,-1.2298,-0.1699,42.44638628,-76.47163655,5,"$GNGGA,182813.000,4226.783177,N,07628.298193,W,5,41,0.64,274.460,M,-33.937,M,1.0,1299*61"
1776536894.4017923,14:28:14.401,-1.3585,-0.057,42.4463873,-76.47163812,5,"$GNGGA,182814.000,4226.783238,N,07628.298287,W,5,41,0.56,273.876,M,-33.936,M,1.0,1299*64"
1776536895.5425549,14:28:15.542,-1.4572,0.0357,42.44638813,-76.47163932,5,"$GNGGA,182815.000,4226.783288,N,07628.298359,W,5,41,0.48,273.571,M,-33.936,M,1.0,1299*69"
1776536896.5387785,14:28:16.538,-1.5133,-0.0255,42.44638758,-76.47164,5,"$GNGGA,182816.000,4226.783255,N,07628.298400,W,5,41,0.48,273.453,M,-33.936,M,1.0,1299*60"
1776536897.4679215,14:28:17.467,-1.5106,0.0301,42.44638808,-76.47163997,5,"$GNGGA,182817.000,4226.783285,N,07628.298398,W,5,41,0.48,273.560,M,-33.936,M,2.0,1299*68"
1776536898.603099,14:28:18.603,-1.5599,0.0468,42.44638823,-76.47164057,5,"$GNGGA,182818.000,4226.783294,N,07628.298434,W,5,41,0.58,273.640,M,-33.936,M,3.0,1299*67"
1776536899.5400522,14:28:19.540,-1.0407,1.9379,42.44640525,-76.47163425,4,"$GNGGA,182819.000,4226.784315,N,07628.298055,W,4,41,0.55,272.693,M,-33.937,M,1.0,1299*6A"
1776536902.3685505,14:28:22.368,-1.0818,1.9508,42.44640537,-76.47163475,4,"$GNGGA,182822.000,4226.784322,N,07628.298085,W,4,41,0.57,272.699,M,-33.936,M,1.0,1299*62"
1776536903.335854,14:28:23.335,-1.0914,1.9471,42.44640533,-76.47163487,4,"$GNGGA,182823.000,4226.784320,N,07628.298092,W,4,41,0.58,272.708,M,-33.936,M,1.0,1299*61"
1776536904.3866663,14:28:24.386,-1.0928,1.949,42.44640535,-76.47163488,4,"$GNGGA,182824.000,4226.784321,N,07628.298093,W,4,41,0.59,272.698,M,-33.936,M,1.0,1299*6F"
1776536905.3526518,14:28:25.352,-1.0969,1.9471,42.44640533,-76.47163493,4,"$GNGGA,182825.000,4226.784320,N,07628.298096,W,4,41,0.63,272.699,M,-33.937,M,1.0,1299*63"
1776536906.3760173,14:28:26.376,-1.1037,1.9545,42.4464054,-76.47163502,4,"$GNGGA,182826.000,4226.784324,N,07628.298101,W,4,41,0.66,272.674,M,-33.937,M,1.0,1299*6D"
1776536907.3356733,14:28:27.335,-1.1106,1.9471,42.44640533,-76.4716351,4,"$GNGGA,182827.000,4226.784320,N,07628.298106,W,4,41,0.58,272.697,M,-33.937,M,1.0,1299*6F"
1776536908.3753502,14:28:28.375,-1.1325,1.9508,42.44640537,-76.47163537,4,"$GNGGA,182828.000,4226.784322,N,07628.298122,W,4,41,0.58,272.687,M,-33.936,M,1.0,1299*64"
1776536909.3360014,14:28:29.336,-1.1243,1.9545,42.4464054,-76.47163527,4,"$GNGGA,182829.000,4226.784324,N,07628.298116,W,4,41,0.59,272.674,M,-33.936,M,1.0,1299*69"
1776536912.3805573,14:28:32.380,-1.1243,1.9434,42.4464053,-76.47163527,4,"$GNGGA,182832.000,4226.784318,N,07628.298116,W,4,41,0.53,272.681,M,-33.936,M,1.0,1299*6C"
1776536913.3527384,14:28:33.352,-1.1202,1.9397,42.44640527,-76.47163522,4,"$GNGGA,182833.000,4226.784316,N,07628.298113,W,4,41,0.61,272.668,M,-33.937,M,1.0,1299*61"
1776536914.3876085,14:28:34.387,-1.1229,1.9305,42.44640518,-76.47163525,4,"$GNGGA,182834.000,4226.784311,N,07628.298115,W,4,41,0.54,272.685,M,-33.937,M,1.0,1299*62"
1776536915.347238,14:28:35.347,-1.1174,1.9249,42.44640513,-76.47163518,4,"$GNGGA,182835.000,4226.784308,N,07628.298111,W,4,41,0.55,272.688,M,-33.936,M,1.0,1299*62"
1776536916.3892126,14:28:36.389,-1.1188,1.9212,42.4464051,-76.4716352,4,"$GNGGA,182836.000,4226.784306,N,07628.298112,W,4,41,0.49,272.687,M,-33.936,M,2.0,1299*6D"
1776536917.408592,14:28:37.408,-1.1174,1.9119,42.44640502,-76.47163518,4,"$GNGGA,182837.000,4226.784301,N,07628.298111,W,4,41,0.66,272.697,M,-33.937,M,3.0,1299*64"
1776536918.3665304,14:28:38.366,-1.1202,1.9212,42.4464051,-76.47163522,4,"$GNGGA,182838.000,4226.784306,N,07628.298113,W,4,41,0.67,272.675,M,-33.936,M,1.0,1299*60"
1776536919.3433127,14:28:39.343,-1.1147,1.9268,42.44640515,-76.47163515,4,"$GNGGA,182839.000,4226.784309,N,07628.298109,W,4,41,0.60,272.676,M,-33.937,M,1.0,1299*60"
1776536922.3698614,14:28:42.369,-1.1202,1.9342,42.44640522,-76.47163522,4,"$GNGGA,182842.000,4226.784313,N,07628.298113,W,4,41,0.50,272.675,M,-33.936,M,1.0,1299*6D"
1776536923.3463397,14:28:43.346,-1.1489,1.9342,42.44640522,-76.47163557,4,"$GNGGA,182843.000,4226.784313,N,07628.298134,W,4,41,0.50,272.675,M,-33.936,M,1.0,1299*69"
1776536924.3753636,14:28:44.375,-1.1407,1.936,42.44640523,-76.47163547,4,"$GNGGA,182844.000,4226.784314,N,07628.298128,W,4,41,0.47,272.676,M,-33.936,M,1.0,1299*61"
1776536925.3647358,14:28:45.364,-1.201,1.9305,42.44640518,-76.4716362,4,"$GNGGA,182845.000,4226.784311,N,07628.298172,W,4,41,0.49,272.699,M,-33.936,M,1.0,1299*65"
1776536926.3886778,14:28:46.388,-1.1832,1.9397,42.44640527,-76.47163598,4,"$GNGGA,182846.000,4226.784316,N,07628.298159,W,4,41,0.51,272.679,M,-33.937,M,1.0,1299*6E"
1776536927.3478634,14:28:47.347,-1.1832,1.9397,42.44640527,-76.47163598,4,"$GNGGA,182847.000,4226.784316,N,07628.298159,W,4,41,0.59,272.693,M,-33.937,M,1.0,1299*63"
1776536928.3900456,14:28:48.390,-1.1928,1.9397,42.44640527,-76.4716361,4,"$GNGGA,182848.000,4226.784316,N,07628.298166,W,4,41,0.54,272.687,M,-33.937,M,2.0,1299*6B"
1776536929.403763,14:28:49.403,-1.1928,1.9416,42.44640528,-76.4716361,4,"$GNGGA,182849.000,4226.784317,N,07628.298166,W,4,41,0.54,272.684,M,-33.937,M,3.0,1299*69"
1776536932.3725288,14:28:52.372,-1.2147,1.9379,42.44640525,-76.47163637,4,"$GNGGA,182852.000,4226.784315,N,07628.298182,W,4,41,0.52,272.684,M,-33.936,M,1.0,1299*6E"
1776536933.3514512,14:28:53.351,-1.2106,1.9434,42.4464053,-76.47163632,4,"$GNGGA,182853.000,4226.784318,N,07628.298179,W,4,41,0.48,272.684,M,-33.936,M,1.0,1299*6D"
1776536934.3720107,14:28:54.372,-1.212,1.9397,42.44640527,-76.47163633,4,"$GNGGA,182854.000,4226.784316,N,07628.298180,W,4,41,0.48,272.683,M,-33.936,M,1.0,1299*65"
1776536935.3294234,14:28:55.329,-1.2106,1.9416,42.44640528,-76.47163632,4,"$GNGGA,182855.000,4226.784317,N,07628.298179,W,4,41,0.51,272.669,M,-33.936,M,1.0,1299*6F"
1776536936.3702273,14:28:56.370,-1.238,1.9416,42.44640528,-76.47163665,4,"$GNGGA,182856.000,4226.784317,N,07628.298199,W,4,41,0.55,272.672,M,-33.936,M,1.0,1299*6C"
1776536937.3426576,14:28:57.342,-1.2325,1.9434,42.4464053,-76.47163658,4,"$GNGGA,182857.000,4226.784318,N,07628.298195,W,4,41,0.55,272.671,M,-33.937,M,1.0,1299*6C"
1776536938.37765,14:28:58.377,-1.2517,1.9416,42.44640528,-76.47163682,4,"$GNGGA,182858.000,4226.784317,N,07628.298209,W,4,41,0.59,272.683,M,-33.937,M,1.0,1299*6B"
1776536939.3336985,14:28:59.333,-1.2476,1.9138,42.44640503,-76.47163677,4,"$GNGGA,182859.000,4226.784302,N,07628.298206,W,4,41,0.62,272.664,M,-33.936,M,1.0,1299*61"
1776536942.3697627,14:29:02.369,-1.2777,1.9156,42.44640505,-76.47163713,4,"$GNGGA,182902.000,4226.784303,N,07628.298228,W,4,41,0.60,272.683,M,-33.937,M,1.0,1299*69"
1776536943.3460815,14:29:03.346,-1.2736,1.8971,42.44640488,-76.47163708,4,"$GNGGA,182903.000,4226.784293,N,07628.298225,W,4,41,0.70,272.681,M,-33.936,M,1.0,1299*6F"
1776536944.3666084,14:29:04.366,-1.2626,1.8897,42.44640482,-76.47163695,4,"$GNGGA,182904.000,4226.784289,N,07628.298217,W,4,41,0.68,272.674,M,-33.937,M,2.0,1299*63"
1776536945.3801756,14:29:05.380,-1.264,1.886,42.44640478,-76.47163697,4,"$GNGGA,182905.000,4226.784287,N,07628.298218,W,4,42,0.67,272.686,M,-33.936,M,3.0,1299*62"
1776536946.375381,14:29:06.375,-1.2599,1.8879,42.4464048,-76.47163692,4,"$GNGGA,182906.000,4226.784288,N,07628.298215,W,4,42,0.68,272.674,M,-33.937,M,1.0,1299*62"
1776536947.3420424,14:29:07.342,-1.2681,1.8879,42.4464048,-76.47163702,4,"$GNGGA,182907.000,4226.784288,N,07628.298221,W,4,42,0.67,272.669,M,-33.937,M,1.0,1299*67"
1776536948.3854895,14:29:08.385,-1.2654,1.8823,42.44640475,-76.47163698,4,"$GNGGA,182908.000,4226.784285,N,07628.298219,W,4,41,0.70,272.672,M,-33.936,M,1.0,1299*60"
1776536949.351366,14:29:09.351,-1.2709,1.886,42.44640478,-76.47163705,4,"$GNGGA,182909.000,4226.784287,N,07628.298223,W,4,42,0.63,272.683,M,-33.936,M,1.0,1299*65"
1776536952.367387,14:29:12.367,-1.3229,1.8879,42.4464048,-76.47163768,4,"$GNGGA,182912.000,4226.784288,N,07628.298261,W,4,42,0.61,272.669,M,-33.937,M,1.0,1299*61"
1776536953.3323019,14:29:13.332,-1.3257,1.8934,42.44640485,-76.47163772,4,"$GNGGA,182913.000,4226.784291,N,07628.298263,W,4,42,0.59,272.669,M,-33.936,M,1.0,1299*60"
1776536954.3723497,14:29:14.372,-1.3298,1.8934,42.44640485,-76.47163777,4,"$GNGGA,182914.000,4226.784291,N,07628.298266,W,4,42,0.57,272.686,M,-33.937,M,1.0,1299*6C"
1776536955.3644292,14:29:15.364,-1.3284,1.8953,42.44640487,-76.47163775,4,"$GNGGA,182915.000,4226.784292,N,07628.298265,W,4,42,0.59,272.668,M,-33.936,M,1.0,1299*62"
1776536956.409974,14:29:16.409,-1.3476,1.8934,42.44640485,-76.47163798,4,"$GNGGA,182916.000,4226.784291,N,07628.298279,W,4,42,0.53,272.678,M,-33.936,M,1.0,1299*64"
1776536957.3287747,14:29:17.328,-1.3421,1.8897,42.44640482,-76.47163792,4,"$GNGGA,182917.000,4226.784289,N,07628.298275,W,4,42,0.63,272.681,M,-33.937,M,1.0,1299*64"
1776536958.3744855,14:29:18.374,-1.3572,1.8971,42.44640488,-76.4716381,4,"$GNGGA,182918.000,4226.784293,N,07628.298286,W,4,41,0.61,272.677,M,-33.937,M,1.0,1299*64"
1776536959.3388793,14:29:19.338,-1.3654,1.886,42.44640478,-76.4716382,4,"$GNGGA,182919.000,4226.784287,N,07628.298292,W,4,41,0.55,272.693,M,-33.937,M,1.0,1299*68"
1776536962.3712246,14:29:22.371,-1.3722,1.9082,42.44640498,-76.47163828,4,"$GNGGA,182922.000,4226.784299,N,07628.298297,W,4,42,0.63,272.668,M,-33.936,M,1.0,1299*69"
1776536963.3667123,14:29:23.366,-1.3818,1.9027,42.44640493,-76.4716384,4,"$GNGGA,182923.000,4226.784296,N,07628.298304,W,4,42,0.52,272.684,M,-33.937,M,1.0,1299*6D"
1776536964.3763773,14:29:24.376,-1.3873,1.899,42.4464049,-76.47163847,4,"$GNGGA,182924.000,4226.784294,N,07628.298308,W,4,42,0.62,272.664,M,-33.936,M,1.0,1299*68"
1776536965.350251,14:29:25.350,-1.3928,1.9027,42.44640493,-76.47163853,4,"$GNGGA,182925.000,4226.784296,N,07628.298312,W,4,42,0.56,272.678,M,-33.936,M,1.0,1299*6A"
1776536966.3724394,14:29:26.372,-1.3969,1.9008,42.44640492,-76.47163858,4,"$GNGGA,182926.000,4226.784295,N,07628.298315,W,4,42,0.48,272.677,M,-33.937,M,1.0,1299*6C"
1776536967.3606932,14:29:27.360,-1.3941,1.9101,42.446405,-76.47163855,4,"$GNGGA,182927.000,4226.784300,N,07628.298313,W,4,42,0.48,272.680,M,-33.936,M,1.0,1299*6F"
1776536968.3734472,14:29:28.373,-1.401,1.9231,42.44640512,-76.47163863,4,"$GNGGA,182928.000,4226.784307,N,07628.298318,W,4,42,0.54,272.667,M,-33.936,M,1.0,1299*68"
1776536969.3386254,14:29:29.338,-1.3983,1.9175,42.44640507,-76.4716386,4,"$GNGGA,182929.000,4226.784304,N,07628.298316,W,4,42,0.57,272.695,M,-33.937,M,1.0,1299*6B"
1776536972.3701057,14:29:32.370,-1.3955,1.899,42.4464049,-76.47163857,4,"$GNGGA,182932.000,4226.784294,N,07628.298314,W,4,42,0.53,272.693,M,-33.936,M,1.0,1299*68"
1776536973.3514166,14:29:33.351,-1.3996,1.9027,42.44640493,-76.47163862,4,"$GNGGA,182933.000,4226.784296,N,07628.298317,W,4,42,0.54,272.675,M,-33.936,M,1.0,1299*67"
1776536974.3764484,14:29:34.376,-1.3846,1.8934,42.44640485,-76.47163843,4,"$GNGGA,182934.000,4226.784291,N,07628.298306,W,4,42,0.52,272.670,M,-33.936,M,1.0,1299*64"
1776536975.3409717,14:29:35.340,-1.3832,1.8897,42.44640482,-76.47163842,4,"$GNGGA,182935.000,4226.784289,N,07628.298305,W,4,42,0.52,272.713,M,-33.936,M,1.0,1299*6B"
1776536976.3778934,14:29:36.377,-1.3777,1.8916,42.44640483,-76.47163835,4,"$GNGGA,182936.000,4226.784290,N,07628.298301,W,4,42,0.52,272.691,M,-33.937,M,1.0,1299*6E"
1776536977.3412292,14:29:37.341,-1.3818,1.8823,42.44640475,-76.4716384,4,"$GNGGA,182937.000,4226.784285,N,07628.298304,W,4,42,0.53,272.688,M,-33.937,M,1.0,1299*67"
1776536978.3705804,14:29:38.370,-1.3818,1.886,42.44640478,-76.4716384,4,"$GNGGA,182938.000,4226.784287,N,07628.298304,W,4,42,0.60,272.704,M,-33.937,M,1.0,1299*6F"
1776536979.3557696,14:29:39.355,-1.3818,1.8897,42.44640482,-76.4716384,4,"$GNGGA,182939.000,4226.784289,N,07628.298304,W,4,42,0.61,272.697,M,-33.937,M,1.0,1299*6A"
1776536982.3719344,14:29:42.371,-1.3599,1.8916,42.44640483,-76.47163813,4,"$GNGGA,182942.000,4226.784290,N,07628.298288,W,4,42,0.62,272.712,M,-33.937,M,1.0,1299*64"
1776536983.344237,14:29:43.344,-1.5298,1.8879,42.4464048,-76.4716402,4,"$GNGGA,182943.000,4226.784288,N,07628.298412,W,4,42,0.64,272.793,M,-33.936,M,1.0,1299*67"
1776536984.390885,14:29:44.390,-1.6572,1.8971,42.44640488,-76.47164175,4,"$GNGGA,182944.000,4226.784293,N,07628.298505,W,4,42,0.60,272.672,M,-33.936,M,1.0,1299*67"
1776536985.3339047,14:29:45.333,-1.6585,1.9045,42.44640495,-76.47164177,4,"$GNGGA,182945.000,4226.784297,N,07628.298506,W,4,42,0.57,272.658,M,-33.936,M,1.0,1299*6D"
1776536986.379491,14:29:46.379,-1.6599,1.8934,42.44640485,-76.47164178,4,"$GNGGA,182946.000,4226.784291,N,07628.298507,W,4,42,0.63,272.671,M,-33.937,M,1.0,1299*64"
1776536987.3143911,14:29:47.314,-1.5544,1.8749,42.44640468,-76.4716405,4,"$GNGGA,182947.000,4226.784281,N,07628.298430,W,4,42,0.61,272.795,M,-33.937,M,1.0,1299*68"
1776536988.3445623,14:29:48.344,-1.3695,1.8953,42.44640487,-76.47163825,4,"$GNGGA,182948.000,4226.784292,N,07628.298295,W,4,42,0.65,272.705,M,-33.936,M,2.0,1299*63"
1776536989.2916412,14:29:49.291,-1.3147,1.9101,42.446405,-76.47163758,4,"$GNGGA,182949.000,4226.784300,N,07628.298255,W,4,42,0.65,272.667,M,-33.936,M,3.0,1299*60"
1776536992.394905,14:29:52.394,-1.412,1.8619,42.44640457,-76.47163877,4,"$GNGGA,182952.000,4226.784274,N,07628.298326,W,4,42,0.64,272.675,M,-33.937,M,1.0,1299*6C"
1776536993.345682,14:29:53.345,-1.4257,1.9675,42.44640552,-76.47163893,4,"$GNGGA,182953.000,4226.784331,N,07628.298336,W,4,41,0.56,272.687,M,-33.936,M,1.0,1299*62"
1776536994.3702958,14:29:54.370,-1.401,1.8879,42.4464048,-76.47163863,4,"$GNGGA,182954.000,4226.784288,N,07628.298318,W,4,42,0.72,272.682,M,-33.937,M,1.0,1299*6B"
1776536995.3390195,14:29:55.339,-1.3983,1.8786,42.44640472,-76.4716386,4,"$GNGGA,182955.000,4226.784283,N,07628.298316,W,4,42,0.72,272.673,M,-33.936,M,1.0,1299*60"
1776536996.3796413,14:29:56.379,-1.4133,1.9693,42.44640553,-76.47163878,4,"$GNGGA,182956.000,4226.784332,N,07628.298327,W,4,42,0.61,272.726,M,-33.936,M,1.0,1299*69"
1776536997.3311462,14:29:57.331,-1.39,1.8786,42.44640472,-76.4716385,4,"$GNGGA,182957.000,4226.784283,N,07628.298310,W,4,41,0.65,272.714,M,-33.937,M,1.0,1299*60"
1776536998.3675468,14:29:58.367,-1.3873,1.9101,42.446405,-76.47163847,4,"$GNGGA,182958.000,4226.784300,N,07628.298308,W,4,42,0.64,272.672,M,-33.936,M,1.0,1299*6E"
1776536999.3462472,14:29:59.346,-1.3887,1.8934,42.44640485,-76.47163848,4,"$GNGGA,182959.000,4226.784291,N,07628.298309,W,4,42,0.62,272.672,M,-33.936,M,1.0,1299*61"
1776537002.378537,14:30:02.378,-1.3914,1.9008,42.44640492,-76.47163852,4,"$GNGGA,183002.000,4226.784295,N,07628.298311,W,4,42,0.56,272.669,M,-33.937,M,3.0,1299*64"
1776537003.3907957,14:30:03.390,-1.3941,1.8971,42.44640488,-76.47163855,4,"$GNGGA,183003.000,4226.784293,N,07628.298313,W,4,42,0.60,272.674,M,-33.936,M,4.0,1299*6E"
1776537004.376542,14:30:04.376,-1.3914,1.9027,42.44640493,-76.47163852,4,"$GNGGA,183004.000,4226.784296,N,07628.298311,W,4,41,0.65,272.666,M,-33.937,M,1.0,1299*6F"
1776537005.3362508,14:30:05.336,-1.3914,1.9027,42.44640493,-76.47163852,4,"$GNGGA,183005.000,4226.784296,N,07628.298311,W,4,41,0.57,272.656,M,-33.936,M,1.0,1299*6D"
1776537006.3922174,14:30:06.392,-1.3859,1.9045,42.44640495,-76.47163845,4,"$GNGGA,183006.000,4226.784297,N,07628.298307,W,4,41,0.57,272.676,M,-33.936,M,1.0,1299*6A"
1776537007.3428729,14:30:07.342,-1.3941,1.9045,42.44640495,-76.47163855,4,"$GNGGA,183007.000,4226.784297,N,07628.298313,W,4,42,0.55,272.677,M,-33.936,M,1.0,1299*6E"
1776537008.3769028,14:30:08.376,-1.3859,1.8971,42.44640488,-76.47163845,4,"$GNGGA,183008.000,4226.784293,N,07628.298307,W,4,42,0.58,272.684,M,-33.936,M,1.0,1299*61"
1776537009.3461306,14:30:09.346,-1.3887,1.9175,42.44640507,-76.47163848,4,"$GNGGA,183009.000,4226.784304,N,07628.298309,W,4,42,0.56,272.672,M,-33.936,M,1.0,1299*66"
1776537012.4270966,14:30:12.427,-1.4078,1.8953,42.44640487,-76.47163872,4,"$GNGGA,183012.000,4226.784292,N,07628.298323,W,4,42,0.55,272.676,M,-33.937,M,1.0,1299*6C"
1776537013.3476489,14:30:13.347,-1.4215,1.9082,42.44640498,-76.47163888,4,"$GNGGA,183013.000,4226.784299,N,07628.298333,W,4,41,0.65,272.671,M,-33.936,M,1.0,1299*61"
1776537014.3843935,14:30:14.384,-1.4298,1.9082,42.44640498,-76.47163898,4,"$GNGGA,183014.000,4226.784299,N,07628.298339,W,4,42,0.66,272.675,M,-33.937,M,1.0,1299*69"
1776537015.365421,14:30:15.365,-1.4517,1.9138,42.44640503,-76.47163925,4,"$GNGGA,183015.000,4226.784302,N,07628.298355,W,4,42,0.57,272.694,M,-33.937,M,1.0,1299*6C"
1776537016.4143002,14:30:16.414,-1.4394,1.9156,42.44640505,-76.4716391,4,"$GNGGA,183016.000,4226.784303,N,07628.298346,W,4,42,0.60,272.677,M,-33.937,M,1.0,1299*65"
1776537017.3680432,14:30:17.368,-1.4394,1.9064,42.44640497,-76.4716391,4,"$GNGGA,183017.000,4226.784298,N,07628.298346,W,4,42,0.61,272.682,M,-33.936,M,1.0,1299*6D"
1776537018.3907018,14:30:18.390,-1.464,1.9601,42.44640545,-76.4716394,4,"$GNGGA,183018.000,4226.784327,N,07628.298364,W,4,42,0.61,272.657,M,-33.936,M,1.0,1299*6F"
1776537019.3583462,14:30:19.358,-1.4613,1.9768,42.4464056,-76.47163937,4,"$GNGGA,183019.000,4226.784336,N,07628.298362,W,4,42,0.62,272.679,M,-33.936,M,1.0,1299*67"
1776537022.369717,14:30:22.369,-1.4654,1.9656,42.4464055,-76.47163942,4,"$GNGGA,183022.000,4226.784330,N,07628.298365,W,4,42,0.64,272.685,M,-33.936,M,1.0,1299*6B"
1776537023.3488326,14:30:23.348,-1.4626,1.9545,42.4464054,-76.47163938,4,"$GNGGA,183023.000,4226.784324,N,07628.298363,W,4,42,0.62,272.675,M,-33.936,M,1.0,1299*60"
1776537024.3952577,14:30:24.395,-1.464,1.9471,42.44640533,-76.4716394,4,"$GNGGA,183024.000,4226.784320,N,07628.298364,W,4,42,0.61,272.682,M,-33.937,M,1.0,1299*6E"
1776537025.3571255,14:30:25.357,-1.4654,1.9545,42.4464054,-76.47163942,4,"$GNGGA,183025.000,4226.784324,N,07628.298365,W,4,42,0.61,272.680,M,-33.937,M,1.0,1299*68"
1776537026.377458,14:30:26.377,-1.4804,1.9434,42.4464053,-76.4716396,4,"$GNGGA,183026.000,4226.784318,N,07628.298376,W,4,42,0.58,272.687,M,-33.937,M,1.0,1299*6B"
1776537027.37084,14:30:27.370,-1.4667,1.9379,42.44640525,-76.47163943,4,"$GNGGA,183027.000,4226.784315,N,07628.298366,W,4,42,0.58,272.686,M,-33.936,M,1.0,1299*66"
1776537028.3786187,14:30:28.378,-1.4873,1.9545,42.4464054,-76.47163968,4,"$GNGGA,183028.000,4226.784324,N,07628.298381,W,4,42,0.55,272.672,M,-33.937,M,1.0,1299*65"
1776537029.3552742,14:30:29.355,-1.4763,1.9545,42.4464054,-76.47163955,4,"$GNGGA,183029.000,4226.784324,N,07628.298373,W,4,42,0.54,272.677,M,-33.936,M,1.0,1299*6C"
1776537032.383765,14:30:32.383,-1.4996,1.9638,42.44640548,-76.47163983,4,"$GNGGA,183032.000,4226.784329,N,07628.298390,W,4,42,0.59,272.681,M,-33.937,M,1.0,1299*63"
1776537033.3603547,14:30:33.360,-1.5078,1.9545,42.4464054,-76.47163993,4,"$GNGGA,183033.000,4226.784324,N,07628.298396,W,4,42,0.62,272.694,M,-33.937,M,1.0,1299*65"
1776537034.3755386,14:30:34.375,-1.5078,1.9564,42.44640542,-76.47163993,4,"$GNGGA,183034.000,4226.784325,N,07628.298396,W,4,42,0.55,272.684,M,-33.936,M,1.0,1299*67"
1776537035.3454814,14:30:35.345,-1.4955,1.9656,42.4464055,-76.47163978,4,"$GNGGA,183035.000,4226.784330,N,07628.298387,W,4,42,0.55,272.673,M,-33.936,M,1.0,1299*6A"
1776537036.3981724,14:30:36.398,-1.5243,1.9582,42.44640543,-76.47164013,4,"$GNGGA,183036.000,4226.784326,N,07628.298408,W,4,42,0.55,272.691,M,-33.937,M,1.0,1299*63"
1776537037.3467836,14:30:37.346,-1.5188,1.9582,42.44640543,-76.47164007,4,"$GNGGA,183037.000,4226.784326,N,07628.298404,W,4,41,0.55,272.685,M,-33.936,M,1.0,1299*69"
1776537038.3879888,14:30:38.387,-1.5572,1.949,42.44640535,-76.47164053,4,"$GNGGA,183038.000,4226.784321,N,07628.298432,W,4,42,0.50,272.680,M,-33.936,M,1.0,1299*67"
1776537039.3915918,14:30:39.391,-1.5476,1.9508,42.44640537,-76.47164042,4,"$GNGGA,183039.000,4226.784322,N,07628.298425,W,4,42,0.53,272.682,M,-33.937,M,1.0,1299*63"
1776537042.3894434,14:30:42.389,-1.5626,1.9397,42.44640527,-76.4716406,4,"$GNGGA,183042.000,4226.784316,N,07628.298436,W,4,42,0.60,272.697,M,-33.936,M,1.0,1299*6F"
1776537043.3582397,14:30:43.358,-1.5887,1.9249,42.44640513,-76.47164092,4,"$GNGGA,183043.000,4226.784308,N,07628.298455,W,4,42,0.53,272.703,M,-33.936,M,1.0,1299*68"
1776537044.40429,14:30:44.404,-1.5818,1.9286,42.44640517,-76.47164083,4,"$GNGGA,183044.000,4226.784310,N,07628.298450,W,4,42,0.55,272.695,M,-33.936,M,1.0,1299*6B"
1776537045.3581278,14:30:45.358,-1.5846,1.9286,42.44640517,-76.47164087,4,"$GNGGA,183045.000,4226.784310,N,07628.298452,W,4,42,0.54,272.708,M,-33.936,M,1.0,1299*6C"
1776537046.4060426,14:30:46.406,-1.5859,1.9379,42.44640525,-76.47164088,4,"$GNGGA,183046.000,4226.784315,N,07628.298453,W,4,42,0.53,272.698,M,-33.936,M,1.0,1299*64"
1776537047.3448308,14:30:47.344,-1.5914,1.936,42.44640523,-76.47164095,4,"$GNGGA,183047.000,4226.784314,N,07628.298457,W,4,42,0.54,272.690,M,-33.936,M,1.0,1299*6F"
1776537048.3786645,14:30:48.378,-1.5955,1.936,42.44640523,-76.471641,4,"$GNGGA,183048.000,4226.784314,N,07628.298460,W,4,42,0.52,272.690,M,-33.937,M,1.0,1299*63"
1776537049.3617089,14:30:49.361,-1.5928,1.9379,42.44640525,-76.47164097,4,"$GNGGA,183049.000,4226.784315,N,07628.298458,W,4,42,0.52,272.690,M,-33.937,M,1.0,1299*68"
1776537052.3823078,14:30:52.382,-1.612,1.9379,42.44640525,-76.4716412,4,"$GNGGA,183052.000,4226.784315,N,07628.298472,W,4,42,0.54,272.685,M,-33.937,M,1.0,1299*68"
1776537053.3711388,14:30:53.371,-1.6188,1.9379,42.44640525,-76.47164128,4,"$GNGGA,183053.000,4226.784315,N,07628.298477,W,4,42,0.53,272.708,M,-33.936,M,1.0,1299*6E"
1776537054.3815138,14:30:54.381,-1.6215,1.9416,42.44640528,-76.47164132,4,"$GNGGA,183054.000,4226.784317,N,07628.298479,W,4,42,0.50,272.696,M,-33.937,M,1.0,1299*61"
1776537055.350867,14:30:55.350,-1.6229,1.9379,42.44640525,-76.47164133,4,"$GNGGA,183055.000,4226.784315,N,07628.298480,W,4,42,0.52,272.687,M,-33.936,M,1.0,1299*67"
1776537056.388062,14:30:56.388,-1.6298,1.9379,42.44640525,-76.47164142,4,"$GNGGA,183056.000,4226.784315,N,07628.298485,W,4,42,0.43,272.683,M,-33.937,M,1.0,1299*64"
1776537057.35291,14:30:57.352,-1.6284,1.9323,42.4464052,-76.4716414,4,"$GNGGA,183057.000,4226.784312,N,07628.298484,W,4,42,0.54,272.689,M,-33.937,M,1.0,1299*6F"
1776537058.3818772,14:30:58.381,-1.6393,1.9434,42.4464053,-76.47164153,4,"$GNGGA,183058.000,4226.784318,N,07628.298492,W,4,42,0.54,272.682,M,-33.936,M,1.0,1299*67"
1776537059.375249,14:30:59.375,-1.6393,1.9434,42.4464053,-76.47164153,4,"$GNGGA,183059.000,4226.784318,N,07628.298492,W,4,42,0.58,272.687,M,-33.936,M,1.0,1299*6F"
1776537062.3878899,14:31:02.387,-1.6599,1.9508,42.44640537,-76.47164178,4,"$GNGGA,183102.000,4226.784322,N,07628.298507,W,4,42,0.68,272.696,M,-33.936,M,3.0,1299*65"
1776537063.3611495,14:31:03.361,-1.653,1.9582,42.44640543,-76.4716417,4,"$GNGGA,183103.000,4226.784326,N,07628.298502,W,4,42,0.68,272.685,M,-33.937,M,1.0,1299*64"
1776537064.3703265,14:31:04.370,-1.6585,1.9508,42.44640537,-76.47164177,4,"$GNGGA,183104.000,4226.784322,N,07628.298506,W,4,42,0.68,272.678,M,-33.937,M,1.0,1299*61"
1776537065.3583791,14:31:05.358,-1.6859,1.9434,42.4464053,-76.4716421,4,"$GNGGA,183105.000,4226.784318,N,07628.298526,W,4,42,0.67,272.673,M,-33.936,M,1.0,1299*6E"
1776537066.397666,14:31:06.397,-1.6832,1.9434,42.4464053,-76.47164207,4,"$GNGGA,183106.000,4226.784318,N,07628.298524,W,4,42,0.65,272.683,M,-33.936,M,1.0,1299*62"
1776537067.3689473,14:31:07.368,-1.6873,1.9564,42.44640542,-76.47164212,4,"$GNGGA,183107.000,4226.784325,N,07628.298527,W,4,42,0.65,272.664,M,-33.937,M,1.0,1299*66"
1776537068.388408,14:31:08.388,-1.6859,1.9564,42.44640542,-76.4716421,4,"$GNGGA,183108.000,4226.784325,N,07628.298526,W,4,42,0.67,272.664,M,-33.936,M,1.0,1299*6B"
1776537069.36094,14:31:09.360,-1.6873,1.9545,42.4464054,-76.47164212,4,"$GNGGA,183109.000,4226.784324,N,07628.298527,W,4,41,0.67,272.663,M,-33.936,M,1.0,1299*6E"
1776537072.3887773,14:31:12.388,-1.6887,1.936,42.44640523,-76.47164213,4,"$GNGGA,183112.000,4226.784314,N,07628.298528,W,4,42,0.63,272.679,M,-33.937,M,1.0,1299*65"
1776537073.3544555,14:31:13.354,-1.6887,1.9471,42.44640533,-76.47164213,4,"$GNGGA,183113.000,4226.784320,N,07628.298528,W,4,42,0.65,272.661,M,-33.936,M,1.0,1299*6D"
1776537074.3940952,14:31:14.394,-1.6818,1.9286,42.44640517,-76.47164205,4,"$GNGGA,183114.000,4226.784310,N,07628.298523,W,4,42,0.65,272.676,M,-33.936,M,1.0,1299*64"
1776537075.3574736,14:31:15.357,-1.6859,1.9434,42.4464053,-76.4716421,4,"$GNGGA,183115.000,4226.784318,N,07628.298526,W,4,42,0.66,272.680,M,-33.937,M,1.0,1299*63"
1776537076.3902645,14:31:16.390,-1.6873,1.9453,42.44640532,-76.47164212,4,"$GNGGA,183116.000,4226.784319,N,07628.298527,W,4,42,0.64,272.667,M,-33.936,M,1.0,1299*6A"
1776537077.3453753,14:31:17.345,-1.675,1.9545,42.4464054,-76.47164197,4,"$GNGGA,183117.000,4226.784324,N,07628.298518,W,4,42,0.66,272.672,M,-33.936,M,2.0,1299*6C"
1776537078.3910737,14:31:18.391,-1.6832,1.9508,42.44640537,-76.47164207,4,"$GNGGA,183118.000,4226.784322,N,07628.298524,W,4,42,0.60,272.675,M,-33.936,M,1.0,1299*68"
1776537079.3497436,14:31:19.349,-1.675,1.9545,42.4464054,-76.47164197,4,"$GNGGA,183119.000,4226.784324,N,07628.298518,W,4,42,0.69,272.666,M,-33.937,M,1.0,1299*6A"
1776537082.370979,14:31:22.370,-1.6681,1.9471,42.44640533,-76.47164188,4,"$GNGGA,183122.000,4226.784320,N,07628.298513,W,4,41,0.63,272.673,M,-33.937,M,1.0,1299*60"
1776537083.3410528,14:31:23.341,-1.6613,1.9453,42.44640532,-76.4716418,4,"$GNGGA,183123.000,4226.784319,N,07628.298508,W,4,41,0.57,272.674,M,-33.936,M,1.0,1299*60"
1776537084.3840528,14:31:24.384,-1.6503,1.9638,42.44640548,-76.47164167,4,"$GNGGA,183124.000,4226.784329,N,07628.298500,W,4,42,0.58,272.676,M,-33.936,M,1.0,1299*62"
1776537085.3596745,14:31:25.359,-1.6489,1.949,42.44640535,-76.47164165,4,"$GNGGA,183125.000,4226.784321,N,07628.298499,W,4,42,0.57,272.685,M,-33.937,M,1.0,1299*68"
1776537086.4084325,14:31:26.408,-1.6517,1.9582,42.44640543,-76.47164168,4,"$GNGGA,183126.000,4226.784326,N,07628.298501,W,4,41,0.46,272.662,M,-33.936,M,1.0,1299*67"
1776537087.362554,14:31:27.362,-1.6489,1.9527,42.44640538,-76.47164165,4,"$GNGGA,183127.000,4226.784323,N,07628.298499,W,4,42,0.46,272.666,M,-33.936,M,1.0,1299*64"
1776537088.3805764,14:31:28.380,-1.6489,1.9527,42.44640538,-76.47164165,4,"$GNGGA,183128.000,4226.784323,N,07628.298499,W,4,42,0.68,272.696,M,-33.936,M,2.0,1299*6B"
1776537089.34094,14:31:29.340,-1.6448,1.9638,42.44640548,-76.4716416,4,"$GNGGA,183129.000,4226.784329,N,07628.298496,W,4,42,0.65,272.665,M,-33.936,M,1.0,1299*6D"
1776537092.3719556,14:31:32.371,-1.764,1.9342,42.44640522,-76.47164305,4,"$GNGGA,183132.000,4226.784313,N,07628.298583,W,4,42,0.62,272.818,M,-33.936,M,1.0,1299*68"
1776537093.3350954,14:31:33.335,-1.9065,1.9471,42.44640533,-76.47164478,4,"$GNGGA,183133.000,4226.784320,N,07628.298687,W,4,42,0.57,272.686,M,-33.937,M,1.0,1299*60"
1776537094.3543136,14:31:34.354,-1.9243,1.9508,42.44640537,-76.471645,4,"$GNGGA,183134.000,4226.784322,N,07628.298700,W,4,41,0.55,272.629,M,-33.936,M,1.0,1299*6E"
1776537095.310618,14:31:35.310,-1.9147,1.9268,42.44640515,-76.47164488,4,"$GNGGA,183135.000,4226.784309,N,07628.298693,W,4,41,0.60,272.677,M,-33.937,M,1.0,1299*61"
1776537096.3584833,14:31:36.358,-1.7969,1.9656,42.4464055,-76.47164345,4,"$GNGGA,183136.000,4226.784330,N,07628.298607,W,4,42,0.61,272.734,M,-33.936,M,1.0,1299*60"
1776537097.333841,14:31:37.333,-1.6202,1.9712,42.44640555,-76.4716413,4,"$GNGGA,183137.000,4226.784333,N,07628.298478,W,4,42,0.59,272.746,M,-33.936,M,1.0,1299*66"
1776537098.3580565,14:31:38.358,-1.6037,1.999,42.4464058,-76.4716411,4,"$GNGGA,183138.000,4226.784348,N,07628.298466,W,4,42,0.60,272.686,M,-33.936,M,1.0,1299*6D"
1776537099.3469598,14:31:39.346,-1.6435,1.9693,42.44640553,-76.47164158,4,"$GNGGA,183139.000,4226.784332,N,07628.298495,W,4,41,0.57,272.699,M,-33.936,M,1.0,1299*64"
1776537102.3743951,14:31:42.374,-1.6585,2.0175,42.44640597,-76.47164177,4,"$GNGGA,183142.000,4226.784358,N,07628.298506,W,4,42,0.64,272.686,M,-33.936,M,2.0,1299*61"
1776537103.3492446,14:31:43.349,-1.653,1.9916,42.44640573,-76.4716417,4,"$GNGGA,183143.000,4226.784344,N,07628.298502,W,4,42,0.60,272.688,M,-33.936,M,1.0,1299*60"
1776537104.3839498,14:31:44.383,-1.6585,1.9193,42.44640508,-76.47164177,4,"$GNGGA,183144.000,4226.784305,N,07628.298506,W,4,42,0.54,272.690,M,-33.936,M,1.0,1299*68"
1776537105.336851,14:31:45.336,-1.6695,2.0064,42.44640587,-76.4716419,4,"$GNGGA,183145.000,4226.784352,N,07628.298514,W,4,42,0.58,272.735,M,-33.936,M,1.0,1299*6A"
1776537106.3887975,14:31:46.388,-1.638,1.9656,42.4464055,-76.47164152,4,"$GNGGA,183146.000,4226.784330,N,07628.298491,W,4,42,0.62,272.697,M,-33.937,M,1.0,1299*60"
1776537107.3423743,14:31:47.342,-1.638,1.9434,42.4464053,-76.47164152,4,"$GNGGA,183147.000,4226.784318,N,07628.298491,W,4,42,0.58,272.704,M,-33.936,M,1.0,1299*68"
1776537108.4113886,14:31:48.411,-1.6435,1.9619,42.44640547,-76.47164158,4,"$GNGGA,183148.000,4226.784328,N,07628.298495,W,4,42,0.67,272.694,M,-33.937,M,1.0,1299*65"
1776537109.3608973,14:31:49.360,-1.6421,1.9638,42.44640548,-76.47164157,4,"$GNGGA,183149.000,4226.784329,N,07628.298494,W,4,41,0.65,272.696,M,-33.936,M,1.0,1299*66"
1776537112.3842614,14:31:52.384,-1.6393,1.9619,42.44640547,-76.47164153,4,"$GNGGA,183152.000,4226.784328,N,07628.298492,W,4,42,0.60,272.694,M,-33.936,M,1.0,1299*6F"
1776537113.357316,14:31:53.357,-1.638,1.9545,42.4464054,-76.47164152,4,"$GNGGA,183153.000,4226.784324,N,07628.298491,W,4,42,0.61,272.709,M,-33.937,M,1.0,1299*64"
1776537114.3850956,14:31:54.385,-1.6407,1.9564,42.44640542,-76.47164155,4,"$GNGGA,183154.000,4226.784325,N,07628.298493,W,4,42,0.61,272.678,M,-33.937,M,2.0,1299*64"
1776537115.3994317,14:31:55.399,-1.6435,1.9545,42.4464054,-76.47164158,4,"$GNGGA,183155.000,4226.784324,N,07628.298495,W,4,42,0.63,272.671,M,-33.937,M,3.0,1299*68"
1776537116.3941233,14:31:56.394,-1.6544,1.9601,42.44640545,-76.47164172,4,"$GNGGA,183156.000,4226.784327,N,07628.298503,W,4,42,0.61,272.691,M,-33.936,M,1.0,1299*69"
1776537117.372393,14:31:57.372,-1.6503,1.9582,42.44640543,-76.47164167,4,"$GNGGA,183157.000,4226.784326,N,07628.298500,W,4,42,0.61,272.694,M,-33.937,M,1.0,1299*6E"
1776537118.3900902,14:31:58.390,-1.6736,1.9619,42.44640547,-76.47164195,4,"$GNGGA,183158.000,4226.784328,N,07628.298517,W,4,42,0.53,272.670,M,-33.936,M,1.0,1299*63"
1776537119.3579144,14:31:59.357,-1.6804,1.9564,42.44640542,-76.47164203,4,"$GNGGA,183159.000,4226.784325,N,07628.298522,W,4,42,0.52,272.672,M,-33.937,M,1.0,1299*6B"
1776537122.392392,14:32:02.392,-1.7024,1.9453,42.44640532,-76.4716423,4,"$GNGGA,183202.000,4226.784319,N,07628.298538,W,4,42,0.64,272.674,M,-33.937,M,1.0,1299*61"
1776537123.3672264,14:32:03.367,-1.7311,1.9175,42.44640507,-76.47164265,4,"$GNGGA,183203.000,4226.784304,N,07628.298559,W,4,42,0.62,272.662,M,-33.937,M,1.0,1299*6A"
1776537124.3966365,14:32:04.396,-1.7325,1.9212,42.4464051,-76.47164267,4,"$GNGGA,183204.000,4226.784306,N,07628.298560,W,4,42,0.62,272.676,M,-33.937,M,1.0,1299*60"
1776537125.3664117,14:32:05.366,-1.727,1.9175,42.44640507,-76.4716426,4,"$GNGGA,183205.000,4226.784304,N,07628.298556,W,4,42,0.64,272.671,M,-33.936,M,1.0,1299*66"
1776537126.3957014,14:32:06.395,-1.7298,1.9156,42.44640505,-76.47164263,4,"$GNGGA,183206.000,4226.784303,N,07628.298558,W,4,42,0.64,272.680,M,-33.936,M,2.0,1299*61"
1776537127.3499587,14:32:07.349,-1.738,1.9156,42.44640505,-76.47164273,4,"$GNGGA,183207.000,4226.784303,N,07628.298564,W,4,42,0.66,272.672,M,-33.937,M,3.0,1299*60"
1776537128.3867307,14:32:08.386,-1.7448,1.9342,42.44640522,-76.47164282,4,"$GNGGA,183208.000,4226.784313,N,07628.298569,W,4,42,0.66,272.653,M,-33.937,M,1.0,1299*62"
1776537129.3794298,14:32:09.379,-1.7558,1.9249,42.44640513,-76.47164295,4,"$GNGGA,183209.000,4226.784308,N,07628.298577,W,4,42,0.65,272.676,M,-33.937,M,1.0,1299*62"
1776537132.4224935,14:32:12.422,-1.7804,1.9342,42.44640522,-76.47164325,4,"$GNGGA,183212.000,4226.784313,N,07628.298595,W,4,42,0.59,272.660,M,-33.937,M,1.0,1299*66"
1776537133.3674374,14:32:13.367,-1.7791,1.9286,42.44640517,-76.47164323,4,"$GNGGA,183213.000,4226.784310,N,07628.298594,W,4,42,0.57,272.669,M,-33.936,M,1.0,1299*63"
1776537134.3895805,14:32:14.389,-1.7845,1.9268,42.44640515,-76.4716433,4,"$GNGGA,183214.000,4226.784309,N,07628.298598,W,4,42,0.57,272.656,M,-33.936,M,1.0,1299*6C"
1776537135.3722155,14:32:15.372,-1.7887,1.9212,42.4464051,-76.47164335,4,"$GNGGA,183215.000,4226.784306,N,07628.298601,W,4,42,0.54,272.653,M,-33.937,M,1.0,1299*66"
1776537136.416065,14:32:16.416,-1.7859,1.9212,42.4464051,-76.47164332,4,"$GNGGA,183216.000,4226.784306,N,07628.298599,W,4,42,0.54,272.657,M,-33.936,M,1.0,1299*62"
1776537137.35344,14:32:17.353,-1.7845,1.9527,42.44640538,-76.4716433,4,"$GNGGA,183217.000,4226.784323,N,07628.298598,W,4,42,0.54,272.655,M,-33.936,M,1.0,1299*67"
1776537138.4002094,14:32:18.400,-1.7832,1.9471,42.44640533,-76.47164328,4,"$GNGGA,183218.000,4226.784320,N,07628.298597,W,4,42,0.57,272.654,M,-33.936,M,1.0,1299*66"
1776537139.3597844,14:32:19.359,-1.7845,1.949,42.44640535,-76.4716433,4,"$GNGGA,183219.000,4226.784321,N,07628.298598,W,4,42,0.59,272.650,M,-33.936,M,1.0,1299*63"
1776537142.3960624,14:32:22.396,-1.764,1.936,42.44640523,-76.47164305,4,"$GNGGA,183222.000,4226.784314,N,07628.298583,W,4,42,0.53,272.660,M,-33.936,M,1.0,1299*6E"
1776537143.3564277,14:32:23.356,-1.764,1.9286,42.44640517,-76.47164305,4,"$GNGGA,183223.000,4226.784310,N,07628.298583,W,4,42,0.57,272.658,M,-33.937,M,2.0,1299*66"
1776537144.476229,14:32:24.476,-1.7736,1.9286,42.44640517,-76.47164317,4,"$GNGGA,183224.000,4226.784310,N,07628.298590,W,4,42,0.63,272.653,M,-33.937,M,3.0,1299*6E"
1776537145.3431294,14:32:25.343,-1.7791,1.9212,42.4464051,-76.47164323,4,"$GNGGA,183225.000,4226.784306,N,07628.298594,W,4,42,0.63,272.653,M,-33.937,M,1.0,1299*6E"
1776537146.3886216,14:32:26.388,-1.7777,1.9212,42.4464051,-76.47164322,4,"$GNGGA,183226.000,4226.784306,N,07628.298593,W,4,42,0.63,272.660,M,-33.937,M,1.0,1299*6A"
1776537147.3532507,14:32:27.353,-1.7859,1.9212,42.4464051,-76.47164332,4,"$GNGGA,183227.000,4226.784306,N,07628.298599,W,4,42,0.63,272.654,M,-33.936,M,1.0,1299*67"
1776537148.3846815,14:32:28.384,-1.7955,1.9156,42.44640505,-76.47164343,4,"$GNGGA,183228.000,4226.784303,N,07628.298606,W,4,42,0.63,272.661,M,-33.936,M,1.0,1299*6E"
1776537149.3485124,14:32:29.348,-1.79,1.9175,42.44640507,-76.47164337,4,"$GNGGA,183229.000,4226.784304,N,07628.298602,W,4,42,0.53,272.667,M,-33.936,M,1.0,1299*69"
1776537152.3816912,14:32:32.381,-1.7983,1.9268,42.44640515,-76.47164347,4,"$GNGGA,183232.000,4226.784309,N,07628.298608,W,4,42,0.58,272.649,M,-33.936,M,1.0,1299*63"
1776537153.356445,14:32:33.356,-1.7969,1.9323,42.4464052,-76.47164345,4,"$GNGGA,183233.000,4226.784312,N,07628.298607,W,4,42,0.58,272.654,M,-33.936,M,1.0,1299*6B"
1776537154.379634,14:32:34.379,-1.8092,1.936,42.44640523,-76.4716436,4,"$GNGGA,183234.000,4226.784314,N,07628.298616,W,4,42,0.61,272.649,M,-33.936,M,1.0,1299*6C"
1776537155.4056907,14:32:35.405,-1.8024,1.9342,42.44640522,-76.47164352,4,"$GNGGA,183235.000,4226.784313,N,07628.298611,W,4,41,0.64,272.650,M,-33.936,M,2.0,1299*60"
1776537156.3820705,14:32:36.382,-1.8188,1.9323,42.4464052,-76.47164372,4,"$GNGGA,183236.000,4226.784312,N,07628.298623,W,4,42,0.62,272.646,M,-33.937,M,1.0,1299*63"
1776537157.350614,14:32:37.350,-1.8174,1.9397,42.44640527,-76.4716437,4,"$GNGGA,183237.000,4226.784316,N,07628.298622,W,4,42,0.56,272.648,M,-33.936,M,1.0,1299*6F"
1776537158.3778179,14:32:38.377,-1.8188,1.9286,42.44640517,-76.47164372,4,"$GNGGA,183238.000,4226.784310,N,07628.298623,W,4,42,0.64,272.662,M,-33.937,M,1.0,1299*6F"
1776537159.366725,14:32:39.366,-1.8284,1.9305,42.44640518,-76.47164383,4,"$GNGGA,183239.000,4226.784311,N,07628.298630,W,4,42,0.62,272.662,M,-33.937,M,1.0,1299*6B"
1776537162.3942096,14:32:42.394,-1.838,1.9212,42.4464051,-76.47164395,4,"$GNGGA,183242.000,4226.784306,N,07628.298637,W,4,42,0.63,272.663,M,-33.936,M,1.0,1299*67"
1776537163.354718,14:32:43.354,-1.8393,1.9231,42.44640512,-76.47164397,4,"$GNGGA,183243.000,4226.784307,N,07628.298638,W,4,42,0.67,272.658,M,-33.937,M,1.0,1299*65"
1776537164.3843882,14:32:44.384,-1.8311,1.9212,42.4464051,-76.47164387,4,"$GNGGA,183244.000,4226.784306,N,07628.298632,W,4,42,0.64,272.663,M,-33.936,M,1.0,1299*63"
1776537165.352956,14:32:45.352,-1.8366,1.9212,42.4464051,-76.47164393,4,"$GNGGA,183245.000,4226.784306,N,07628.298636,W,4,42,0.52,272.651,M,-33.937,M,1.0,1299*63"
1776537166.3799257,14:32:46.379,-1.8284,1.9138,42.44640503,-76.47164383,4,"$GNGGA,183246.000,4226.784302,N,07628.298630,W,4,42,0.66,272.669,M,-33.937,M,1.0,1299*6E"
1776537167.3479564,14:32:47.347,-1.8298,1.9101,42.446405,-76.47164385,4,"$GNGGA,183247.000,4226.784300,N,07628.298631,W,4,42,0.58,272.657,M,-33.937,M,1.0,1299*6C"
1776537168.3848248,14:32:48.384,-1.8298,1.9156,42.44640505,-76.47164385,4,"$GNGGA,183248.000,4226.784303,N,07628.298631,W,4,42,0.58,272.663,M,-33.937,M,1.0,1299*67"
1776537169.3636062,14:32:49.363,-1.827,1.8953,42.44640487,-76.47164382,4,"$GNGGA,183249.000,4226.784292,N,07628.298629,W,4,42,0.56,272.671,M,-33.937,M,1.0,1299*6B"
1776537172.397696,14:32:52.397,-1.827,1.9101,42.446405,-76.47164382,4,"$GNGGA,183252.000,4226.784300,N,07628.298629,W,4,42,0.56,272.653,M,-33.937,M,1.0,1299*6B"
1776537173.3584826,14:32:53.358,-1.8188,1.9082,42.44640498,-76.47164372,4,"$GNGGA,183253.000,4226.784299,N,07628.298623,W,4,42,0.57,272.650,M,-33.936,M,1.0,1299*62"
1776537174.3856952,14:32:54.385,-1.8078,1.9119,42.44640502,-76.47164358,4,"$GNGGA,183254.000,4226.784301,N,07628.298615,W,4,42,0.59,272.666,M,-33.936,M,1.0,1299*6B"
1776537175.3415513,14:32:55.341,-1.8202,1.9212,42.4464051,-76.47164373,4,"$GNGGA,183255.000,4226.784306,N,07628.298624,W,4,42,0.70,272.657,M,-33.936,M,1.0,1299*66"
1776537176.3649046,14:32:56.364,-1.8188,1.9138,42.44640503,-76.47164372,4,"$GNGGA,183256.000,4226.784302,N,07628.298623,W,4,42,0.76,272.647,M,-33.936,M,1.0,1299*61"
1776537177.3663664,14:32:57.366,-1.8147,1.9082,42.44640498,-76.47164367,4,"$GNGGA,183257.000,4226.784299,N,07628.298620,W,4,42,0.55,272.673,M,-33.937,M,1.0,1299*67"
1776537178.3831398,14:32:58.383,-1.7832,1.9305,42.44640518,-76.47164328,4,"$GNGGA,183258.000,4226.784311,N,07628.298597,W,4,42,0.70,272.644,M,-33.937,M,1.0,1299*65"
1776537179.3376076,14:32:59.337,-1.8092,1.9082,42.44640498,-76.4716436,4,"$GNGGA,183259.000,4226.784299,N,07628.298616,W,4,42,0.64,272.765,M,-33.937,M,1.0,1299*68"
1776537182.360959,14:33:02.360,-2.0914,1.9212,42.4464051,-76.47164703,4,"$GNGGA,183302.000,4226.784306,N,07628.298822,W,4,42,0.61,272.619,M,-33.936,M,1.0,1299*67"
1776537183.3539608,14:33:03.353,-2.0626,1.9138,42.44640503,-76.47164668,4,"$GNGGA,183303.000,4226.784302,N,07628.298801,W,4,42,0.58,272.710,M,-33.936,M,1.0,1299*61"
1776537184.3675556,14:33:04.367,-1.901,1.9008,42.44640492,-76.47164472,4,"$GNGGA,183304.000,4226.784295,N,07628.298683,W,4,42,0.72,272.736,M,-33.937,M,1.0,1299*60"
1776537185.3293512,14:33:05.329,-1.8119,1.8879,42.4464048,-76.47164363,4,"$GNGGA,183305.000,4226.784288,N,07628.298618,W,4,42,0.58,272.723,M,-33.937,M,2.0,1299*60"
1776537186.3859134,14:33:06.385,-1.8791,1.8712,42.44640465,-76.47164445,5,"$GNGGA,183306.000,4226.784279,N,07628.298667,W,5,41,0.56,272.707,M,-33.937,M,1.0,1299*6C"
1776537187.4087946,14:33:07.408,-1.8613,1.8823,42.44640475,-76.47164423,5,"$GNGGA,183307.000,4226.784285,N,07628.298654,W,5,41,0.53,272.711,M,-33.936,M,1.0,1299*6D"
1776537188.4381192,14:33:08.438,-1.8667,1.9286,42.44640517,-76.4716443,5,"$GNGGA,183308.000,4226.784310,N,07628.298658,W,5,41,0.65,272.732,M,-33.936,M,1.0,1299*67"
1776537189.4073124,14:33:09.407,-1.8585,1.8786,42.44640472,-76.4716442,5,"$GNGGA,183309.000,4226.784283,N,07628.298652,W,5,42,0.52,272.685,M,-33.936,M,1.0,1299*6D"
1776537192.4215038,14:33:12.421,-1.8585,1.8582,42.44640453,-76.4716442,5,"$GNGGA,183312.000,4226.784272,N,07628.298652,W,5,42,0.59,272.690,M,-33.936,M,1.0,1299*66"
1776537193.4879904,14:33:13.487,-1.8571,1.8527,42.44640448,-76.47164418,5,"$GNGGA,183313.000,4226.784269,N,07628.298651,W,5,42,0.57,272.681,M,-33.937,M,1.0,1299*61"
1776537194.458554,14:33:14.458,-1.89,1.9379,42.44640525,-76.47164458,5,"$GNGGA,183314.000,4226.784315,N,07628.298675,W,5,42,0.63,272.682,M,-33.936,M,1.0,1299*6F"
1776537195.3972592,14:33:15.397,-1.8613,1.8823,42.44640475,-76.47164423,5,"$GNGGA,183315.000,4226.784285,N,07628.298654,W,5,42,0.61,272.670,M,-33.936,M,1.0,1299*6A"
1776537196.3880572,14:33:16.388,-1.8667,1.873,42.44640467,-76.4716443,5,"$GNGGA,183316.000,4226.784280,N,07628.298658,W,5,42,0.62,272.647,M,-33.936,M,1.0,1299*67"
1776537197.4389365,14:33:17.438,-1.8941,1.9656,42.4464055,-76.47164463,5,"$GNGGA,183317.000,4226.784330,N,07628.298678,W,5,42,0.67,272.633,M,-33.936,M,1.0,1302*6B"
1776537198.3515646,14:33:18.351,-1.8818,1.9249,42.44640513,-76.47164448,5,"$GNGGA,183318.000,4226.784308,N,07628.298669,W,5,42,0.67,272.623,M,-33.936,M,1.0,1302*6E"
1776537199.3401718,14:33:19.340,-1.8339,1.8916,42.44640483,-76.4716439,4,"$GNGGA,183319.000,4226.784290,N,07628.298634,W,4,42,0.65,272.682,M,-33.937,M,1.0,1302*6E"
1776537202.359821,14:33:22.359,-1.8462,1.9008,42.44640492,-76.47164405,4,"$GNGGA,183322.000,4226.784295,N,07628.298643,W,4,42,0.68,272.801,M,-33.936,M,1.0,1302*6A"
1776537203.3366873,14:33:23.336,-1.864,1.9045,42.44640495,-76.47164427,4,"$GNGGA,183323.000,4226.784297,N,07628.298656,W,4,42,0.67,272.649,M,-33.937,M,1.0,1302*61"
1776537204.3719177,14:33:24.371,-1.9393,1.873,42.44640467,-76.47164518,4,"$GNGGA,183324.000,4226.784280,N,07628.298711,W,4,42,0.61,272.546,M,-33.936,M,1.0,1302*69"
1776537205.3286035,14:33:25.328,-1.9571,1.886,42.44640478,-76.4716454,4,"$GNGGA,183325.000,4226.784287,N,07628.298724,W,4,42,0.64,272.587,M,-33.936,M,1.0,1302*61"
1776537206.3589048,14:33:26.358,-1.9434,1.8582,42.44640453,-76.47164523,4,"$GNGGA,183326.000,4226.784272,N,07628.298714,W,4,42,0.68,272.637,M,-33.937,M,1.0,1302*6E"
1776537207.3370216,14:33:27.337,-1.9037,1.9008,42.44640492,-76.47164475,4,"$GNGGA,183327.000,4226.784295,N,07628.298685,W,4,42,0.66,272.743,M,-33.937,M,1.0,1302*63"
1776537208.3876562,14:33:28.387,-1.8982,1.8823,42.44640475,-76.47164468,4,"$GNGGA,183328.000,4226.784285,N,07628.298681,W,4,42,0.67,272.615,M,-33.937,M,1.0,1302*6A"
1776537209.3291402,14:33:29.329,-1.8996,1.8842,42.44640477,-76.4716447,4,"$GNGGA,183329.000,4226.784286,N,07628.298682,W,4,42,0.66,272.625,M,-33.936,M,1.0,1302*68"
1776537212.3645241,14:33:32.364,-1.8955,1.8804,42.44640473,-76.47164465,4,"$GNGGA,183332.000,4226.784284,N,07628.298679,W,4,42,0.69,272.624,M,-33.937,M,1.0,1302*6B"
1776537213.3327305,14:33:33.332,-1.8982,1.8953,42.44640487,-76.47164468,4,"$GNGGA,183333.000,4226.784292,N,07628.298681,W,4,42,0.69,272.604,M,-33.936,M,1.0,1302*69"
1776537214.3698027,14:33:34.369,-1.8914,1.8953,42.44640487,-76.4716446,4,"$GNGGA,183334.000,4226.784292,N,07628.298676,W,4,42,0.67,272.614,M,-33.936,M,1.0,1302*69"
1776537215.36821,14:33:35.368,-1.8955,1.8953,42.44640487,-76.47164465,4,"$GNGGA,183335.000,4226.784292,N,07628.298679,W,4,42,0.66,272.619,M,-33.936,M,1.0,1302*6B"
1776537216.3997304,14:33:36.399,-1.9037,1.899,42.4464049,-76.47164475,4,"$GNGGA,183336.000,4226.784294,N,07628.298685,W,4,42,0.63,272.621,M,-33.937,M,1.0,1302*62"
1776537217.3413305,14:33:37.341,-1.9037,1.9082,42.44640498,-76.47164475,4,"$GNGGA,183337.000,4226.784299,N,07628.298685,W,4,42,0.63,272.633,M,-33.936,M,1.0,1302*6C"
1776537218.3658164,14:33:38.365,-1.9119,1.8934,42.44640485,-76.47164485,4,"$GNGGA,183338.000,4226.784291,N,07628.298691,W,4,42,0.67,272.636,M,-33.937,M,1.0,1302*6E"
1776537219.3546865,14:33:39.354,-1.9243,1.8971,42.44640488,-76.471645,4,"$GNGGA,183339.000,4226.784293,N,07628.298700,W,4,42,0.64,272.622,M,-33.936,M,1.0,1302*63"
1776537222.3729901,14:33:42.372,-1.9256,1.8823,42.44640475,-76.47164502,4,"$GNGGA,183342.000,4226.784285,N,07628.298701,W,4,42,0.63,272.632,M,-33.936,M,1.0,1302*6F"
1776537223.337892,14:33:43.337,-1.9229,1.8804,42.44640473,-76.47164498,4,"$GNGGA,183343.000,4226.784284,N,07628.298699,W,4,42,0.61,272.632,M,-33.937,M,1.0,1302*6C"
1776537224.379362,14:33:44.379,-1.9243,1.886,42.44640478,-76.471645,4,"$GNGGA,183344.000,4226.784287,N,07628.298700,W,4,42,0.61,272.620,M,-33.937,M,1.0,1302*6A"
1776537225.3583953,14:33:45.358,-1.9284,1.8879,42.4464048,-76.47164505,4,"$GNGGA,183345.000,4226.784288,N,07628.298703,W,4,42,0.60,272.622,M,-33.936,M,1.0,1302*65"
1776537226.3834372,14:33:46.383,-1.9215,1.886,42.44640478,-76.47164497,4,"$GNGGA,183346.000,4226.784287,N,07628.298698,W,4,42,0.60,272.638,M,-33.937,M,1.0,1302*60"
1776537227.3279512,14:33:47.327,-1.9256,1.886,42.44640478,-76.47164502,4,"$GNGGA,183347.000,4226.784287,N,07628.298701,W,4,42,0.60,272.628,M,-33.937,M,2.0,1302*62"
1776537228.366973,14:33:48.366,-1.9243,1.8804,42.44640473,-76.471645,4,"$GNGGA,183348.000,4226.784284,N,07628.298700,W,4,42,0.64,272.632,M,-33.936,M,1.0,1302*62"
1776537229.3491457,14:33:49.349,-1.927,1.8916,42.44640483,-76.47164503,4,"$GNGGA,183349.000,4226.784290,N,07628.298702,W,4,42,0.58,272.623,M,-33.936,M,1.0,1302*6B"
1776537232.3792439,14:33:52.379,-1.9448,1.8879,42.4464048,-76.47164525,4,"$GNGGA,183352.000,4226.784288,N,07628.298715,W,4,42,0.60,272.640,M,-33.937,M,1.0,1302*61"
1776537233.3419836,14:33:53.341,-1.9476,1.9045,42.44640495,-76.47164528,4,"$GNGGA,183353.000,4226.784297,N,07628.298717,W,4,42,0.57,272.632,M,-33.937,M,1.0,1302*6D"
1776537234.3817449,14:33:54.381,-1.9489,1.9008,42.44640492,-76.4716453,4,"$GNGGA,183354.000,4226.784295,N,07628.298718,W,4,42,0.60,272.631,M,-33.936,M,1.0,1302*61"
1776537235.3400617,14:33:55.340,-1.9503,1.9101,42.446405,-76.47164532,4,"$GNGGA,183355.000,4226.784300,N,07628.298719,W,4,42,0.55,272.638,M,-33.937,M,1.0,1302*62"
1776537236.388678,14:33:56.388,-1.9476,1.9064,42.44640497,-76.47164528,4,"$GNGGA,183356.000,4226.784298,N,07628.298717,W,4,42,0.56,272.630,M,-33.937,M,1.0,1302*64"
1776537237.3501875,14:33:57.350,-1.9407,1.9008,42.44640492,-76.4716452,4,"$GNGGA,183357.000,4226.784295,N,07628.298712,W,4,42,0.55,272.644,M,-33.936,M,1.0,1302*6C"
1776537238.3848684,14:33:58.384,-1.9393,1.8916,42.44640483,-76.47164518,4,"$GNGGA,183358.000,4226.784290,N,07628.298711,W,4,42,0.56,272.650,M,-33.937,M,1.0,1302*62"
1776537239.360277,14:33:59.360,-1.9462,1.8934,42.44640485,-76.47164527,4,"$GNGGA,183359.000,4226.784291,N,07628.298716,W,4,42,0.55,272.620,M,-33.936,M,1.0,1302*60"
1776537242.3865862,14:34:02.386,-1.9489,1.9008,42.44640492,-76.4716453,4,"$GNGGA,183402.000,4226.784295,N,07628.298718,W,4,42,0.54,272.632,M,-33.937,M,1.0,1302*60"
1776537243.3639052,14:34:03.363,-1.9462,1.9082,42.44640498,-76.47164527,4,"$GNGGA,183403.000,4226.784299,N,07628.298716,W,4,42,0.54,272.634,M,-33.936,M,1.0,1302*64"
1776537244.380827,14:34:04.380,-1.9517,1.9119,42.44640502,-76.47164533,4,"$GNGGA,183404.000,4226.784301,N,07628.298720,W,4,42,0.57,272.618,M,-33.936,M,1.0,1302*6B"
1776537245.3485167,14:34:05.348,-1.9489,1.9064,42.44640497,-76.4716453,4,"$GNGGA,183405.000,4226.784298,N,07628.298718,W,4,42,0.57,272.618,M,-33.936,M,1.0,1302*60"
1776537246.4314032,14:34:06.431,-1.964,1.9138,42.44640503,-76.47164548,4,"$GNGGA,183406.000,4226.784302,N,07628.298729,W,4,42,0.57,272.619,M,-33.937,M,1.0,1302*63"
1776537247.357447,14:34:07.357,-1.9544,1.9156,42.44640505,-76.47164537,4,"$GNGGA,183407.000,4226.784303,N,07628.298722,W,4,42,0.59,272.620,M,-33.936,M,1.0,1302*6D"
1776537248.3980045,14:34:08.398,-1.9517,1.9175,42.44640507,-76.47164533,4,"$GNGGA,183408.000,4226.784304,N,07628.298720,W,4,42,0.59,272.633,M,-33.936,M,1.0,1302*65"
1776537249.3314967,14:34:09.331,-1.9037,1.9416,42.44640528,-76.47164475,4,"$GNGGA,183409.000,4226.784317,N,07628.298685,W,4,42,0.56,272.614,M,-33.936,M,1.0,1302*62"
1776537252.355715,14:34:12.355,-2.238,1.8916,42.44640483,-76.47164882,4,"$GNGGA,183412.000,4226.784290,N,07628.298929,W,4,42,0.55,272.655,M,-33.937,M,1.0,1302*68"
1776537253.3301375,14:34:13.330,-2.2284,1.8934,42.44640485,-76.4716487,4,"$GNGGA,183413.000,4226.784291,N,07628.298922,W,4,42,0.53,272.645,M,-33.936,M,1.0,1302*65"
1776537254.346363,14:34:14.346,-2.1448,1.9249,42.44640513,-76.47164768,4,"$GNGGA,183414.000,4226.784308,N,07628.298861,W,4,42,0.65,272.724,M,-33.936,M,1.0,1302*66"
1776537255.3646958,14:34:15.364,-1.9558,1.936,42.44640523,-76.47164538,4,"$GNGGA,183415.000,4226.784314,N,07628.298723,W,4,42,0.52,272.726,M,-33.936,M,1.0,1302*65"
1776537256.3780396,14:34:16.378,-1.9147,1.949,42.44640535,-76.47164488,4,"$GNGGA,183416.000,4226.784321,N,07628.298693,W,4,42,0.60,272.624,M,-33.936,M,1.0,1302*68"
1776537257.3770041,14:34:17.377,-1.9448,1.9342,42.44640522,-76.47164525,4,"$GNGGA,183417.000,4226.784313,N,07628.298715,W,4,42,0.61,272.633,M,-33.936,M,1.0,1302*60"
1776537258.394762,14:34:18.394,-1.9681,1.9119,42.44640502,-76.47164553,4,"$GNGGA,183418.000,4226.784301,N,07628.298732,W,4,42,0.66,272.625,M,-33.936,M,1.0,1302*69"
1776537259.347774,14:34:19.347,-1.9599,1.9175,42.44640507,-76.47164543,4,"$GNGGA,183419.000,4226.784304,N,07628.298726,W,4,42,0.62,272.629,M,-33.936,M,1.0,1302*60"
1776537262.358693,14:34:22.358,-1.9626,1.9453,42.44640532,-76.47164547,4,"$GNGGA,183422.000,4226.784319,N,07628.298728,W,4,42,0.64,272.628,M,-33.936,M,1.0,1302*6D"
1776537263.3562253,14:34:23.356,-1.9626,1.9619,42.44640547,-76.47164547,4,"$GNGGA,183423.000,4226.784328,N,07628.298728,W,4,42,0.66,272.648,M,-33.936,M,1.0,1302*6A"
1776537264.3667295,14:34:24.366,-2.001,1.8564,42.44640452,-76.47164593,4,"$GNGGA,183424.000,4226.784271,N,07628.298756,W,4,42,0.62,272.622,M,-33.936,M,1.0,1302*61"
1776537265.3451295,14:34:25.345,-1.9654,1.9545,42.4464054,-76.4716455,4,"$GNGGA,183425.000,4226.784324,N,07628.298730,W,4,42,0.61,272.634,M,-33.937,M,1.0,1302*64"
1776537266.3700824,14:34:26.370,-1.9613,1.9193,42.44640508,-76.47164545,4,"$GNGGA,183426.000,4226.784305,N,07628.298727,W,4,42,0.65,272.604,M,-33.936,M,1.0,1302*64"
1776537267.3257341,14:34:27.325,-1.9585,1.9249,42.44640513,-76.47164542,4,"$GNGGA,183427.000,4226.784308,N,07628.298725,W,4,42,0.57,272.624,M,-33.936,M,1.0,1302*69"
1776537268.3691301,14:34:28.369,-1.9613,1.9323,42.4464052,-76.47164545,4,"$GNGGA,183428.000,4226.784312,N,07628.298727,W,4,42,0.61,272.619,M,-33.937,M,1.0,1302*65"
1776537269.3583252,14:34:29.358,-1.964,1.9212,42.4464051,-76.47164548,4,"$GNGGA,183429.000,4226.784306,N,07628.298729,W,4,42,0.71,272.617,M,-33.937,M,1.0,1302*60"
1776537272.3841233,14:34:32.384,-1.9791,1.9138,42.44640503,-76.47164567,4,"$GNGGA,183432.000,4226.784302,N,07628.298740,W,4,42,0.63,272.636,M,-33.936,M,1.0,1302*60"
1776537273.3509192,14:34:33.350,-1.9667,1.9286,42.44640517,-76.47164552,4,"$GNGGA,183433.000,4226.784310,N,07628.298731,W,4,42,0.64,272.629,M,-33.937,M,1.0,1302*6C"
1776537274.3684251,14:34:34.368,-1.9722,1.9045,42.44640495,-76.47164558,4,"$GNGGA,183434.000,4226.784297,N,07628.298735,W,4,42,0.63,272.627,M,-33.936,M,1.0,1302*69"
1776537275.3436742,14:34:35.343,-1.9695,1.9008,42.44640492,-76.47164555,4,"$GNGGA,183435.000,4226.784295,N,07628.298733,W,4,42,0.61,272.630,M,-33.936,M,1.0,1302*68"
1776537276.372513,14:34:36.372,-1.9818,1.8638,42.44640458,-76.4716457,4,"$GNGGA,183436.000,4226.784275,N,07628.298742,W,4,42,0.61,272.637,M,-33.937,M,1.0,1302*65"
1776537277.36094,14:34:37.360,-1.9763,1.8619,42.44640457,-76.47164563,4,"$GNGGA,183437.000,4226.784274,N,07628.298738,W,4,42,0.54,272.645,M,-33.937,M,1.0,1302*6B"
1776537278.374167,14:34:38.374,-1.9736,1.8693,42.44640463,-76.4716456,4,"$GNGGA,183438.000,4226.784278,N,07628.298736,W,4,42,0.56,272.648,M,-33.936,M,1.0,1302*68"
1776537279.3509834,14:34:39.350,-1.9791,1.8656,42.4464046,-76.47164567,4,"$GNGGA,183439.000,4226.784276,N,07628.298740,W,4,42,0.57,272.651,M,-33.937,M,1.0,1302*6E"
1776537282.3804917,14:34:42.380,-2.0024,1.8675,42.44640462,-76.47164595,4,"$GNGGA,183442.000,4226.784277,N,07628.298757,W,4,42,0.62,272.655,M,-33.937,M,1.0,1302*67"
1776537283.3602965,14:34:43.360,-1.9873,1.8656,42.4464046,-76.47164577,4,"$GNGGA,183443.000,4226.784276,N,07628.298746,W,4,42,0.54,272.638,M,-33.937,M,1.0,1302*69"
1776537284.4063778,14:34:44.406,-2.0243,1.8601,42.44640455,-76.47164622,4,"$GNGGA,183444.000,4226.784273,N,07628.298773,W,4,42,0.58,272.647,M,-33.937,M,1.0,1302*69"
1776537285.3588243,14:34:45.358,-2.0188,1.8508,42.44640447,-76.47164615,4,"$GNGGA,183445.000,4226.784268,N,07628.298769,W,4,42,0.59,272.638,M,-33.936,M,1.0,1302*61"
1776537286.406379,14:34:46.406,-2.0215,1.8638,42.44640458,-76.47164618,4,"$GNGGA,183446.000,4226.784275,N,07628.298771,W,4,42,0.57,272.643,M,-33.936,M,1.0,1302*65"
1776537287.340387,14:34:47.340,-2.0243,1.873,42.44640467,-76.47164622,4,"$GNGGA,183447.000,4226.784280,N,07628.298773,W,4,42,0.56,272.649,M,-33.936,M,1.0,1302*67"
1776537288.3876357,14:34:48.387,-2.0215,1.8823,42.44640475,-76.47164618,4,"$GNGGA,183448.000,4226.784285,N,07628.298771,W,4,42,0.50,272.648,M,-33.936,M,1.0,1302*68"
1776537289.3374023,14:34:49.337,-2.0681,1.8879,42.4464048,-76.47164675,4,"$GNGGA,183449.000,4226.784288,N,07628.298805,W,4,42,0.48,272.646,M,-33.936,M,1.0,1302*6F"
1776537292.3846638,14:34:52.384,-2.0571,1.8897,42.44640482,-76.47164662,4,"$GNGGA,183452.000,4226.784289,N,07628.298797,W,4,42,0.59,272.645,M,-33.936,M,1.0,1302*63"
1776537293.355786,14:34:53.355,-2.0558,1.8842,42.44640477,-76.4716466,4,"$GNGGA,183453.000,4226.784286,N,07628.298796,W,4,42,0.45,272.649,M,-33.937,M,1.0,1302*6C"
1776537294.3896415,14:34:54.389,-2.0517,1.8879,42.4464048,-76.47164655,4,"$GNGGA,183454.000,4226.784288,N,07628.298793,W,4,42,0.57,272.643,M,-33.936,M,1.0,1302*68"
1776537295.3750212,14:34:55.375,-2.0845,1.9212,42.4464051,-76.47164695,4,"$GNGGA,183455.000,4226.784306,N,07628.298817,W,4,42,0.53,272.643,M,-33.937,M,1.0,1302*68"
1776537296.3817604,14:34:56.381,-2.0777,1.9119,42.44640502,-76.47164687,4,"$GNGGA,183456.000,4226.784301,N,07628.298812,W,4,42,0.57,272.639,M,-33.937,M,1.0,1302*60"
1776537297.3676634,14:34:57.367,-2.1092,1.9379,42.44640525,-76.47164725,4,"$GNGGA,183457.000,4226.784315,N,07628.298835,W,4,42,0.49,272.642,M,-33.937,M,1.0,1302*62"
1776537298.404475,14:34:58.404,-2.1092,1.9082,42.44640498,-76.47164725,4,"$GNGGA,183458.000,4226.784299,N,07628.298835,W,4,42,0.51,272.622,M,-33.936,M,1.0,1302*66"
1776537299.3591664,14:34:59.359,-2.1092,1.9008,42.44640492,-76.47164725,4,"$GNGGA,183459.000,4226.784295,N,07628.298835,W,4,42,0.49,272.623,M,-33.937,M,1.0,1302*62"
1776537302.380831,14:35:02.380,-2.1133,1.8953,42.44640487,-76.4716473,4,"$GNGGA,183502.000,4226.784292,N,07628.298838,W,4,42,0.58,272.628,M,-33.936,M,1.0,1302*6D"
1776537303.349988,14:35:03.349,-2.116,1.8897,42.44640482,-76.47164733,4,"$GNGGA,183503.000,4226.784289,N,07628.298840,W,4,42,0.59,272.620,M,-33.937,M,1.0,1302*61"
1776537304.3886726,14:35:04.388,-2.1202,1.9138,42.44640503,-76.47164738,4,"$GNGGA,183504.000,4226.784302,N,07628.298843,W,4,42,0.57,272.625,M,-33.937,M,1.0,1302*6C"
1776537305.3639138,14:35:05.363,-2.1147,1.9008,42.44640492,-76.47164732,4,"$GNGGA,183505.000,4226.784295,N,07628.298839,W,4,42,0.55,272.640,M,-33.937,M,1.0,1302*6E"
1776537306.3936596,14:35:06.393,-2.1366,1.9008,42.44640492,-76.47164758,4,"$GNGGA,183506.000,4226.784295,N,07628.298855,W,4,42,0.55,272.643,M,-33.936,M,1.0,1302*65"
1776537307.3683105,14:35:07.368,-2.1325,1.8971,42.44640488,-76.47164753,4,"$GNGGA,183507.000,4226.784293,N,07628.298852,W,4,42,0.52,272.657,M,-33.937,M,1.0,1302*66"
1776537308.3936908,14:35:08.393,-2.127,1.8934,42.44640485,-76.47164747,4,"$GNGGA,183508.000,4226.784291,N,07628.298848,W,4,42,0.53,272.655,M,-33.936,M,1.0,1302*62"
1776537309.3682659,14:35:09.368,-2.1339,1.8842,42.44640477,-76.47164755,4,"$GNGGA,183509.000,4226.784286,N,07628.298853,W,4,42,0.54,272.655,M,-33.937,M,1.0,1302*69"
1776537312.3897781,14:35:12.389,-2.1462,1.9045,42.44640495,-76.4716477,4,"$GNGGA,183512.000,4226.784297,N,07628.298862,W,4,42,0.51,272.676,M,-33.937,M,1.0,1302*65"
1776537313.3640945,14:35:13.364,-2.1434,1.9212,42.4464051,-76.47164767,4,"$GNGGA,183513.000,4226.784306,N,07628.298860,W,4,42,0.55,272.647,M,-33.937,M,1.0,1302*69"
1776537314.3910265,14:35:14.391,-2.1585,1.9193,42.44640508,-76.47164785,4,"$GNGGA,183514.000,4226.784305,N,07628.298871,W,4,42,0.52,272.665,M,-33.937,M,1.0,1302*6A"
1776537315.3753083,14:35:15.375,-2.1667,1.9064,42.44640497,-76.47164795,4,"$GNGGA,183515.000,4226.784298,N,07628.298877,W,4,42,0.52,272.664,M,-33.937,M,1.0,1302*69"
1776537316.3980424,14:35:16.398,-2.164,1.9342,42.44640522,-76.47164792,4,"$GNGGA,183516.000,4226.784313,N,07628.298875,W,4,42,0.53,272.676,M,-33.937,M,1.0,1302*68"
1776537317.347037,14:35:17.347,-2.1791,1.9527,42.44640538,-76.4716481,4,"$GNGGA,183517.000,4226.784323,N,07628.298886,W,4,42,0.55,272.638,M,-33.937,M,1.0,1302*6A"
1776537318.3956025,14:35:18.395,-2.2092,1.9416,42.44640528,-76.47164847,4,"$GNGGA,183518.000,4226.784317,N,07628.298908,W,4,42,0.46,272.651,M,-33.937,M,1.0,1302*68"
1776537319.3456194,14:35:19.345,-2.2065,1.9156,42.44640505,-76.47164843,4,"$GNGGA,183519.000,4226.784303,N,07628.298906,W,4,42,0.55,272.617,M,-33.936,M,1.0,1302*63"
1776537322.3783002,14:35:22.378,-2.2229,1.9138,42.44640503,-76.47164863,4,"$GNGGA,183522.000,4226.784302,N,07628.298918,W,4,42,0.58,272.629,M,-33.937,M,1.0,1302*64"
1776537323.3425415,14:35:23.342,-2.2215,1.9101,42.446405,-76.47164862,4,"$GNGGA,183523.000,4226.784300,N,07628.298917,W,4,42,0.59,272.628,M,-33.937,M,1.0,1302*68"
