unix_time,human_time,x_meters,y_meters,raw_lat,raw_lon,status_quality,raw_nmea
1776535746.3155892,14:09:06.315,-0.0046,0.0012,42.44637783,-76.47162042,4,"$GNGGA,180906.000,4226.782670,N,07628.297225,W,4,30,0.68,272.645,M,-33.936,M,30.0,1296*52"
1776535747.288493,14:09:07.288,-0.0032,0.0049,42.44637787,-76.4716204,4,"$GNGGA,180907.000,4226.782672,N,07628.297224,W,4,30,0.68,272.650,M,-33.936,M,31.0,1296*55"
1776535748.312542,14:09:08.312,-0.0046,0.0049,42.44637787,-76.47162042,4,"$GNGGA,180908.000,4226.782672,N,07628.297225,W,4,30,0.68,272.637,M,-33.936,M,32.0,1296*59"
1776535749.2966084,14:09:09.296,-0.0059,0.0068,42.44637788,-76.47162043,4,"$GNGGA,180909.000,4226.782673,N,07628.297226,W,4,30,0.68,272.636,M,-33.936,M,33.0,1296*5A"
1776535752.3123972,14:09:12.312,-0.0032,0.0086,42.4463779,-76.4716204,4,"$GNGGA,180912.000,4226.782674,N,07628.297224,W,4,30,0.68,272.649,M,-33.936,M,36.0,1296*58"
1776535753.292233,14:09:13.292,-0.0073,0.0012,42.44637783,-76.47162045,4,"$GNGGA,180913.000,4226.782670,N,07628.297227,W,4,30,0.69,272.642,M,-33.936,M,37.0,1296*55"
1776535754.3110151,14:09:14.311,-0.0087,0.0086,42.4463779,-76.47162047,4,"$GNGGA,180914.000,4226.782674,N,07628.297228,W,4,30,0.71,272.634,M,-33.937,M,38.0,1296*5F"
1776535755.2909386,14:09:15.290,-0.0073,0.0086,42.4463779,-76.47162045,4,"$GNGGA,180915.000,4226.782674,N,07628.297227,W,4,30,0.71,272.643,M,-33.936,M,39.0,1296*51"
1776535756.309832,14:09:16.309,-0.0073,0.0086,42.4463779,-76.47162045,4,"$GNGGA,180916.000,4226.782674,N,07628.297227,W,4,30,0.71,272.631,M,-33.936,M,40.0,1296*59"
1776535757.3197699,14:09:17.319,-0.0073,0.0105,42.44637792,-76.47162045,4,"$GNGGA,180917.000,4226.782675,N,07628.297227,W,4,30,0.71,272.634,M,-33.937,M,41.0,1296*5C"
1776535758.3328068,14:09:18.332,-0.0361,0.0364,42.44637815,-76.4716208,5,"$GNGGA,180918.000,4226.782689,N,07628.297248,W,5,30,0.71,272.639,M,-33.936,M,1.0,1296*60"
1776535759.340635,14:09:19.340,-0.0169,-0.0154,42.44637768,-76.47162057,5,"$GNGGA,180919.000,4226.782661,N,07628.297234,W,5,31,0.71,272.621,M,-33.936,M,1.0,1296*64"
1776535762.4771566,14:09:22.477,-0.0183,-0.0303,42.44637755,-76.47162058,5,"$GNGGA,180922.000,4226.782653,N,07628.297235,W,5,31,0.69,272.614,M,-33.936,M,1.0,1296*63"
1776535763.3947182,14:09:23.394,-0.0224,-0.0247,42.4463776,-76.47162063,5,"$GNGGA,180923.000,4226.782656,N,07628.297238,W,5,31,0.66,272.610,M,-33.937,M,1.0,1296*60"
1776535764.4734993,14:09:24.473,-0.0196,-0.0247,42.4463776,-76.4716206,5,"$GNGGA,180924.000,4226.782656,N,07628.297236,W,5,31,0.67,272.624,M,-33.936,M,1.0,1296*6E"
1776535765.3659554,14:09:25.365,-0.0251,-0.0303,42.44637755,-76.47162067,5,"$GNGGA,180925.000,4226.782653,N,07628.297240,W,5,31,0.66,272.607,M,-33.937,M,1.0,1296*6A"
1776535766.4177415,14:09:26.417,-0.0251,-0.0358,42.4463775,-76.47162067,5,"$GNGGA,180926.000,4226.782650,N,07628.297240,W,5,31,0.64,272.609,M,-33.937,M,1.0,1296*66"
1776535767.3731651,14:09:27.373,-0.0292,-0.0451,42.44637742,-76.47162072,5,"$GNGGA,180927.000,4226.782645,N,07628.297243,W,5,31,0.63,272.597,M,-33.937,M,1.0,1296*63"
1776535768.433435,14:09:28.433,-0.0292,-0.0525,42.44637735,-76.47162072,5,"$GNGGA,180928.000,4226.782641,N,07628.297243,W,5,31,0.65,272.581,M,-33.936,M,1.0,1296*68"
1776535769.401385,14:09:29.401,-0.0306,-0.0617,42.44637727,-76.47162073,5,"$GNGGA,180929.000,4226.782636,N,07628.297244,W,5,31,0.65,272.572,M,-33.936,M,1.0,1296*62"
1776535772.3978317,14:09:32.397,-0.0416,-0.0877,42.44637703,-76.47162087,5,"$GNGGA,180932.000,4226.782622,N,07628.297252,W,5,31,0.65,272.535,M,-33.936,M,1.0,1297*68"
1776535773.3418403,14:09:33.341,-0.0224,-0.0117,42.44637772,-76.47162063,4,"$GNGGA,180933.000,4226.782663,N,07628.297238,W,4,31,0.65,272.552,M,-33.936,M,1.0,1297*60"
1776535774.3311546,14:09:34.331,-0.0196,-0.0099,42.44637773,-76.4716206,4,"$GNGGA,180934.000,4226.782664,N,07628.297236,W,4,31,0.65,272.542,M,-33.936,M,1.0,1297*6F"
1776535775.3261101,14:09:35.326,-0.0169,-0.0303,42.44637755,-76.47162057,4,"$GNGGA,180935.000,4226.782653,N,07628.297234,W,4,31,0.66,272.569,M,-33.936,M,1.0,1297*62"
1776535776.3497283,14:09:36.349,-0.0128,-0.034,42.44637752,-76.47162052,4,"$GNGGA,180936.000,4226.782651,N,07628.297231,W,4,31,0.66,272.566,M,-33.936,M,1.0,1297*69"
1776535777.308554,14:09:37.308,-0.0251,-0.0321,42.44637753,-76.47162067,4,"$GNGGA,180937.000,4226.782652,N,07628.297240,W,4,31,0.66,272.565,M,-33.937,M,1.0,1297*6F"
1776535778.3299153,14:09:38.329,-0.0292,-0.0321,42.44637753,-76.47162072,4,"$GNGGA,180938.000,4226.782652,N,07628.297243,W,4,31,0.64,272.564,M,-33.936,M,1.0,1297*61"
1776535779.3374527,14:09:39.337,-0.0552,-0.0395,42.44637747,-76.47162103,4,"$GNGGA,180939.000,4226.782648,N,07628.297262,W,4,31,0.65,272.558,M,-33.937,M,1.0,1297*67"
1776535782.3521042,14:09:42.352,-0.0676,-0.0469,42.4463774,-76.47162118,4,"$GNGGA,180942.000,4226.782644,N,07628.297271,W,4,31,0.70,272.566,M,-33.936,M,1.0,1297*6D"
1776535783.3286088,14:09:43.328,-0.0648,-0.0432,42.44637743,-76.47162115,4,"$GNGGA,180943.000,4226.782646,N,07628.297269,W,4,31,0.68,272.555,M,-33.936,M,1.0,1297*6E"
1776535784.3514214,14:09:44.351,-0.0594,-0.0358,42.4463775,-76.47162108,4,"$GNGGA,180944.000,4226.782650,N,07628.297265,W,4,31,0.68,272.563,M,-33.936,M,1.0,1297*67"
1776535785.3063362,14:09:45.306,-0.0594,-0.0321,42.44637753,-76.47162108,4,"$GNGGA,180945.000,4226.782652,N,07628.297265,W,4,31,0.69,272.555,M,-33.936,M,1.0,1297*60"
1776535786.3398688,14:09:46.339,-0.0799,-0.0377,42.44637748,-76.47162133,4,"$GNGGA,180946.000,4226.782649,N,07628.297280,W,4,31,0.72,272.554,M,-33.936,M,1.0,1297*69"
1776535787.3509073,14:09:47.350,-0.0731,-0.0395,42.44637747,-76.47162125,4,"$GNGGA,180947.000,4226.782648,N,07628.297275,W,4,31,0.72,272.566,M,-33.936,M,1.0,1297*62"
1776535788.3276165,14:09:48.327,-0.0895,-0.0451,42.44637742,-76.47162145,4,"$GNGGA,180948.000,4226.782645,N,07628.297287,W,4,31,0.70,272.569,M,-33.936,M,1.0,1297*60"
1776535789.2981884,14:09:49.298,-0.0895,-0.0562,42.44637732,-76.47162145,4,"$GNGGA,180949.000,4226.782639,N,07628.297287,W,4,31,0.70,272.566,M,-33.936,M,1.0,1297*65"
1776535792.3304484,14:09:52.330,-0.1128,-0.0358,42.4463775,-76.47162173,4,"$GNGGA,180952.000,4226.782650,N,07628.297304,W,4,32,0.75,272.570,M,-33.936,M,1.0,1297*6B"
1776535793.3219078,14:09:53.321,-0.0977,-0.0321,42.44637753,-76.47162155,4,"$GNGGA,180953.000,4226.782652,N,07628.297293,W,4,32,0.75,272.593,M,-33.937,M,1.0,1297*6B"
1776535794.3391192,14:09:54.339,-0.0977,-0.0303,42.44637755,-76.47162155,4,"$GNGGA,180954.000,4226.782653,N,07628.297293,W,4,32,0.75,272.598,M,-33.936,M,1.0,1297*67"
1776535795.278813,14:09:55.278,-0.1265,-0.034,42.44637752,-76.4716219,4,"$GNGGA,180955.000,4226.782651,N,07628.297314,W,4,32,0.75,272.563,M,-33.936,M,1.0,1297*6E"
1776535796.3129363,14:09:56.312,-0.1183,-0.021,42.44637763,-76.4716218,4,"$GNGGA,180956.000,4226.782658,N,07628.297308,W,4,32,0.76,272.579,M,-33.936,M,1.0,1297*61"
1776535797.291904,14:09:57.291,-0.1224,-0.0247,42.4463776,-76.47162185,4,"$GNGGA,180957.000,4226.782656,N,07628.297311,W,4,32,0.75,272.582,M,-33.936,M,1.0,1297*61"
1776535798.322738,14:09:58.322,-0.1224,-0.0191,42.44637765,-76.47162185,4,"$GNGGA,180958.000,4226.782659,N,07628.297311,W,4,32,0.75,272.575,M,-33.937,M,1.0,1297*68"
1776535799.3159602,14:09:59.315,-0.1237,-0.0303,42.44637755,-76.47162187,4,"$GNGGA,180959.000,4226.782653,N,07628.297312,W,4,32,0.73,272.575,M,-33.936,M,1.0,1297*67"
1776535802.3482883,14:10:02.348,-0.1251,-0.0173,42.44637767,-76.47162188,4,"$GNGGA,181002.000,4226.782660,N,07628.297313,W,4,32,0.68,272.575,M,-33.936,M,1.0,1297*6A"
1776535803.3275273,14:10:03.327,-0.1183,-0.0247,42.4463776,-76.4716218,4,"$GNGGA,181003.000,4226.782656,N,07628.297308,W,4,32,0.67,272.566,M,-33.937,M,1.0,1297*68"
1776535804.3431754,14:10:04.343,-0.1196,-0.0173,42.44637767,-76.47162182,4,"$GNGGA,181004.000,4226.782660,N,07628.297309,W,4,32,0.69,272.567,M,-33.937,M,1.0,1297*64"
1776535805.316208,14:10:05.316,-0.1196,-0.0321,42.44637753,-76.47162182,4,"$GNGGA,181005.000,4226.782652,N,07628.297309,W,4,32,0.69,272.572,M,-33.936,M,2.0,1297*62"
1776535806.3529294,14:10:06.352,-0.1183,-0.0228,42.44637762,-76.4716218,4,"$GNGGA,181006.000,4226.782657,N,07628.297308,W,4,32,0.68,272.573,M,-33.937,M,1.0,1297*67"
1776535807.3601506,14:10:07.360,-0.1306,-0.034,42.44637752,-76.47162195,4,"$GNGGA,181007.000,4226.782651,N,07628.297317,W,4,32,0.70,272.552,M,-33.936,M,1.0,1297*65"
1776535808.3317773,14:10:08.331,-0.132,-0.0321,42.44637753,-76.47162197,4,"$GNGGA,181008.000,4226.782652,N,07628.297318,W,4,32,0.68,272.557,M,-33.937,M,1.0,1297*6B"
1776535809.370934,14:10:09.370,-0.1388,-0.0284,42.44637757,-76.47162205,4,"$GNGGA,181009.000,4226.782654,N,07628.297323,W,4,34,0.67,272.567,M,-33.936,M,1.0,1297*6F"
1776535812.335098,14:10:12.335,-0.1648,-0.0358,42.4463775,-76.47162237,4,"$GNGGA,181012.000,4226.782650,N,07628.297342,W,4,34,0.64,272.557,M,-33.936,M,1.0,1297*66"
1776535813.3164434,14:10:13.316,-0.184,-0.0414,42.44637745,-76.4716226,4,"$GNGGA,181013.000,4226.782647,N,07628.297356,W,4,33,0.63,272.562,M,-33.937,M,1.0,1297*63"
1776535814.340346,14:10:14.340,-0.2032,-0.0432,42.44637743,-76.47162283,4,"$GNGGA,181014.000,4226.782646,N,07628.297370,W,4,33,0.61,272.557,M,-33.936,M,1.0,1297*64"
1776535815.3168805,14:10:15.316,-0.2183,-0.0377,42.44637748,-76.47162302,4,"$GNGGA,181015.000,4226.782649,N,07628.297381,W,4,33,0.62,272.551,M,-33.937,M,1.0,1297*60"
1776535816.3463,14:10:16.346,-0.2237,-0.0617,42.44637727,-76.47162308,4,"$GNGGA,181016.000,4226.782636,N,07628.297385,W,4,34,0.62,272.572,M,-33.936,M,1.0,1297*68"
1776535817.345897,14:10:17.345,-0.2388,-0.0395,42.44637747,-76.47162327,4,"$GNGGA,181017.000,4226.782648,N,07628.297396,W,4,34,0.67,272.553,M,-33.936,M,1.0,1297*64"
1776535818.3581066,14:10:18.358,-0.2635,-0.0469,42.4463774,-76.47162357,4,"$GNGGA,181018.000,4226.782644,N,07628.297414,W,4,34,0.61,272.562,M,-33.937,M,1.0,1297*6F"
1776535819.3123071,14:10:19.312,-0.2731,-0.0469,42.4463774,-76.47162368,4,"$GNGGA,181019.000,4226.782644,N,07628.297421,W,4,34,0.60,272.554,M,-33.936,M,1.0,1297*6D"
1776535822.3390741,14:10:22.339,-0.2607,-0.0488,42.44637738,-76.47162353,4,"$GNGGA,181022.000,4226.782643,N,07628.297412,W,4,34,0.60,272.560,M,-33.937,M,1.0,1297*64"
1776535823.3147786,14:10:23.314,-0.2566,-0.0562,42.44637732,-76.47162348,4,"$GNGGA,181023.000,4226.782639,N,07628.297409,W,4,34,0.56,272.583,M,-33.937,M,1.0,1297*6A"
1776535824.3530388,14:10:24.353,-0.2731,-0.0488,42.44637738,-76.47162368,4,"$GNGGA,181024.000,4226.782643,N,07628.297421,W,4,34,0.60,272.564,M,-33.936,M,1.0,1297*67"
1776535825.3128788,14:10:25.312,-0.2731,-0.0728,42.44637717,-76.47162368,4,"$GNGGA,181025.000,4226.782630,N,07628.297421,W,4,34,0.61,272.554,M,-33.936,M,1.0,1297*60"
1776535826.3403883,14:10:26.340,-0.284,-0.0488,42.44637738,-76.47162382,4,"$GNGGA,181026.000,4226.782643,N,07628.297429,W,4,34,0.62,272.563,M,-33.937,M,1.0,1297*69"
1776535827.3366737,14:10:27.336,-0.2909,-0.0821,42.44637708,-76.4716239,4,"$GNGGA,181027.000,4226.782625,N,07628.297434,W,4,34,0.61,272.567,M,-33.936,M,1.0,1297*62"
1776535828.3490229,14:10:28.349,-0.3059,-0.0673,42.44637722,-76.47162408,4,"$GNGGA,181028.000,4226.782633,N,07628.297445,W,4,34,0.66,272.546,M,-33.936,M,1.0,1297*68"
1776535829.3458545,14:10:29.345,-0.3005,-0.0803,42.4463771,-76.47162402,4,"$GNGGA,181029.000,4226.782626,N,07628.297441,W,4,34,0.54,272.543,M,-33.937,M,1.0,1297*6C"
1776535832.3440673,14:10:32.344,-0.2826,-0.0636,42.44637725,-76.4716238,4,"$GNGGA,181032.000,4226.782635,N,07628.297428,W,4,34,0.70,272.574,M,-33.937,M,1.0,1297*69"
1776535833.3387353,14:10:33.338,-0.2799,-0.0766,42.44637713,-76.47162377,4,"$GNGGA,181033.000,4226.782628,N,07628.297426,W,4,34,0.68,272.573,M,-33.937,M,1.0,1297*64"
1776535834.344519,14:10:34.344,-0.2703,-0.0636,42.44637725,-76.47162365,4,"$GNGGA,181034.000,4226.782635,N,07628.297419,W,4,34,0.73,272.578,M,-33.936,M,1.0,1297*63"
1776535835.3332648,14:10:35.333,-0.2758,-0.0543,42.44637733,-76.47162372,4,"$GNGGA,181035.000,4226.782640,N,07628.297423,W,4,34,0.55,272.570,M,-33.936,M,1.0,1297*65"
1776535836.3624601,14:10:36.362,-0.2744,-0.0562,42.44637732,-76.4716237,4,"$GNGGA,181036.000,4226.782639,N,07628.297422,W,4,34,0.63,272.577,M,-33.937,M,1.0,1297*6A"
1776535837.3163373,14:10:37.316,-0.2909,-0.0599,42.44637728,-76.4716239,4,"$GNGGA,181037.000,4226.782637,N,07628.297434,W,4,34,0.61,272.581,M,-33.936,M,1.0,1297*68"
1776535838.3729594,14:10:38.372,-0.2963,-0.0506,42.44637737,-76.47162397,4,"$GNGGA,181038.000,4226.782642,N,07628.297438,W,4,33,0.61,272.569,M,-33.936,M,1.0,1297*68"
1776535839.3691864,14:10:39.369,-0.3361,-0.0691,42.4463772,-76.47162445,4,"$GNGGA,181039.000,4226.782632,N,07628.297467,W,4,34,0.61,272.549,M,-33.936,M,1.0,1297*61"
1776535842.3532014,14:10:42.353,-0.3457,-0.0766,42.44637713,-76.47162457,4,"$GNGGA,181042.000,4226.782628,N,07628.297474,W,4,35,0.63,272.565,M,-33.936,M,1.0,1297*69"
1776535843.365692,14:10:43.365,-0.3552,-0.0784,42.44637712,-76.47162468,4,"$GNGGA,181043.000,4226.782627,N,07628.297481,W,4,35,0.63,272.574,M,-33.937,M,1.0,1297*6C"
1776535844.353413,14:10:44.353,-0.3648,-0.0728,42.44637717,-76.4716248,4,"$GNGGA,181044.000,4226.782630,N,07628.297488,W,4,35,0.63,272.555,M,-33.937,M,1.0,1297*67"
1776535845.3659387,14:10:45.365,-0.3758,-0.0728,42.44637717,-76.47162493,4,"$GNGGA,181045.000,4226.782630,N,07628.297496,W,4,35,0.57,272.579,M,-33.936,M,1.0,1297*61"
1776535846.3431134,14:10:46.343,-0.3799,-0.0747,42.44637715,-76.47162498,4,"$GNGGA,181046.000,4226.782629,N,07628.297499,W,4,35,0.58,272.583,M,-33.937,M,1.0,1297*6E"
1776535847.311581,14:10:47.311,-0.3991,-0.0747,42.44637715,-76.47162522,4,"$GNGGA,181047.000,4226.782629,N,07628.297513,W,4,35,0.57,272.572,M,-33.937,M,1.0,1297*6D"
1776535848.3325555,14:10:48.332,-0.4196,-0.084,42.44637707,-76.47162547,4,"$GNGGA,181048.000,4226.782624,N,07628.297528,W,4,35,0.70,272.580,M,-33.937,M,1.0,1297*6F"
1776535849.3463662,14:10:49.346,-0.4498,-0.0747,42.44637715,-76.47162583,4,"$GNGGA,181049.000,4226.782629,N,07628.297550,W,4,35,0.60,272.573,M,-33.936,M,1.0,1297*60"
1776535852.344087,14:10:52.344,-0.4854,-0.1043,42.44637688,-76.47162627,4,"$GNGGA,181052.000,4226.782613,N,07628.297576,W,4,35,0.60,272.586,M,-33.936,M,1.0,1297*6D"
1776535853.3120108,14:10:53.312,-0.4881,-0.1025,42.4463769,-76.4716263,4,"$GNGGA,181053.000,4226.782614,N,07628.297578,W,4,35,0.59,272.587,M,-33.936,M,1.0,1297*6E"
1776535854.3402941,14:10:54.340,-0.5155,-0.0951,42.44637697,-76.47162663,4,"$GNGGA,181054.000,4226.782618,N,07628.297598,W,4,35,0.64,272.579,M,-33.937,M,1.0,1297*65"
1776535855.3147867,14:10:55.314,-0.5141,-0.0914,42.446377,-76.47162662,4,"$GNGGA,181055.000,4226.782620,N,07628.297597,W,4,35,0.62,272.575,M,-33.936,M,1.0,1297*6B"
1776535856.366497,14:10:56.366,-0.5539,-0.084,42.44637707,-76.4716271,4,"$GNGGA,181056.000,4226.782624,N,07628.297626,W,4,35,0.67,272.583,M,-33.936,M,1.0,1297*69"
1776535857.296175,14:10:57.296,-0.5511,-0.0895,42.44637702,-76.47162707,4,"$GNGGA,181057.000,4226.782621,N,07628.297624,W,4,35,0.67,272.563,M,-33.936,M,1.0,1297*61"
1776535858.3332105,14:10:58.333,-0.5936,-0.1006,42.44637692,-76.47162758,4,"$GNGGA,181058.000,4226.782615,N,07628.297655,W,4,35,0.63,272.544,M,-33.936,M,1.0,1297*6E"
1776535859.347862,14:10:59.347,-0.5813,-0.0895,42.44637702,-76.47162743,4,"$GNGGA,181059.000,4226.782621,N,07628.297646,W,4,35,0.63,272.569,M,-33.936,M,1.0,1297*65"
1776535862.32501,14:11:02.325,-0.6306,-0.1266,42.44637668,-76.47162803,4,"$GNGGA,181102.000,4226.782601,N,07628.297682,W,4,35,0.64,272.594,M,-33.936,M,1.0,1297*65"
1776535863.3082712,14:11:03.308,-0.6196,-0.1358,42.4463766,-76.4716279,4,"$GNGGA,181103.000,4226.782596,N,07628.297674,W,4,35,0.65,272.576,M,-33.937,M,1.0,1297*6C"
1776535864.3135438,14:11:04.313,-0.6224,-0.1358,42.4463766,-76.47162793,4,"$GNGGA,181104.000,4226.782596,N,07628.297676,W,4,35,0.73,272.586,M,-33.936,M,1.0,1297*60"
1776535865.3260813,14:11:05.326,-0.6251,-0.1506,42.44637647,-76.47162797,4,"$GNGGA,181105.000,4226.782588,N,07628.297678,W,4,35,0.75,272.583,M,-33.937,M,1.0,1297*62"
1776535866.343846,14:11:06.343,-0.6278,-0.1488,42.44637648,-76.471628,4,"$GNGGA,181106.000,4226.782589,N,07628.297680,W,4,35,0.65,272.576,M,-33.936,M,1.0,1297*6D"
1776535867.337465,14:11:07.337,-0.6278,-0.1618,42.44637637,-76.471628,4,"$GNGGA,181107.000,4226.782582,N,07628.297680,W,4,35,0.73,272.573,M,-33.936,M,1.0,1297*65"
1776535868.3681843,14:11:08.368,-0.6402,-0.1488,42.44637648,-76.47162815,4,"$GNGGA,181108.000,4226.782589,N,07628.297689,W,4,35,0.72,272.573,M,-33.936,M,1.0,1297*69"
1776535869.3418348,14:11:09.341,-0.6415,-0.1581,42.4463764,-76.47162817,4,"$GNGGA,181109.000,4226.782584,N,07628.297690,W,4,35,0.72,272.561,M,-33.936,M,1.0,1297*6E"
1776535872.3997266,14:11:12.399,-0.6525,-0.1506,42.44637647,-76.4716283,4,"$GNGGA,181112.000,4226.782588,N,07628.297698,W,4,35,0.78,272.564,M,-33.936,M,1.0,1297*6F"
1776535873.3378522,14:11:13.337,-0.6593,-0.1821,42.44637618,-76.47162838,4,"$GNGGA,181113.000,4226.782571,N,07628.297703,W,4,35,0.67,272.566,M,-33.936,M,1.0,1297*67"
1776535874.3644385,14:11:14.364,-0.6676,-0.1618,42.44637637,-76.47162848,4,"$GNGGA,181114.000,4226.782582,N,07628.297709,W,4,35,0.60,272.569,M,-33.936,M,1.0,1297*6E"
1776535875.3399706,14:11:15.339,-0.6525,-0.1544,42.44637643,-76.4716283,4,"$GNGGA,181115.000,4226.782586,N,07628.297698,W,4,35,0.60,272.593,M,-33.937,M,1.0,1297*66"
1776535876.3380003,14:11:16.338,-0.6648,-0.1636,42.44637635,-76.47162845,4,"$GNGGA,181116.000,4226.782581,N,07628.297707,W,4,35,0.60,272.610,M,-33.936,M,1.0,1297*6C"
1776535877.3082993,14:11:17.308,-0.6607,-0.1562,42.44637642,-76.4716284,4,"$GNGGA,181117.000,4226.782585,N,07628.297704,W,4,35,0.63,272.594,M,-33.936,M,1.0,1297*66"
1776535878.333208,14:11:18.333,-0.6498,-0.1599,42.44637638,-76.47162827,4,"$GNGGA,181118.000,4226.782583,N,07628.297696,W,4,35,0.62,272.583,M,-33.936,M,1.0,1297*62"
1776535879.3035107,14:11:19.303,-0.647,-0.1432,42.44637653,-76.47162823,4,"$GNGGA,181119.000,4226.782592,N,07628.297694,W,4,35,0.66,272.583,M,-33.936,M,1.0,1297*65"
1776535882.3678203,14:11:22.367,-0.6826,-0.1451,42.44637652,-76.47162867,4,"$GNGGA,181122.000,4226.782591,N,07628.297720,W,4,35,0.67,272.562,M,-33.937,M,1.0,1297*6F"
1776535883.318683,14:11:23.318,-0.6785,-0.1469,42.4463765,-76.47162862,4,"$GNGGA,181123.000,4226.782590,N,07628.297717,W,4,35,0.61,272.573,M,-33.937,M,1.0,1297*6D"
1776535884.3380566,14:11:24.338,-0.6799,-0.1525,42.44637645,-76.47162863,4,"$GNGGA,181124.000,4226.782587,N,07628.297718,W,4,35,0.67,272.562,M,-33.936,M,1.0,1297*64"
1776535885.3545067,14:11:25.354,-0.6854,-0.1747,42.44637625,-76.4716287,4,"$GNGGA,181125.000,4226.782575,N,07628.297722,W,4,35,0.70,272.581,M,-33.937,M,1.0,1297*6B"
1776535886.3443074,14:11:26.344,-0.6854,-0.171,42.44637628,-76.4716287,4,"$GNGGA,181126.000,4226.782577,N,07628.297722,W,4,35,0.61,272.561,M,-33.936,M,1.0,1297*65"
1776535887.3183784,14:11:27.318,-0.6881,-0.1747,42.44637625,-76.47162873,4,"$GNGGA,181127.000,4226.782575,N,07628.297724,W,4,35,0.61,272.562,M,-33.936,M,1.0,1297*63"
1776535888.3436146,14:11:28.343,-0.6936,-0.1655,42.44637633,-76.4716288,4,"$GNGGA,181128.000,4226.782580,N,07628.297728,W,4,35,0.61,272.561,M,-33.937,M,1.0,1297*68"
1776535889.323231,14:11:29.323,-0.6881,-0.1673,42.44637632,-76.47162873,4,"$GNGGA,181129.000,4226.782579,N,07628.297724,W,4,35,0.61,272.574,M,-33.936,M,1.0,1297*66"
1776535892.3459544,14:11:32.345,-0.6867,-0.1469,42.4463765,-76.47162872,4,"$GNGGA,181132.000,4226.782590,N,07628.297723,W,4,35,0.64,272.579,M,-33.936,M,1.0,1297*64"
1776535893.3169112,14:11:33.316,-0.6854,-0.1581,42.4463764,-76.4716287,4,"$GNGGA,181133.000,4226.782584,N,07628.297722,W,4,35,0.70,272.564,M,-33.936,M,1.0,1297*68"
1776535894.341116,14:11:34.341,-0.695,-0.1432,42.44637653,-76.47162882,4,"$GNGGA,181134.000,4226.782592,N,07628.297729,W,4,35,0.70,272.570,M,-33.936,M,1.0,1297*66"
1776535895.3291986,14:11:35.329,-0.7018,-0.1488,42.44637648,-76.4716289,4,"$GNGGA,181135.000,4226.782589,N,07628.297734,W,4,35,0.69,272.570,M,-33.937,M,1.0,1297*68"
1776535896.3384275,14:11:36.338,-0.7046,-0.1469,42.4463765,-76.47162893,4,"$GNGGA,181136.000,4226.782590,N,07628.297736,W,4,35,0.61,272.573,M,-33.936,M,1.0,1297*6B"
1776535897.3199189,14:11:37.319,-0.7087,-0.1562,42.44637642,-76.47162898,4,"$GNGGA,181137.000,4226.782585,N,07628.297739,W,4,35,0.61,272.567,M,-33.937,M,1.0,1297*65"
1776535898.3381844,14:11:38.338,-0.7141,-0.1488,42.44637648,-76.47162905,4,"$GNGGA,181138.000,4226.782589,N,07628.297743,W,4,35,0.62,272.568,M,-33.936,M,1.0,1297*66"
1776535899.3450942,14:11:39.345,-0.7251,-0.1562,42.44637642,-76.47162918,4,"$GNGGA,181139.000,4226.782585,N,07628.297751,W,4,35,0.62,272.579,M,-33.937,M,1.0,1297*69"
1776535902.3393147,14:11:42.339,-0.7114,-0.1562,42.44637642,-76.47162902,4,"$GNGGA,181142.000,4226.782585,N,07628.297741,W,4,36,0.67,272.574,M,-33.936,M,1.0,1297*6E"
1776535903.3580413,14:11:43.358,-0.7141,-0.1618,42.44637637,-76.47162905,4,"$GNGGA,181143.000,4226.782582,N,07628.297743,W,4,36,0.73,272.576,M,-33.936,M,1.0,1297*6D"
1776535904.3589878,14:11:44.358,-0.7141,-0.1581,42.4463764,-76.47162905,4,"$GNGGA,181144.000,4226.782584,N,07628.297743,W,4,36,0.67,272.570,M,-33.936,M,1.0,1297*6F"
1776535905.3188965,14:11:45.318,-0.721,-0.1636,42.44637635,-76.47162913,4,"$GNGGA,181145.000,4226.782581,N,07628.297748,W,4,36,0.69,272.581,M,-33.937,M,1.0,1297*61"
1776535906.339292,14:11:46.339,-0.7141,-0.1673,42.44637632,-76.47162905,4,"$GNGGA,181146.000,4226.782579,N,07628.297743,W,4,36,0.67,272.573,M,-33.937,M,1.0,1297*6D"
1776535907.3570828,14:11:47.357,-0.7278,-0.1488,42.44637648,-76.47162922,4,"$GNGGA,181147.000,4226.782589,N,07628.297753,W,4,36,0.69,272.582,M,-33.937,M,1.0,1297*62"
1776535908.3380613,14:11:48.338,-0.7196,-0.1673,42.44637632,-76.47162912,4,"$GNGGA,181148.000,4226.782579,N,07628.297747,W,4,36,0.69,272.592,M,-33.936,M,1.0,1297*67"
1776535909.3178864,14:11:49.317,-0.7183,-0.1655,42.44637633,-76.4716291,4,"$GNGGA,181149.000,4226.782580,N,07628.297746,W,4,36,0.67,272.589,M,-33.937,M,1.0,1297*64"
1776535912.342848,14:11:52.342,-0.7087,-0.1562,42.44637642,-76.47162898,4,"$GNGGA,181152.000,4226.782585,N,07628.297739,W,4,36,0.56,272.581,M,-33.936,M,1.0,1297*68"
1776535913.308751,14:11:53.308,-0.7087,-0.1562,42.44637642,-76.47162898,4,"$GNGGA,181153.000,4226.782585,N,07628.297739,W,4,36,0.61,272.587,M,-33.937,M,1.0,1297*6A"
1776535914.3353996,14:11:54.335,-0.7114,-0.1562,42.44637642,-76.47162902,4,"$GNGGA,181154.000,4226.782585,N,07628.297741,W,4,36,0.62,272.578,M,-33.936,M,1.0,1297*60"
1776535915.3094966,14:11:55.309,-0.7155,-0.1636,42.44637635,-76.47162907,4,"$GNGGA,181155.000,4226.782581,N,07628.297744,W,4,36,0.66,272.581,M,-33.937,M,1.0,1297*63"
1776535916.336846,14:11:56.336,-0.6909,-0.1506,42.44637647,-76.47162877,4,"$GNGGA,181156.000,4226.782588,N,07628.297726,W,4,36,0.68,272.590,M,-33.936,M,1.0,1297*62"
1776535917.355991,14:11:57.355,-0.6909,-0.1729,42.44637627,-76.47162877,4,"$GNGGA,181157.000,4226.782576,N,07628.297726,W,4,36,0.79,272.605,M,-33.937,M,1.0,1297*6C"
1776535918.3367157,14:11:58.336,-0.8511,-0.1414,42.44637655,-76.47163072,4,"$GNGGA,181158.000,4226.782593,N,07628.297843,W,4,36,0.68,272.724,M,-33.936,M,1.0,1297*67"
1776535919.305064,14:11:59.305,-0.9785,-0.1358,42.4463766,-76.47163227,4,"$GNGGA,181159.000,4226.782596,N,07628.297936,W,4,36,0.74,272.646,M,-33.937,M,1.0,1297*69"
1776535922.3127317,14:12:02.312,-0.8265,-0.1488,42.44637648,-76.47163042,4,"$GNGGA,181202.000,4226.782589,N,07628.297825,W,4,36,0.68,272.706,M,-33.936,M,1.0,1297*60"
1776535923.3089309,14:12:03.308,-0.7046,-0.1747,42.44637625,-76.47162893,4,"$GNGGA,181203.000,4226.782575,N,07628.297736,W,4,36,0.71,272.661,M,-33.936,M,1.0,1297*67"
1776535924.3296201,14:12:04.329,-0.6813,-0.1377,42.44637658,-76.47162865,4,"$GNGGA,181204.000,4226.782595,N,07628.297719,W,4,36,0.76,272.612,M,-33.936,M,1.0,1297*60"
1776535925.3081012,14:12:05.308,-0.721,-0.1673,42.44637632,-76.47162913,4,"$GNGGA,181205.000,4226.782579,N,07628.297748,W,4,36,0.65,272.595,M,-33.936,M,1.0,1297*69"
1776535926.3340049,14:12:06.334,-0.7278,-0.1062,42.44637687,-76.47162922,4,"$GNGGA,181206.000,4226.782612,N,07628.297753,W,4,36,0.69,272.630,M,-33.937,M,1.0,1297*6F"
1776535927.3018465,14:12:07.301,-0.7429,-0.2062,42.44637597,-76.4716294,4,"$GNGGA,181207.000,4226.782558,N,07628.297764,W,4,36,0.78,272.589,M,-33.937,M,1.0,1297*66"
1776535928.3274007,14:12:08.327,-0.7128,-0.1284,42.44637667,-76.47162903,4,"$GNGGA,181208.000,4226.782600,N,07628.297742,W,4,36,0.73,272.611,M,-33.937,M,1.0,1297*6A"
1776535929.3323085,14:12:09.332,-0.732,-0.1099,42.44637683,-76.47162927,4,"$GNGGA,181209.000,4226.782610,N,07628.297756,W,4,36,0.70,272.610,M,-33.937,M,1.0,1297*6D"
1776535932.3558583,14:12:12.355,-0.71,-0.1469,42.4463765,-76.471629,4,"$GNGGA,181212.000,4226.782590,N,07628.297740,W,4,36,0.70,272.623,M,-33.936,M,1.0,1297*6A"
1776535933.3163288,14:12:13.316,-0.7306,-0.2044,42.44637598,-76.47162925,4,"$GNGGA,181213.000,4226.782559,N,07628.297755,W,4,36,0.66,272.607,M,-33.936,M,1.0,1297*6B"
1776535934.3379595,14:12:14.337,-0.7141,-0.1618,42.44637637,-76.47162905,4,"$GNGGA,181214.000,4226.782582,N,07628.297743,W,4,36,0.69,272.613,M,-33.936,M,1.0,1297*67"
1776535935.3554506,14:12:15.355,-0.71,-0.1729,42.44637627,-76.471629,4,"$GNGGA,181215.000,4226.782576,N,07628.297740,W,4,36,0.54,272.616,M,-33.936,M,1.0,1297*65"
1776535936.362574,14:12:16.362,-0.7169,-0.1655,42.44637633,-76.47162908,4,"$GNGGA,181216.000,4226.782580,N,07628.297745,W,4,36,0.53,272.606,M,-33.936,M,1.0,1297*6C"
1776535937.3295183,14:12:17.329,-0.7141,-0.1599,42.44637638,-76.47162905,4,"$GNGGA,181217.000,4226.782583,N,07628.297743,W,4,36,0.53,272.611,M,-33.937,M,1.0,1297*6F"
1776535938.3562858,14:12:18.356,-0.7128,-0.1692,42.4463763,-76.47162903,4,"$GNGGA,181218.000,4226.782578,N,07628.297742,W,4,36,0.53,272.610,M,-33.936,M,1.0,1297*65"
1776535939.3323522,14:12:19.332,-0.71,-0.1618,42.44637637,-76.471629,4,"$GNGGA,181219.000,4226.782582,N,07628.297740,W,4,36,0.53,272.612,M,-33.936,M,1.0,1297*61"
1776535942.3457417,14:12:22.345,-0.7141,-0.1488,42.44637648,-76.47162905,4,"$GNGGA,181222.000,4226.782589,N,07628.297743,W,4,36,0.70,272.626,M,-33.936,M,1.0,1297*67"
1776535943.3159544,14:12:23.315,-0.7073,-0.1506,42.44637647,-76.47162897,4,"$GNGGA,181223.000,4226.782588,N,07628.297738,W,4,36,0.68,272.635,M,-33.936,M,1.0,1297*60"
1776535944.342914,14:12:24.342,-0.7169,-0.1506,42.44637647,-76.47162908,4,"$GNGGA,181224.000,4226.782588,N,07628.297745,W,4,36,0.67,272.614,M,-33.937,M,1.0,1297*60"
1776535945.318066,14:12:25.318,-0.7183,-0.1488,42.44637648,-76.4716291,4,"$GNGGA,181225.000,4226.782589,N,07628.297746,W,4,36,0.64,272.599,M,-33.936,M,1.0,1297*67"
1776535946.3585434,14:12:26.358,-0.7306,-0.1432,42.44637653,-76.47162925,4,"$GNGGA,181226.000,4226.782592,N,07628.297755,W,4,36,0.78,272.579,M,-33.936,M,1.0,1297*6F"
1776535947.3758454,14:12:27.375,-0.7306,-0.1358,42.4463766,-76.47162925,4,"$GNGGA,181227.000,4226.782596,N,07628.297755,W,4,36,0.78,272.579,M,-33.936,M,1.0,1297*6A"
1776535948.3383083,14:12:28.338,-0.7456,-0.1414,42.44637655,-76.47162943,4,"$GNGGA,181228.000,4226.782593,N,07628.297766,W,4,36,0.78,272.601,M,-33.937,M,1.0,1297*6D"
1776535949.3567574,14:12:29.356,-0.7415,-0.1358,42.4463766,-76.47162938,4,"$GNGGA,181229.000,4226.782596,N,07628.297763,W,4,36,0.78,272.579,M,-33.936,M,1.0,1297*61"
1776535952.3338614,14:12:32.333,-0.7415,-0.1525,42.44637645,-76.47162938,4,"$GNGGA,181232.000,4226.782587,N,07628.297763,W,4,36,0.74,272.590,M,-33.936,M,1.0,1297*60"
1776535953.3307076,14:12:33.330,-0.7443,-0.1562,42.44637642,-76.47162942,4,"$GNGGA,181233.000,4226.782585,N,07628.297765,W,4,36,0.77,272.577,M,-33.936,M,1.0,1297*6F"
1776535954.330196,14:12:34.330,-0.7415,-0.1506,42.44637647,-76.47162938,4,"$GNGGA,181234.000,4226.782588,N,07628.297763,W,4,36,0.77,272.592,M,-33.936,M,1.0,1297*68"
1776535955.3232672,14:12:35.323,-0.7443,-0.1488,42.44637648,-76.47162942,4,"$GNGGA,181235.000,4226.782589,N,07628.297765,W,4,36,0.74,272.587,M,-33.936,M,1.0,1297*69"
1776535956.3344893,14:12:36.334,-0.7402,-0.1488,42.44637648,-76.47162937,4,"$GNGGA,181236.000,4226.782589,N,07628.297762,W,4,36,0.75,272.591,M,-33.937,M,1.0,1297*6A"
1776535957.3047688,14:12:37.304,-0.7361,-0.1451,42.44637652,-76.47162932,4,"$GNGGA,181237.000,4226.782591,N,07628.297759,W,4,36,0.76,272.589,M,-33.936,M,1.0,1297*61"
1776535958.3292642,14:12:38.329,-0.7374,-0.1358,42.4463766,-76.47162933,4,"$GNGGA,181238.000,4226.782596,N,07628.297760,W,4,36,0.66,272.587,M,-33.937,M,1.0,1297*6D"
1776535959.3292851,14:12:39.329,-0.7443,-0.1469,42.4463765,-76.47162942,4,"$GNGGA,181239.000,4226.782590,N,07628.297765,W,4,36,0.66,272.590,M,-33.936,M,1.0,1297*68"
1776535962.360449,14:12:42.360,-0.7539,-0.1377,42.44637658,-76.47162953,4,"$GNGGA,181242.000,4226.782595,N,07628.297772,W,4,36,0.72,272.577,M,-33.937,M,1.0,1297*6A"
1776535963.374495,14:12:43.374,-0.7635,-0.1432,42.44637653,-76.47162965,4,"$GNGGA,181243.000,4226.782592,N,07628.297779,W,4,36,0.61,272.578,M,-33.937,M,1.0,1297*6A"
1776535964.355961,14:12:44.355,-0.7607,-0.1377,42.44637658,-76.47162962,4,"$GNGGA,181244.000,4226.782595,N,07628.297777,W,4,36,0.63,272.589,M,-33.937,M,1.0,1297*68"
1776535965.3733585,14:12:45.373,-0.7676,-0.1358,42.4463766,-76.4716297,4,"$GNGGA,181245.000,4226.782596,N,07628.297782,W,4,36,0.59,272.581,M,-33.936,M,1.0,1297*60"
1776535966.3639376,14:12:46.363,-0.7772,-0.1377,42.44637658,-76.47162982,4,"$GNGGA,181246.000,4226.782595,N,07628.297789,W,4,36,0.62,272.588,M,-33.936,M,1.0,1297*6A"
1776535967.3370924,14:12:47.337,-0.7813,-0.1377,42.44637658,-76.47162987,4,"$GNGGA,181247.000,4226.782595,N,07628.297792,W,4,36,0.58,272.591,M,-33.936,M,1.0,1297*60"
1776535968.3450139,14:12:48.345,-0.7867,-0.1451,42.44637652,-76.47162993,4,"$GNGGA,181248.000,4226.782591,N,07628.297796,W,4,36,0.54,272.587,M,-33.937,M,1.0,1297*65"
1776535969.3142698,14:12:49.314,-0.7908,-0.1377,42.44637658,-76.47162998,4,"$GNGGA,181249.000,4226.782595,N,07628.297799,W,4,36,0.62,272.587,M,-33.937,M,1.0,1297*6A"
1776535972.354388,14:12:52.354,-0.8073,-0.0914,42.446377,-76.47163018,4,"$GNGGA,181252.000,4226.782620,N,07628.297811,W,4,36,0.73,272.578,M,-33.936,M,1.0,1297*63"
1776535973.3467255,14:12:53.346,-0.8292,-0.1784,42.44637622,-76.47163045,4,"$GNGGA,181253.000,4226.782573,N,07628.297827,W,4,36,0.68,272.510,M,-33.936,M,1.0,1297*66"
1776535974.3125727,14:12:54.312,-0.8018,-0.1821,42.44637618,-76.47163012,4,"$GNGGA,181254.000,4226.782571,N,07628.297807,W,4,36,0.65,272.564,M,-33.937,M,1.0,1297*6E"
1776535975.2892933,14:12:55.289,-0.8059,-0.1469,42.4463765,-76.47163017,4,"$GNGGA,181255.000,4226.782590,N,07628.297810,W,4,36,0.69,272.549,M,-33.937,M,1.0,1297*65"
1776535976.3055928,14:12:56.305,-0.7867,-0.1636,42.44637635,-76.47162993,4,"$GNGGA,181256.000,4226.782581,N,07628.297796,W,4,36,0.70,272.612,M,-33.936,M,1.0,1297*63"
1776535977.3243835,14:12:57.324,-0.7772,-0.1618,42.44637637,-76.47162982,4,"$GNGGA,181257.000,4226.782582,N,07628.297789,W,4,36,0.66,272.617,M,-33.937,M,2.0,1297*6F"
1776535978.3356626,14:12:58.335,-0.7867,-0.1729,42.44637627,-76.47162993,4,"$GNGGA,181258.000,4226.782576,N,07628.297796,W,4,36,0.65,272.609,M,-33.936,M,1.0,1297*6B"
1776535979.297159,14:12:59.297,-0.7881,-0.1599,42.44637638,-76.47162995,4,"$GNGGA,181259.000,4226.782583,N,07628.297797,W,4,36,0.61,272.608,M,-33.936,M,1.0,1297*64"
1776535982.3638492,14:13:02.363,-0.7772,-0.1895,42.44637612,-76.47162982,4,"$GNGGA,181302.000,4226.782567,N,07628.297789,W,4,36,0.63,272.552,M,-33.936,M,1.0,1297*60"
1776535983.3155305,14:13:03.315,-0.773,-0.1914,42.4463761,-76.47162977,4,"$GNGGA,181303.000,4226.782566,N,07628.297786,W,4,36,0.66,272.560,M,-33.936,M,1.0,1297*6B"
1776535984.3336582,14:13:04.333,-0.7758,-0.1914,42.4463761,-76.4716298,4,"$GNGGA,181304.000,4226.782566,N,07628.297788,W,4,36,0.61,272.555,M,-33.936,M,1.0,1297*63"
1776535985.350817,14:13:05.350,-0.7785,-0.2025,42.446376,-76.47162983,4,"$GNGGA,181305.000,4226.782560,N,07628.297790,W,4,36,0.62,272.537,M,-33.936,M,1.0,1297*6A"
1776535986.3458538,14:13:06.345,-0.7785,-0.1951,42.44637607,-76.47162983,4,"$GNGGA,181306.000,4226.782564,N,07628.297790,W,4,36,0.53,272.555,M,-33.936,M,1.0,1297*6B"
1776535987.3152642,14:13:07.315,-0.7826,-0.1914,42.4463761,-76.47162988,4,"$GNGGA,181307.000,4226.782566,N,07628.297793,W,4,36,0.53,272.563,M,-33.937,M,1.0,1297*6F"
1776535988.373585,14:13:08.373,-0.7772,-0.1766,42.44637623,-76.47162982,4,"$GNGGA,181308.000,4226.782574,N,07628.297789,W,4,36,0.54,272.568,M,-33.936,M,1.0,1297*65"
1776535989.3451047,14:13:09.345,-0.7772,-0.1821,42.44637618,-76.47162982,4,"$GNGGA,181309.000,4226.782571,N,07628.297789,W,4,36,0.62,272.567,M,-33.936,M,1.0,1297*6B"
1776535992.3504512,14:13:12.350,-0.7922,-0.1784,42.44637622,-76.47163,4,"$GNGGA,181312.000,4226.782573,N,07628.297800,W,4,36,0.62,272.563,M,-33.936,M,1.0,1297*69"
1776535993.324299,14:13:13.324,-0.7908,-0.1747,42.44637625,-76.47162998,4,"$GNGGA,181313.000,4226.782575,N,07628.297799,W,4,36,0.67,272.565,M,-33.937,M,1.0,1297*63"
1776535994.3499758,14:13:14.349,-0.7936,-0.1747,42.44637625,-76.47163002,4,"$GNGGA,181314.000,4226.782575,N,07628.297801,W,4,36,0.62,272.561,M,-33.936,M,1.0,1297*6A"
1776535995.3322518,14:13:15.332,-0.7977,-0.1858,42.44637615,-76.47163007,4,"$GNGGA,181315.000,4226.782569,N,07628.297804,W,4,36,0.65,272.541,M,-33.936,M,1.0,1297*66"
1776535996.3538895,14:13:16.353,-0.7922,-0.1821,42.44637618,-76.47163,4,"$GNGGA,181316.000,4226.782571,N,07628.297800,W,4,36,0.65,272.553,M,-33.936,M,1.0,1297*6B"
1776535997.3102667,14:13:17.310,-0.7922,-0.1895,42.44637612,-76.47163,4,"$GNGGA,181317.000,4226.782567,N,07628.297800,W,4,36,0.63,272.560,M,-33.936,M,1.0,1297*6B"
1776535998.337132,14:13:18.337,-0.7963,-0.1969,42.44637605,-76.47163005,4,"$GNGGA,181318.000,4226.782563,N,07628.297803,W,4,36,0.64,272.558,M,-33.936,M,1.0,1297*6F"
1776535999.3174164,14:13:19.317,-0.7977,-0.1914,42.4463761,-76.47163007,4,"$GNGGA,181319.000,4226.782566,N,07628.297804,W,4,36,0.66,272.570,M,-33.936,M,1.0,1297*64"
1776536002.352726,14:13:22.352,-0.7662,-0.2007,42.44637602,-76.47162968,4,"$GNGGA,181322.000,4226.782561,N,07628.297781,W,4,36,0.66,272.534,M,-33.936,M,1.0,1297*69"
1776536003.2894754,14:13:23.289,-0.8443,-0.2044,42.44637598,-76.47163063,4,"$GNGGA,181323.000,4226.782559,N,07628.297838,W,4,36,0.73,272.719,M,-33.937,M,1.0,1297*66"
1776536004.3346941,14:13:24.334,-1.0196,-0.1766,42.44637623,-76.47163277,4,"$GNGGA,181324.000,4226.782574,N,07628.297966,W,4,36,0.71,272.659,M,-33.936,M,1.0,1297*62"
1776536005.292376,14:13:25.292,-1.0785,-0.1821,42.44637618,-76.47163348,4,"$GNGGA,181325.000,4226.782571,N,07628.298009,W,4,36,0.70,272.572,M,-33.936,M,1.0,1297*62"
1776536006.3118825,14:13:26.311,-1.0785,-0.1895,42.44637612,-76.47163348,4,"$GNGGA,181326.000,4226.782567,N,07628.298009,W,4,36,0.70,272.575,M,-33.936,M,1.0,1297*61"
1776536007.329482,14:13:27.329,-1.0374,-0.1729,42.44637627,-76.47163298,4,"$GNGGA,181327.000,4226.782576,N,07628.297979,W,4,36,0.68,272.685,M,-33.936,M,1.0,1297*64"
1776536008.3357613,14:13:28.335,-0.8676,-0.184,42.44637617,-76.47163092,4,"$GNGGA,181328.000,4226.782570,N,07628.297855,W,4,36,0.79,272.690,M,-33.936,M,1.0,1297*66"
1776536009.32923,14:13:29.329,-0.7991,-0.1766,42.44637623,-76.47163008,4,"$GNGGA,181329.000,4226.782574,N,07628.297805,W,4,36,0.77,272.621,M,-33.936,M,1.0,1297*62"
1776536012.3154228,14:13:32.315,-0.7963,-0.1173,42.44637677,-76.47163005,4,"$GNGGA,181332.000,4226.782606,N,07628.297803,W,4,36,0.68,272.608,M,-33.936,M,1.0,1297*6D"
1776536013.3227522,14:13:33.322,-0.7867,-0.1618,42.44637637,-76.47162993,4,"$GNGGA,181333.000,4226.782582,N,07628.297796,W,4,36,0.59,272.595,M,-33.937,M,1.0,1297*64"
1776536014.3348837,14:13:34.334,-0.8046,-0.2007,42.44637602,-76.47163015,4,"$GNGGA,181334.000,4226.782561,N,07628.297809,W,4,36,0.65,272.599,M,-33.936,M,1.0,1297*65"
1776536015.3215935,14:13:35.321,-0.8319,-0.134,42.44637662,-76.47163048,4,"$GNGGA,181335.000,4226.782597,N,07628.297829,W,4,36,0.60,272.571,M,-33.936,M,1.0,1297*6C"
1776536016.3489404,14:13:36.348,-0.7936,-0.1803,42.4463762,-76.47163002,4,"$GNGGA,181336.000,4226.782572,N,07628.297801,W,4,36,0.60,272.577,M,-33.936,M,1.0,1297*68"
1776536017.319538,14:13:37.319,-0.795,-0.1766,42.44637623,-76.47163003,4,"$GNGGA,181337.000,4226.782574,N,07628.297802,W,4,36,0.60,272.578,M,-33.937,M,1.0,1297*62"
1776536018.3293884,14:13:38.329,-0.8388,-0.1099,42.44637683,-76.47163057,4,"$GNGGA,181338.000,4226.782610,N,07628.297834,W,4,36,0.60,272.591,M,-33.936,M,1.0,1297*6F"
1776536019.3120859,14:13:39.312,-0.7895,-0.1636,42.44637635,-76.47162997,4,"$GNGGA,181339.000,4226.782581,N,07628.297798,W,4,36,0.64,272.560,M,-33.936,M,1.0,1297*66"
1776536022.3469222,14:13:42.346,-0.7963,-0.171,42.44637628,-76.47163005,4,"$GNGGA,181342.000,4226.782577,N,07628.297803,W,4,36,0.61,272.549,M,-33.937,M,1.0,1297*61"
1776536023.3602688,14:13:43.360,-0.7881,-0.1599,42.44637638,-76.47162995,4,"$GNGGA,181343.000,4226.782583,N,07628.297797,W,4,36,0.59,272.573,M,-33.937,M,1.0,1297*6B"
1776536024.3409092,14:13:44.340,-0.795,-0.1636,42.44637635,-76.47163003,4,"$GNGGA,181344.000,4226.782581,N,07628.297802,W,4,36,0.67,272.562,M,-33.936,M,1.0,1297*61"
1776536025.3294334,14:13:45.329,-0.7867,-0.1599,42.44637638,-76.47162993,4,"$GNGGA,181345.000,4226.782583,N,07628.297796,W,4,36,0.59,272.568,M,-33.936,M,1.0,1297*67"
1776536026.3526063,14:13:46.352,-0.7881,-0.1618,42.44637637,-76.47162995,4,"$GNGGA,181346.000,4226.782582,N,07628.297797,W,4,36,0.58,272.563,M,-33.936,M,1.0,1297*6E"
1776536027.3223116,14:13:47.322,-0.7908,-0.1506,42.44637647,-76.47162998,4,"$GNGGA,181347.000,4226.782588,N,07628.297799,W,4,36,0.58,272.579,M,-33.936,M,1.0,1297*60"
1776536028.3576856,14:13:48.357,-0.7977,-0.1488,42.44637648,-76.47163007,4,"$GNGGA,181348.000,4226.782589,N,07628.297804,W,4,36,0.58,272.562,M,-33.936,M,1.0,1297*6F"
1776536029.3211591,14:13:49.321,-0.8018,-0.1432,42.44637653,-76.47163012,4,"$GNGGA,181349.000,4226.782592,N,07628.297807,W,4,36,0.67,272.563,M,-33.936,M,1.0,1297*6A"
1776536032.353369,14:13:52.353,-0.821,-0.1525,42.44637645,-76.47163035,4,"$GNGGA,181352.000,4226.782587,N,07628.297821,W,4,36,0.63,272.574,M,-33.937,M,1.0,1297*63"
1776536033.3273804,14:13:53.327,-0.8251,-0.1525,42.44637645,-76.4716304,4,"$GNGGA,181353.000,4226.782587,N,07628.297824,W,4,36,0.57,272.581,M,-33.936,M,1.0,1297*6B"
1776536034.369824,14:13:54.369,-0.8224,-0.1488,42.44637648,-76.47163037,4,"$GNGGA,181354.000,4226.782589,N,07628.297822,W,4,36,0.60,272.577,M,-33.936,M,1.0,1297*69"
1776536035.3358028,14:13:55.335,-0.8265,-0.1581,42.4463764,-76.47163042,4,"$GNGGA,181355.000,4226.782584,N,07628.297825,W,4,36,0.61,272.571,M,-33.936,M,1.0,1297*65"
1776536036.3597138,14:13:56.359,-0.8251,-0.1506,42.44637647,-76.4716304,4,"$GNGGA,181356.000,4226.782588,N,07628.297824,W,4,36,0.63,272.577,M,-33.936,M,1.0,1297*6F"
1776536037.3198764,14:13:57.319,-0.8196,-0.1488,42.44637648,-76.47163033,4,"$GNGGA,181357.000,4226.782589,N,07628.297820,W,4,36,0.64,272.594,M,-33.936,M,1.0,1297*61"
1776536038.3378146,14:13:58.337,-0.8196,-0.1414,42.44637655,-76.47163033,4,"$GNGGA,181358.000,4226.782593,N,07628.297820,W,4,36,0.60,272.605,M,-33.936,M,1.0,1297*6A"
1776536039.3042617,14:13:59.304,-0.8196,-0.1506,42.44637647,-76.47163033,4,"$GNGGA,181359.000,4226.782588,N,07628.297820,W,4,36,0.83,272.603,M,-33.936,M,1.0,1297*6A"
1776536042.3093114,14:14:02.309,-0.9251,-0.1544,42.44637643,-76.47163162,4,"$GNGGA,181402.000,4226.782586,N,07628.297897,W,4,36,0.77,272.698,M,-33.936,M,1.0,1297*68"
1776536043.3261645,14:14:03.326,-1.0717,-0.1247,42.4463767,-76.4716334,4,"$GNGGA,181403.000,4226.782602,N,07628.298004,W,4,36,0.63,272.591,M,-33.937,M,1.0,1297*65"
1776536044.3095684,14:14:04.309,-1.1045,-0.0803,42.4463771,-76.4716338,4,"$GNGGA,181404.000,4226.782626,N,07628.298028,W,4,36,0.80,272.542,M,-33.937,M,1.0,1297*69"
1776536045.3239772,14:14:05.323,-1.1045,-0.1192,42.44637675,-76.4716338,4,"$GNGGA,181405.000,4226.782605,N,07628.298028,W,4,36,0.79,272.536,M,-33.936,M,1.0,1297*6D"
1776536046.3281498,14:14:06.328,-1.0196,-0.1432,42.44637653,-76.47163277,4,"$GNGGA,181406.000,4226.782592,N,07628.297966,W,4,36,0.66,272.661,M,-33.936,M,1.0,1297*60"
1776536047.2917323,14:14:07.291,-0.8539,-0.1432,42.44637653,-76.47163075,4,"$GNGGA,181407.000,4226.782592,N,07628.297845,W,4,36,0.75,272.658,M,-33.936,M,1.0,1297*69"
1776536048.3173404,14:14:08.317,-0.773,-0.1395,42.44637657,-76.47162977,4,"$GNGGA,181408.000,4226.782594,N,07628.297786,W,4,36,0.65,272.652,M,-33.936,M,1.0,1297*6B"
1776536049.2865615,14:14:09.286,-0.8004,-0.1451,42.44637652,-76.4716301,4,"$GNGGA,181409.000,4226.782591,N,07628.297806,W,4,36,0.74,272.548,M,-33.936,M,1.0,1297*60"
1776536052.3415573,14:14:12.341,-0.8443,-0.0821,42.44637708,-76.47163063,4,"$GNGGA,181412.000,4226.782625,N,07628.297838,W,4,36,0.59,272.602,M,-33.937,M,1.0,1297*68"
1776536053.2732077,14:14:13.273,-0.8443,-0.1673,42.44637632,-76.47163063,4,"$GNGGA,181413.000,4226.782579,N,07628.297838,W,4,36,0.66,272.586,M,-33.936,M,1.0,1297*61"
1776536054.3215878,14:14:14.321,-0.8292,-0.0988,42.44637693,-76.47163045,4,"$GNGGA,181414.000,4226.782616,N,07628.297827,W,4,36,0.61,272.534,M,-33.937,M,1.0,1297*6D"
1776536055.3405857,14:14:15.340,-0.8251,-0.1136,42.4463768,-76.4716304,4,"$GNGGA,181415.000,4226.782608,N,07628.297824,W,4,36,0.64,272.563,M,-33.936,M,1.0,1297*66"
1776536056.3301983,14:14:16.330,-0.8443,-0.1969,42.44637605,-76.47163063,4,"$GNGGA,181416.000,4226.782563,N,07628.297838,W,4,36,0.62,272.580,M,-33.936,M,1.0,1297*6D"
1776536057.2908561,14:14:17.290,-0.8429,-0.0988,42.44637693,-76.47163062,4,"$GNGGA,181417.000,4226.782616,N,07628.297837,W,4,36,0.68,272.576,M,-33.936,M,1.0,1297*61"
1776536058.3214707,14:14:18.321,-0.8333,-0.1581,42.4463764,-76.4716305,4,"$GNGGA,181418.000,4226.782584,N,07628.297830,W,4,36,0.68,272.545,M,-33.936,M,1.0,1297*61"
1776536059.3035805,14:14:19.303,-0.8306,-0.1747,42.44637625,-76.47163047,4,"$GNGGA,181419.000,4226.782575,N,07628.297828,W,4,36,0.68,272.556,M,-33.937,M,1.0,1297*64"
1776536062.3525004,14:14:22.352,-0.8265,-0.1581,42.4463764,-76.47163042,4,"$GNGGA,181422.000,4226.782584,N,07628.297825,W,4,36,0.65,272.556,M,-33.936,M,1.0,1297*63"
1776536063.3020368,14:14:23.302,-0.8333,-0.1673,42.44637632,-76.4716305,4,"$GNGGA,181423.000,4226.782579,N,07628.297830,W,4,36,0.64,272.549,M,-33.937,M,1.0,1297*6A"
1776536064.3320994,14:14:24.332,-0.8347,-0.1803,42.4463762,-76.47163052,4,"$GNGGA,181424.000,4226.782572,N,07628.297831,W,4,36,0.67,272.542,M,-33.936,M,1.0,1297*6E"
1776536065.3344872,14:14:25.334,-0.8265,-0.1636,42.44637635,-76.47163042,4,"$GNGGA,181425.000,4226.782581,N,07628.297825,W,4,36,0.67,272.559,M,-33.937,M,1.0,1297*6D"
1776536066.3641205,14:14:26.364,-0.8319,-0.1618,42.44637637,-76.47163048,4,"$GNGGA,181426.000,4226.782582,N,07628.297829,W,4,36,0.61,272.542,M,-33.937,M,1.0,1297*6D"
1776536067.2998583,14:14:27.299,-0.8114,-0.121,42.44637673,-76.47163023,4,"$GNGGA,181427.000,4226.782604,N,07628.297814,W,4,36,0.59,272.592,M,-33.936,M,1.0,1297*68"
1776536068.3213773,14:14:28.321,-0.8278,-0.1377,42.44637658,-76.47163043,4,"$GNGGA,181428.000,4226.782595,N,07628.297826,W,4,36,0.65,272.558,M,-33.936,M,1.0,1297*64"
1776536069.3018,14:14:29.301,-0.8347,-0.1321,42.44637663,-76.47163052,4,"$GNGGA,181429.000,4226.782598,N,07628.297831,W,4,36,0.56,272.561,M,-33.937,M,1.0,1297*65"
1776536072.3550594,14:14:32.355,-0.8292,-0.1414,42.44637655,-76.47163045,4,"$GNGGA,181432.000,4226.782593,N,07628.297827,W,4,36,0.72,272.592,M,-33.937,M,1.0,1297*69"
1776536073.3073456,14:14:33.307,-0.7963,-0.1266,42.44637668,-76.47163005,4,"$GNGGA,181433.000,4226.782601,N,07628.297803,W,4,36,0.55,272.582,M,-33.936,M,1.0,1297*63"
1776536074.3572807,14:14:34.357,-0.8552,-0.1229,42.44637672,-76.47163077,4,"$GNGGA,181434.000,4226.782603,N,07628.297846,W,4,36,0.67,272.636,M,-33.936,M,1.0,1297*6A"
1776536075.3056707,14:14:35.305,-1.0182,-0.1544,42.44637643,-76.47163275,4,"$GNGGA,181435.000,4226.782586,N,07628.297965,W,4,36,0.78,272.678,M,-33.936,M,1.0,1297*61"
1776536076.332795,14:14:36.332,-1.0977,-0.1469,42.4463765,-76.47163372,4,"$GNGGA,181436.000,4226.782590,N,07628.298023,W,4,36,0.56,272.538,M,-33.936,M,1.0,1297*6A"
1776536077.2972806,14:14:37.297,-1.0908,-0.1729,42.44637627,-76.47163363,4,"$GNGGA,181437.000,4226.782576,N,07628.298018,W,4,36,0.70,272.541,M,-33.937,M,1.0,1297*60"
1776536078.3280418,14:14:38.328,-1.0813,-0.1358,42.4463766,-76.47163352,4,"$GNGGA,181438.000,4226.782596,N,07628.298011,W,4,36,0.55,272.585,M,-33.937,M,1.0,1297*67"
1776536079.3481123,14:14:39.348,-0.9511,-0.1562,42.44637642,-76.47163193,4,"$GNGGA,181439.000,4226.782585,N,07628.297916,W,4,36,0.52,272.713,M,-33.936,M,1.0,1297*6E"
1776536082.2656298,14:14:42.265,-0.8128,-0.0673,42.44637722,-76.47163025,5,"$GNGGA,181442.000,4226.782633,N,07628.297815,W,5,35,0.65,271.826,M,-33.937,M,1.0,1297*63"
1776536083.2445972,14:14:43.244,-0.8155,-0.1025,42.4463769,-76.47163028,5,"$GNGGA,181443.000,4226.782614,N,07628.297817,W,5,36,0.48,271.788,M,-33.937,M,1.0,1297*62"
1776536084.2808995,14:14:44.280,-0.7772,0.0198,42.446378,-76.47162982,5,"$GNGGA,181444.000,4226.782680,N,07628.297789,W,5,35,0.59,271.723,M,-33.937,M,1.0,1297*62"
1776536085.2857904,14:14:45.285,-0.7758,0.0235,42.44637803,-76.4716298,5,"$GNGGA,181445.000,4226.782682,N,07628.297788,W,5,36,0.55,271.728,M,-33.936,M,1.0,1297*65"
1776536086.2959664,14:14:46.295,-0.7676,0.105,42.44637877,-76.4716297,5,"$GNGGA,181446.000,4226.782726,N,07628.297782,W,5,36,0.68,271.727,M,-33.936,M,1.0,1297*62"
1776536087.27112,14:14:47.271,-0.773,0.029,42.44637808,-76.47162977,5,"$GNGGA,181447.000,4226.782685,N,07628.297786,W,5,36,0.60,271.746,M,-33.937,M,1.0,1297*61"
1776536088.2667046,14:14:48.266,-0.7991,-0.0117,42.44637772,-76.47163008,5,"$GNGGA,181448.000,4226.782663,N,07628.297805,W,5,36,0.70,271.657,M,-33.936,M,1.0,1297*63"
1776536089.2263355,14:14:49.226,-0.7977,0.0438,42.44637822,-76.47163007,5,"$GNGGA,181449.000,4226.782693,N,07628.297804,W,5,36,0.74,271.597,M,-33.936,M,1.0,1297*67"
1776536092.2899797,14:14:52.289,-0.7004,-0.0043,42.44637778,-76.47162888,5,"$GNGGA,181452.000,4226.782667,N,07628.297733,W,5,36,0.75,271.773,M,-33.936,M,1.0,1297*64"
1776536093.2919805,14:14:53.291,-0.7552,-0.0006,42.44637782,-76.47162955,5,"$GNGGA,181453.000,4226.782669,N,07628.297773,W,5,36,0.76,271.658,M,-33.936,M,1.0,1297*64"
1776536094.2736342,14:14:54.273,-0.5895,-0.0766,42.44637713,-76.47162753,5,"$GNGGA,181454.000,4226.782628,N,07628.297652,W,5,36,0.70,271.949,M,-33.936,M,1.0,1297*6D"
1776536095.2858007,14:14:55.285,-0.584,-0.034,42.44637752,-76.47162747,5,"$GNGGA,181455.000,4226.782651,N,07628.297648,W,5,36,0.64,271.842,M,-33.936,M,1.0,1297*66"
1776536096.312799,14:14:56.312,-0.5429,-0.0099,42.44637773,-76.47162697,5,"$GNGGA,181456.000,4226.782664,N,07628.297618,W,5,36,0.73,271.922,M,-33.937,M,1.0,1297*66"
1776536097.2824113,14:14:57.282,-0.5415,-0.008,42.44637775,-76.47162695,5,"$GNGGA,181457.000,4226.782665,N,07628.297617,W,5,36,0.64,271.936,M,-33.937,M,1.0,1297*6A"
1776536098.287916,14:14:58.287,-0.5265,-0.0469,42.4463774,-76.47162677,5,"$GNGGA,181458.000,4226.782644,N,07628.297606,W,5,36,0.68,271.954,M,-33.936,M,1.0,1297*6F"
1776536099.3092232,14:14:59.309,-0.5073,-0.0266,42.44637758,-76.47162653,5,"$GNGGA,181459.000,4226.782655,N,07628.297592,W,5,36,0.73,271.984,M,-33.936,M,1.0,1297*67"
1776536102.306276,14:15:02.306,-0.495,-0.021,42.44637763,-76.47162638,5,"$GNGGA,181502.000,4226.782658,N,07628.297583,W,5,36,0.69,271.980,M,-33.937,M,2.0,1297*68"
1776536103.3362448,14:15:03.336,-0.4909,-0.0395,42.44637747,-76.47162633,5,"$GNGGA,181503.000,4226.782648,N,07628.297580,W,5,36,0.68,271.954,M,-33.937,M,1.0,1297*60"
1776536104.3168125,14:15:04.316,-0.4772,0.0272,42.44637807,-76.47162617,5,"$GNGGA,181504.000,4226.782684,N,07628.297570,W,5,36,0.67,272.011,M,-33.936,M,1.0,1297*6D"
1776536105.331793,14:15:05.331,-0.8511,-0.1377,42.44637658,-76.47163072,4,"$GNGGA,181505.000,4226.782595,N,07628.297843,W,4,36,0.70,272.595,M,-33.936,M,1.0,1297*6C"
1776536106.3349752,14:15:06.334,-0.8552,-0.134,42.44637662,-76.47163077,4,"$GNGGA,181506.000,4226.782597,N,07628.297846,W,4,36,0.78,272.586,M,-33.937,M,1.0,1297*63"
1776536107.2878692,14:15:07.287,-0.8525,-0.1284,42.44637667,-76.47163073,4,"$GNGGA,181507.000,4226.782600,N,07628.297844,W,4,36,0.60,272.562,M,-33.936,M,1.0,1297*6F"
1776536108.3091137,14:15:08.309,-0.8593,-0.1506,42.44637647,-76.47163082,4,"$GNGGA,181508.000,4226.782588,N,07628.297849,W,4,36,0.73,272.585,M,-33.937,M,1.0,1297*64"
1776536109.3274636,14:15:09.327,-0.8621,-0.1599,42.44637638,-76.47163085,4,"$GNGGA,181509.000,4226.782583,N,07628.297851,W,4,36,0.71,272.568,M,-33.936,M,1.0,1297*67"
1776536112.2943947,14:15:12.294,-0.8676,-0.171,42.44637628,-76.47163092,4,"$GNGGA,181512.000,4226.782577,N,07628.297855,W,4,36,0.69,272.591,M,-33.936,M,1.0,1297*6D"
1776536113.3100638,14:15:13.310,-0.8744,-0.1784,42.44637622,-76.471631,4,"$GNGGA,181513.000,4226.782573,N,07628.297860,W,4,36,0.69,272.627,M,-33.936,M,1.0,1297*60"
1776536114.306034,14:15:14.306,-0.8717,-0.1692,42.4463763,-76.47163097,4,"$GNGGA,181514.000,4226.782578,N,07628.297858,W,4,36,0.68,272.620,M,-33.936,M,1.0,1297*61"
1776536115.323646,14:15:15.323,-0.8552,-0.1303,42.44637665,-76.47163077,4,"$GNGGA,181515.000,4226.782599,N,07628.297846,W,4,36,0.65,272.600,M,-33.937,M,1.0,1297*6E"
1776536116.3286567,14:15:16.328,-0.8648,-0.1432,42.44637653,-76.47163088,4,"$GNGGA,181516.000,4226.782592,N,07628.297853,W,4,36,0.59,272.603,M,-33.936,M,1.0,1297*6F"
1776536117.2731688,14:15:17.273,-0.8689,-0.1914,42.4463761,-76.47163093,4,"$GNGGA,181517.000,4226.782566,N,07628.297856,W,4,36,0.56,272.583,M,-33.936,M,1.0,1297*64"
1776536118.287365,14:15:18.287,-0.8511,-0.121,42.44637673,-76.47163072,4,"$GNGGA,181518.000,4226.782604,N,07628.297843,W,4,36,0.73,272.573,M,-33.936,M,1.0,1297*60"
1776536119.3178453,14:15:19.317,-0.8511,-0.1117,42.44637682,-76.47163072,4,"$GNGGA,181519.000,4226.782609,N,07628.297843,W,4,36,0.57,272.575,M,-33.936,M,1.0,1297*6C"
1776536122.3109772,14:15:22.310,-0.8484,-0.1117,42.44637682,-76.47163068,4,"$GNGGA,181522.000,4226.782609,N,07628.297841,W,4,36,0.69,272.607,M,-33.936,M,1.0,1297*6D"
1776536123.334402,14:15:23.334,-0.8525,-0.121,42.44637673,-76.47163073,4,"$GNGGA,181523.000,4226.782604,N,07628.297844,W,4,36,0.67,272.596,M,-33.936,M,1.0,1297*61"
1776536124.3315177,14:15:24.331,-0.8525,-0.1192,42.44637675,-76.47163073,4,"$GNGGA,181524.000,4226.782605,N,07628.297844,W,4,36,0.70,272.602,M,-33.936,M,1.0,1297*6F"
1776536125.2712362,14:15:25.271,-0.8539,-0.1136,42.4463768,-76.47163075,4,"$GNGGA,181525.000,4226.782608,N,07628.297845,W,4,36,0.69,272.568,M,-33.937,M,1.0,1297*64"
1776536126.3180842,14:15:26.318,-0.8525,-0.1155,42.44637678,-76.47163073,4,"$GNGGA,181526.000,4226.782607,N,07628.297844,W,4,36,0.70,272.608,M,-33.937,M,1.0,1297*64"
1776536127.3275287,14:15:27.327,-0.8498,-0.1155,42.44637678,-76.4716307,4,"$GNGGA,181527.000,4226.782607,N,07628.297842,W,4,36,0.68,272.599,M,-33.936,M,1.0,1297*60"
1776536128.342525,14:15:28.342,-0.8525,-0.121,42.44637673,-76.47163073,4,"$GNGGA,181528.000,4226.782604,N,07628.297844,W,4,36,0.67,272.594,M,-33.937,M,1.0,1297*69"
1776536129.2847779,14:15:29.284,-0.8511,-0.1155,42.44637678,-76.47163072,4,"$GNGGA,181529.000,4226.782607,N,07628.297843,W,4,36,0.67,272.592,M,-33.937,M,1.0,1297*6A"
1776536132.3835154,14:15:32.383,-0.8566,-0.1266,42.44637668,-76.47163078,4,"$GNGGA,181532.000,4226.782601,N,07628.297847,W,4,36,0.67,272.582,M,-33.937,M,1.0,1297*63"
1776536133.3044832,14:15:33.304,-0.858,-0.134,42.44637662,-76.4716308,4,"$GNGGA,181533.000,4226.782597,N,07628.297848,W,4,36,0.67,272.612,M,-33.936,M,1.0,1297*6A"
1776536134.348017,14:15:34.348,-0.8566,-0.1358,42.4463766,-76.47163078,4,"$GNGGA,181534.000,4226.782596,N,07628.297847,W,4,36,0.75,272.589,M,-33.936,M,1.0,1297*61"
1776536135.297553,14:15:35.297,-0.8498,-0.134,42.44637662,-76.4716307,4,"$GNGGA,181535.000,4226.782597,N,07628.297842,W,4,36,0.70,272.582,M,-33.937,M,1.0,1297*6B"
1776536136.332149,14:15:36.332,-0.8402,-0.121,42.44637673,-76.47163058,4,"$GNGGA,181536.000,4226.782604,N,07628.297835,W,4,36,0.69,272.559,M,-33.936,M,1.0,1297*6E"
1776536137.3221266,14:15:37.322,-0.8415,-0.1266,42.44637668,-76.4716306,4,"$GNGGA,181537.000,4226.782601,N,07628.297836,W,4,36,0.72,272.564,M,-33.936,M,1.0,1297*6D"
1776536138.3327618,14:15:38.332,-0.8388,-0.1117,42.44637682,-76.47163057,4,"$GNGGA,181538.000,4226.782609,N,07628.297834,W,4,36,0.76,272.546,M,-33.937,M,1.0,1297*6D"
1776536139.359353,14:15:39.359,-0.8347,-0.1173,42.44637677,-76.47163052,4,"$GNGGA,181539.000,4226.782606,N,07628.297831,W,4,36,0.59,272.558,M,-33.937,M,1.0,1297*64"
1776536142.3688018,14:15:42.368,-0.8402,-0.0969,42.44637695,-76.47163058,4,"$GNGGA,181542.000,4226.782617,N,07628.297835,W,4,36,0.73,272.549,M,-33.936,M,1.0,1297*65"
1776536143.3305094,14:15:43.330,-0.8347,-0.1266,42.44637668,-76.47163052,4,"$GNGGA,181543.000,4226.782601,N,07628.297831,W,4,36,0.77,272.531,M,-33.936,M,1.0,1297*6C"
1776536144.3546743,14:15:44.354,-0.8402,-0.1062,42.44637687,-76.47163058,4,"$GNGGA,181544.000,4226.782612,N,07628.297835,W,4,36,0.70,272.528,M,-33.936,M,2.0,1297*61"
1776536145.3780987,14:15:45.378,-0.8402,-0.1155,42.44637678,-76.47163058,4,"$GNGGA,181545.000,4226.782607,N,07628.297835,W,4,36,0.73,272.534,M,-33.936,M,1.0,1297*69"
1776536146.3614984,14:15:46.361,-0.8415,-0.1155,42.44637678,-76.4716306,4,"$GNGGA,181546.000,4226.782607,N,07628.297836,W,4,36,0.68,272.542,M,-33.937,M,1.0,1297*63"
1776536147.3482354,14:15:47.348,-0.8361,-0.1099,42.44637683,-76.47163053,4,"$GNGGA,181547.000,4226.782610,N,07628.297832,W,4,36,0.73,272.549,M,-33.936,M,1.0,1297*60"
1776536148.376769,14:15:48.376,-0.8402,-0.1136,42.4463768,-76.47163058,4,"$GNGGA,181548.000,4226.782608,N,07628.297835,W,4,36,0.70,272.542,M,-33.936,M,1.0,1297*69"
1776536149.388934,14:15:49.388,-0.8374,-0.1117,42.44637682,-76.47163055,4,"$GNGGA,181549.000,4226.782609,N,07628.297833,W,4,36,0.70,272.542,M,-33.936,M,1.0,1297*6F"
1776536152.3805654,14:15:52.380,-0.8388,-0.1173,42.44637677,-76.47163057,4,"$GNGGA,181552.000,4226.782606,N,07628.297834,W,4,36,0.70,272.540,M,-33.936,M,1.0,1297*6F"
1776536153.326768,14:15:53.326,-0.8361,-0.1136,42.4463768,-76.47163053,4,"$GNGGA,181553.000,4226.782608,N,07628.297832,W,4,36,0.70,272.539,M,-33.936,M,1.0,1297*68"
1776536154.3648207,14:15:54.364,-0.8374,-0.1155,42.44637678,-76.47163055,4,"$GNGGA,181554.000,4226.782607,N,07628.297833,W,4,37,0.66,272.546,M,-33.936,M,1.0,1297*6F"
1776536155.3346975,14:15:55.334,-0.8374,-0.1136,42.4463768,-76.47163055,4,"$GNGGA,181555.000,4226.782608,N,07628.297833,W,4,37,0.63,272.541,M,-33.937,M,1.0,1297*62"
1776536156.3626022,14:15:56.362,-0.8374,-0.1136,42.4463768,-76.47163055,4,"$GNGGA,181556.000,4226.782608,N,07628.297833,W,4,37,0.60,272.540,M,-33.937,M,1.0,1297*63"
1776536157.3853588,14:15:57.385,-0.8361,-0.1062,42.44637687,-76.47163053,4,"$GNGGA,181557.000,4226.782612,N,07628.297832,W,4,37,0.61,272.544,M,-33.936,M,1.0,1297*6C"
1776536158.360181,14:15:58.360,-0.8374,-0.1173,42.44637677,-76.47163055,4,"$GNGGA,181558.000,4226.782606,N,07628.297833,W,4,37,0.64,272.551,M,-33.937,M,1.0,1297*67"
1776536159.3374085,14:15:59.337,-0.8374,-0.1173,42.44637677,-76.47163055,4,"$GNGGA,181559.000,4226.782606,N,07628.297833,W,4,37,0.63,272.546,M,-33.936,M,1.0,1297*66"
1776536162.3633173,14:16:02.363,-0.8347,-0.1099,42.44637683,-76.47163052,4,"$GNGGA,181602.000,4226.782610,N,07628.297831,W,4,37,0.71,272.543,M,-33.936,M,1.0,1297*68"
1776536163.3422005,14:16:03.342,-0.8374,-0.1173,42.44637677,-76.47163055,4,"$GNGGA,181603.000,4226.782606,N,07628.297833,W,4,37,0.59,272.540,M,-33.937,M,1.0,1297*64"
