unix_time,human_time,x_meters,y_meters,raw_lat,raw_lon,status_quality,raw_nmea
1777319826.1615863,15:57:06.161,0.0314,-0.049,42.44641655,-76.47108532,1,"$GNGGA,195706.000,4226.784993,N,07628.265119,W,1,29,0.74,277.784,M,-33.936,M,,*45"
1777319827.1236472,15:57:07.123,0.0355,-0.0527,42.44641652,-76.47108527,1,"$GNGGA,195707.000,4226.784991,N,07628.265116,W,1,29,0.74,277.785,M,-33.937,M,,*49"
1777319828.2353868,15:57:08.235,1.2669,-2.3179,42.44639613,-76.47107028,5,"$GNGGA,195708.000,4226.783768,N,07628.264217,W,5,29,0.70,282.779,M,-33.936,M,1.0,0707*6D"
1777319829.1778626,15:57:09.177,1.6683,-2.3253,42.44639607,-76.4710654,5,"$GNGGA,195709.000,4226.783764,N,07628.263924,W,5,29,0.70,283.648,M,-33.937,M,1.0,0707*6F"
1777319832.217501,15:57:12.217,1.8245,-2.5976,42.44639362,-76.4710635,5,"$GNGGA,195712.000,4226.783617,N,07628.263810,W,5,28,0.71,284.258,M,-33.936,M,1.0,0707*65"
1777319833.2133086,15:57:13.213,1.8149,-2.7124,42.44639258,-76.47106362,5,"$GNGGA,195713.000,4226.783555,N,07628.263817,W,5,28,0.64,284.169,M,-33.936,M,1.0,0707*63"
1777319834.2210257,15:57:14.221,1.7752,-2.7736,42.44639203,-76.4710641,5,"$GNGGA,195714.000,4226.783522,N,07628.263846,W,5,26,0.70,284.095,M,-33.936,M,1.0,0707*69"
1777319835.1804368,15:57:15.180,1.8368,-2.6643,42.44639302,-76.47106335,5,"$GNGGA,195715.000,4226.783581,N,07628.263801,W,5,27,0.70,284.129,M,-33.936,M,1.0,0707*65"
1777319836.2142687,15:57:16.214,1.8368,-2.568,42.44639388,-76.47106335,5,"$GNGGA,195716.000,4226.783633,N,07628.263801,W,5,27,0.67,284.286,M,-33.937,M,1.0,0707*6D"
1777319837.177259,15:57:17.177,1.793,-2.5958,42.44639363,-76.47106388,5,"$GNGGA,195717.000,4226.783618,N,07628.263833,W,5,28,0.70,284.290,M,-33.936,M,1.0,0707*6B"
1777319838.2104266,15:57:18.210,1.7642,-2.4994,42.4463945,-76.47106423,5,"$GNGGA,195718.000,4226.783670,N,07628.263854,W,5,28,0.75,284.379,M,-33.936,M,1.0,0707*68"
1777319839.1865354,15:57:19.186,1.6628,-2.5143,42.44639437,-76.47106547,5,"$GNGGA,195719.000,4226.783662,N,07628.263928,W,5,28,0.73,284.210,M,-33.936,M,1.0,0707*68"
1777319842.220121,15:57:22.220,1.8847,-3.2663,42.4463876,-76.47106277,5,"$GNGGA,195722.000,4226.783256,N,07628.263766,W,5,28,0.75,282.723,M,-33.936,M,1.0,0707*62"
1777319843.1944888,15:57:23.194,2.4642,-4.3164,42.44637815,-76.47105572,5,"$GNGGA,195723.000,4226.782689,N,07628.263343,W,5,28,0.77,281.419,M,-33.937,M,1.0,0707*6D"
1777319844.2250555,15:57:24.225,2.4066,-3.8775,42.4463821,-76.47105642,5,"$GNGGA,195724.000,4226.782926,N,07628.263385,W,5,28,0.73,282.321,M,-33.936,M,1.0,0707*60"
1777319845.2179728,15:57:25.217,2.5231,-4.0201,42.44638082,-76.471055,5,"$GNGGA,195725.000,4226.782849,N,07628.263300,W,5,28,0.69,282.280,M,-33.937,M,1.0,0707*64"
1777319846.2539172,15:57:26.253,2.6381,-4.3665,42.4463777,-76.4710536,5,"$GNGGA,195726.000,4226.782662,N,07628.263216,W,5,28,0.69,281.491,M,-33.936,M,1.0,0707*62"
1777319847.2167287,15:57:27.216,2.945,-5.5778,42.4463668,-76.47104987,5,"$GNGGA,195727.000,4226.782008,N,07628.262992,W,5,28,0.68,279.945,M,-33.937,M,1.0,0707*6C"
1777319848.3170214,15:57:28.317,3.1395,-5.7167,42.44636555,-76.4710475,5,"$GNGGA,195728.000,4226.781933,N,07628.262850,W,5,28,0.67,279.638,M,-33.936,M,1.0,0707*65"
1777319849.2631714,15:57:29.263,3.297,-6.0834,42.44636225,-76.47104558,5,"$GNGGA,195729.000,4226.781735,N,07628.262735,W,5,28,0.70,278.823,M,-33.936,M,1.0,0707*63"
1777319852.287488,15:57:32.287,3.4642,-6.2353,42.44636088,-76.47104355,5,"$GNGGA,195732.000,4226.781653,N,07628.262613,W,5,28,0.76,278.057,M,-33.936,M,1.0,0707*60"
1777319853.2960775,15:57:33.296,3.4505,-6.5502,42.44635805,-76.47104372,5,"$GNGGA,195733.000,4226.781483,N,07628.262623,W,5,28,0.56,278.311,M,-33.937,M,1.0,0707*6F"
1777319854.285877,15:57:34.285,3.5833,-7.0836,42.44635325,-76.4710421,5,"$GNGGA,195734.000,4226.781195,N,07628.262526,W,5,27,0.75,276.952,M,-33.937,M,1.0,0707*61"
1777319855.2704527,15:57:35.270,3.6326,-7.1688,42.44635248,-76.4710415,5,"$GNGGA,195735.000,4226.781149,N,07628.262490,W,5,28,0.80,276.255,M,-33.936,M,1.0,0707*65"
1777319856.3035674,15:57:36.303,3.6518,-7.3781,42.4463506,-76.47104127,5,"$GNGGA,195736.000,4226.781036,N,07628.262476,W,5,28,0.69,276.393,M,-33.937,M,1.0,0707*6A"
1777319857.286819,15:57:37.286,3.6436,-7.6374,42.44634827,-76.47104137,5,"$GNGGA,195737.000,4226.780896,N,07628.262482,W,5,29,0.81,276.678,M,-33.936,M,1.0,0707*65"
1777319858.2879212,15:57:38.287,3.6628,-7.7912,42.44634688,-76.47104113,5,"$GNGGA,195738.000,4226.780813,N,07628.262468,W,5,29,0.81,276.840,M,-33.936,M,1.0,0707*66"
1777319859.2732341,15:57:39.273,3.6943,-7.7875,42.44634692,-76.47104075,5,"$GNGGA,195739.000,4226.780815,N,07628.262445,W,5,30,0.65,276.835,M,-33.936,M,1.0,0707*6E"
1777319862.3175855,15:57:42.317,3.9463,-7.8708,42.44634617,-76.47103768,5,"$GNGGA,195742.000,4226.780770,N,07628.262261,W,5,30,0.70,276.054,M,-33.936,M,1.0,0707*65"
1777319863.2883568,15:57:43.288,3.9559,-7.6893,42.4463478,-76.47103757,5,"$GNGGA,195743.000,4226.780868,N,07628.262254,W,5,30,0.68,275.464,M,-33.936,M,1.0,0707*69"
1777319864.3296454,15:57:44.329,3.9491,-7.5726,42.44634885,-76.47103765,5,"$GNGGA,195744.000,4226.780931,N,07628.262259,W,5,30,0.68,275.450,M,-33.937,M,1.0,0707*68"
1777319865.3051612,15:57:45.305,3.9546,-7.3189,42.44635113,-76.47103758,5,"$GNGGA,195745.000,4226.781068,N,07628.262255,W,5,30,0.70,275.124,M,-33.936,M,1.0,0707*6F"
1777319866.3361208,15:57:46.336,3.9737,-7.3522,42.44635083,-76.47103735,5,"$GNGGA,195746.000,4226.781050,N,07628.262241,W,5,30,0.68,275.163,M,-33.936,M,1.0,0707*68"
1777319867.2749867,15:57:47.274,3.934,-7.1096,42.44635302,-76.47103783,5,"$GNGGA,195747.000,4226.781181,N,07628.262270,W,5,30,0.77,274.492,M,-33.937,M,1.0,0707*63"
1777319868.325912,15:57:48.325,3.8929,-6.9503,42.44635445,-76.47103833,5,"$GNGGA,195748.000,4226.781267,N,07628.262300,W,5,30,0.77,273.952,M,-33.936,M,1.0,0707*66"
1777319869.3100688,15:57:49.310,3.8929,-7.0095,42.44635392,-76.47103833,5,"$GNGGA,195749.000,4226.781235,N,07628.262300,W,5,30,0.77,273.091,M,-33.937,M,1.0,0707*67"
1777319872.296595,15:57:52.296,3.7765,-6.715,42.44635657,-76.47103975,5,"$GNGGA,195752.000,4226.781394,N,07628.262385,W,5,28,0.77,272.503,M,-33.936,M,1.0,0707*6D"
1777319873.2816064,15:57:53.281,3.7546,-6.6391,42.44635725,-76.47104002,5,"$GNGGA,195753.000,4226.781435,N,07628.262401,W,5,29,0.77,272.215,M,-33.937,M,1.0,0707*6B"
1777319874.3178566,15:57:54.317,3.7176,-6.7521,42.44635623,-76.47104047,5,"$GNGGA,195754.000,4226.781374,N,07628.262428,W,5,29,0.72,272.132,M,-33.937,M,1.0,0707*66"
1777319875.3007293,15:57:55.300,3.6203,-6.6243,42.44635738,-76.47104165,5,"$GNGGA,195755.000,4226.781443,N,07628.262499,W,5,29,0.77,272.439,M,-33.936,M,1.0,0707*64"
1777319876.2740023,15:57:56.274,3.6751,-6.5317,42.44635822,-76.47104098,5,"$GNGGA,195756.000,4226.781493,N,07628.262459,W,5,29,0.72,272.091,M,-33.936,M,1.0,0707*65"
1777319877.274329,15:57:57.274,3.6505,-6.4335,42.4463591,-76.47104128,5,"$GNGGA,195757.000,4226.781546,N,07628.262477,W,5,29,0.68,272.113,M,-33.936,M,1.0,0707*61"
1777319878.3097303,15:57:58.309,3.5477,-6.6187,42.44635743,-76.47104253,5,"$GNGGA,195758.000,4226.781446,N,07628.262552,W,5,30,0.72,272.180,M,-33.937,M,1.0,0707*61"
1777319879.2961736,15:57:59.296,3.5285,-6.6928,42.44635677,-76.47104277,5,"$GNGGA,195759.000,4226.781406,N,07628.262566,W,5,29,0.72,272.638,M,-33.936,M,1.0,0707*6E"
1777319882.3133504,15:58:02.313,3.3409,-7.0336,42.4463537,-76.47104505,5,"$GNGGA,195802.000,4226.781222,N,07628.262703,W,5,29,0.63,272.827,M,-33.936,M,1.0,0707*6E"
1777319883.3037488,15:58:03.303,3.3464,-7.0262,42.44635377,-76.47104498,5,"$GNGGA,195803.000,4226.781226,N,07628.262699,W,5,29,0.64,273.109,M,-33.936,M,1.0,0707*6A"
1777319884.2621963,15:58:04.262,3.3628,-6.9984,42.44635402,-76.47104478,5,"$GNGGA,195804.000,4226.781241,N,07628.262687,W,5,29,0.59,272.948,M,-33.937,M,1.0,0707*60"
1777319885.2449555,15:58:05.244,3.3943,-6.9688,42.44635428,-76.4710444,5,"$GNGGA,195805.000,4226.781257,N,07628.262664,W,5,30,0.59,272.614,M,-33.936,M,1.0,0707*64"
1777319886.2499192,15:58:06.249,3.3532,-6.9855,42.44635413,-76.4710449,5,"$GNGGA,195806.000,4226.781248,N,07628.262694,W,5,30,0.68,272.695,M,-33.937,M,1.0,0707*6C"
1777319887.2514982,15:58:07.251,3.3532,-7.0021,42.44635398,-76.4710449,5,"$GNGGA,195807.000,4226.781239,N,07628.262694,W,5,30,0.56,272.972,M,-33.936,M,1.0,0707*61"
1777319888.2440848,15:58:08.244,3.3669,-7.0207,42.44635382,-76.47104473,5,"$GNGGA,195808.000,4226.781229,N,07628.262684,W,5,30,0.68,273.248,M,-33.936,M,1.0,0707*60"
1777319889.2461414,15:58:09.246,3.3779,-7.0281,42.44635375,-76.4710446,5,"$GNGGA,195809.000,4226.781225,N,07628.262676,W,5,30,0.65,272.968,M,-33.936,M,1.0,0707*65"
1777319892.276812,15:58:12.276,3.3929,-7.0725,42.44635335,-76.47104442,5,"$GNGGA,195812.000,4226.781201,N,07628.262665,W,5,30,0.74,272.879,M,-33.936,M,1.0,0707*6A"
1777319893.2642155,15:58:13.264,3.3888,-7.1188,42.44635293,-76.47104447,5,"$GNGGA,195813.000,4226.781176,N,07628.262668,W,5,30,0.74,272.995,M,-33.937,M,1.0,0707*67"
1777319894.2963727,15:58:14.296,3.3203,-7.1781,42.4463524,-76.4710453,5,"$GNGGA,195814.000,4226.781144,N,07628.262718,W,5,30,0.60,273.190,M,-33.936,M,1.0,0707*6F"
1777319895.2871625,15:58:15.287,3.3368,-7.2059,42.44635215,-76.4710451,5,"$GNGGA,195815.000,4226.781129,N,07628.262706,W,5,30,0.60,273.396,M,-33.937,M,1.0,0707*6F"
1777319896.3020136,15:58:16.302,3.3491,-7.2133,42.44635208,-76.47104495,5,"$GNGGA,195816.000,4226.781125,N,07628.262697,W,5,30,0.72,273.483,M,-33.937,M,1.0,0707*69"
1777319897.2961862,15:58:17.296,3.3518,-7.2318,42.44635192,-76.47104492,5,"$GNGGA,195817.000,4226.781115,N,07628.262695,W,5,30,0.71,273.555,M,-33.936,M,1.0,0707*61"
1777319898.3190231,15:58:18.319,3.3642,-7.2374,42.44635187,-76.47104477,5,"$GNGGA,195818.000,4226.781112,N,07628.262686,W,5,30,0.72,273.525,M,-33.937,M,1.0,0707*6E"
1777319899.3050315,15:58:19.305,3.3984,-7.2689,42.44635158,-76.47104435,5,"$GNGGA,195819.000,4226.781095,N,07628.262661,W,5,30,0.72,273.588,M,-33.936,M,1.0,0707*6E"
1777319902.3240252,15:58:22.324,3.4162,-7.3207,42.44635112,-76.47104413,5,"$GNGGA,195822.000,4226.781067,N,07628.262648,W,5,30,0.79,273.762,M,-33.936,M,1.0,0707*6D"
1777319903.2836537,15:58:23.283,3.4176,-7.3226,42.4463511,-76.47104412,5,"$GNGGA,195823.000,4226.781066,N,07628.262647,W,5,30,0.79,273.784,M,-33.936,M,1.0,0707*6A"
1777319904.2880013,15:58:24.288,3.4107,-7.2985,42.44635132,-76.4710442,5,"$GNGGA,195824.000,4226.781079,N,07628.262652,W,5,29,0.82,273.854,M,-33.937,M,1.0,0707*68"
1777319905.2733111,15:58:25.273,3.4422,-7.3263,42.44635107,-76.47104382,5,"$GNGGA,195825.000,4226.781064,N,07628.262629,W,5,29,0.80,273.848,M,-33.936,M,1.0,0707*67"
1777319906.287412,15:58:26.287,3.4203,-7.3355,42.44635098,-76.47104408,5,"$GNGGA,195826.000,4226.781059,N,07628.262645,W,5,29,0.73,273.898,M,-33.937,M,1.0,0707*60"
1777319907.2707667,15:58:27.270,3.4436,-7.33,42.44635103,-76.4710438,5,"$GNGGA,195827.000,4226.781062,N,07628.262628,W,5,29,0.76,273.981,M,-33.936,M,1.0,0707*6F"
1777319908.285258,15:58:28.285,3.445,-7.3504,42.44635085,-76.47104378,5,"$GNGGA,195828.000,4226.781051,N,07628.262627,W,5,29,0.77,273.989,M,-33.937,M,1.0,0707*67"
1777319909.2707186,15:58:29.270,3.434,-7.2485,42.44635177,-76.47104392,5,"$GNGGA,195829.000,4226.781106,N,07628.262635,W,5,28,0.73,273.837,M,-33.937,M,1.0,0707*67"
1777319912.2721367,15:58:32.272,3.4806,-7.443,42.44635002,-76.47104335,5,"$GNGGA,195832.000,4226.781001,N,07628.262601,W,5,30,0.73,273.621,M,-33.936,M,1.0,0707*6D"
1777319913.2644224,15:58:33.264,3.5107,-7.38,42.44635058,-76.47104298,5,"$GNGGA,195833.000,4226.781035,N,07628.262579,W,5,30,0.71,273.641,M,-33.936,M,1.0,0707*63"
1777319914.2654374,15:58:34.265,3.5326,-7.3448,42.4463509,-76.47104272,5,"$GNGGA,195834.000,4226.781054,N,07628.262563,W,5,30,0.69,273.684,M,-33.936,M,1.0,0707*68"
1777319915.2505417,15:58:35.250,3.5436,-7.304,42.44635127,-76.47104258,5,"$GNGGA,195835.000,4226.781076,N,07628.262555,W,5,30,0.72,273.724,M,-33.937,M,1.0,0707*6C"
1777319916.2998364,15:58:36.299,3.5724,-7.2281,42.44635195,-76.47104223,5,"$GNGGA,195836.000,4226.781117,N,07628.262534,W,5,30,0.73,273.630,M,-33.936,M,1.0,0707*6A"
1777319917.2842734,15:58:37.284,3.5998,-7.1818,42.44635237,-76.4710419,5,"$GNGGA,195837.000,4226.781142,N,07628.262514,W,5,30,0.74,273.411,M,-33.936,M,1.0,0707*6F"
1777319918.2582343,15:58:38.258,3.6285,-7.1281,42.44635285,-76.47104155,5,"$GNGGA,195838.000,4226.781171,N,07628.262493,W,5,30,0.71,273.387,M,-33.936,M,1.0,0707*63"
1777319919.2422357,15:58:39.242,3.671,-7.0447,42.4463536,-76.47104103,5,"$GNGGA,195839.000,4226.781216,N,07628.262462,W,5,30,0.74,273.294,M,-33.936,M,1.0,0707*68"
1777319922.2416453,15:58:42.241,3.8052,-6.8503,42.44635535,-76.4710394,5,"$GNGGA,195842.000,4226.781321,N,07628.262364,W,5,30,0.69,273.110,M,-33.936,M,1.0,0707*63"
1777319923.241236,15:58:43.241,3.8162,-6.7743,42.44635603,-76.47103927,5,"$GNGGA,195843.000,4226.781362,N,07628.262356,W,5,30,0.71,273.090,M,-33.937,M,1.0,0707*65"
1777319924.235278,15:58:44.235,3.7998,-6.7632,42.44635613,-76.47103947,5,"$GNGGA,195844.000,4226.781368,N,07628.262368,W,5,30,0.80,273.118,M,-33.937,M,1.0,0707*6A"
1777319925.2636657,15:58:45.263,3.797,-6.6965,42.44635673,-76.4710395,5,"$GNGGA,195845.000,4226.781404,N,07628.262370,W,5,30,0.73,273.106,M,-33.936,M,1.0,0707*6D"
1777319926.2263396,15:58:46.226,3.8504,-6.6132,42.44635748,-76.47103885,5,"$GNGGA,195846.000,4226.781449,N,07628.262331,W,5,30,0.66,273.119,M,-33.936,M,1.0,0707*68"
1777319927.252945,15:58:47.252,3.8957,-6.5243,42.44635828,-76.4710383,5,"$GNGGA,195847.000,4226.781497,N,07628.262298,W,5,30,0.71,273.036,M,-33.936,M,1.0,0707*62"
1777319928.2525513,15:58:48.252,3.9463,-6.478,42.4463587,-76.47103768,5,"$GNGGA,195848.000,4226.781522,N,07628.262261,W,5,30,0.71,272.998,M,-33.936,M,1.0,0707*68"
1777319929.2377994,15:58:49.237,3.9628,-6.4632,42.44635883,-76.47103748,5,"$GNGGA,195849.000,4226.781530,N,07628.262249,W,5,30,0.67,273.020,M,-33.937,M,1.0,0707*6D"
1777319932.2441256,15:58:52.244,3.9847,-6.5391,42.44635815,-76.47103722,5,"$GNGGA,195852.000,4226.781489,N,07628.262233,W,5,30,0.66,273.061,M,-33.937,M,1.0,0707*6D"
1777319933.2314806,15:58:53.231,3.9833,-6.5446,42.4463581,-76.47103723,5,"$GNGGA,195853.000,4226.781486,N,07628.262234,W,5,30,0.66,273.025,M,-33.936,M,1.0,0707*65"
1777319934.2470546,15:58:54.247,4.0025,-6.5502,42.44635805,-76.471037,5,"$GNGGA,195854.000,4226.781483,N,07628.262220,W,5,30,0.79,273.037,M,-33.936,M,1.0,0707*6F"
1777319935.2323298,15:58:55.232,4.0121,-6.6095,42.44635752,-76.47103688,5,"$GNGGA,195855.000,4226.781451,N,07628.262213,W,5,30,0.69,273.092,M,-33.936,M,1.0,0707*6F"
1777319936.3049085,15:58:56.304,4.0436,-6.6095,42.44635752,-76.4710365,5,"$GNGGA,195856.000,4226.781451,N,07628.262190,W,5,30,0.67,273.116,M,-33.936,M,1.0,0707*67"
1777319937.24626,15:58:57.246,4.0121,-6.6261,42.44635737,-76.47103688,5,"$GNGGA,195857.000,4226.781442,N,07628.262213,W,5,30,0.72,273.136,M,-33.936,M,1.0,0707*6A"
1777319938.2495275,15:58:58.249,4.0409,-6.6002,42.4463576,-76.47103653,5,"$GNGGA,195858.000,4226.781456,N,07628.262192,W,5,30,0.72,273.049,M,-33.936,M,1.0,0707*63"
1777319939.2354114,15:58:59.235,4.0313,-6.6817,42.44635687,-76.47103665,5,"$GNGGA,195859.000,4226.781412,N,07628.262199,W,5,30,0.71,273.170,M,-33.937,M,1.0,0707*60"
1777319942.264937,15:59:02.264,3.997,-6.8002,42.4463558,-76.47103707,5,"$GNGGA,195902.000,4226.781348,N,07628.262224,W,5,30,0.71,273.292,M,-33.936,M,1.0,0707*6C"
1777319943.234088,15:59:03.234,3.997,-6.8169,42.44635565,-76.47103707,5,"$GNGGA,195903.000,4226.781339,N,07628.262224,W,5,29,0.68,273.360,M,-33.937,M,1.0,0707*66"
1777319944.253574,15:59:04.253,4.0148,-6.8447,42.4463554,-76.47103685,5,"$GNGGA,195904.000,4226.781324,N,07628.262211,W,5,29,0.76,273.396,M,-33.936,M,1.0,0707*6C"
1777319945.2369676,15:59:05.236,3.9751,-6.8725,42.44635515,-76.47103733,5,"$GNGGA,195905.000,4226.781309,N,07628.262240,W,5,29,0.56,273.419,M,-33.936,M,1.0,0707*64"
1777319946.2590528,15:59:06.259,3.9929,-6.8762,42.44635512,-76.47103712,5,"$GNGGA,195906.000,4226.781307,N,07628.262227,W,5,29,0.85,273.452,M,-33.936,M,1.0,0707*69"
1777319947.183685,15:59:07.183,3.9902,-6.8669,42.4463552,-76.47103715,5,"$GNGGA,195907.000,4226.781312,N,07628.262229,W,5,29,0.76,273.492,M,-33.936,M,1.0,0707*62"
1777319948.207813,15:59:08.207,3.945,-6.9558,42.4463544,-76.4710377,5,"$GNGGA,195908.000,4226.781264,N,07628.262262,W,5,29,0.89,273.459,M,-33.936,M,1.0,0707*65"
1777319949.181139,15:59:09.181,3.9491,-6.9392,42.44635455,-76.47103765,5,"$GNGGA,195909.000,4226.781273,N,07628.262259,W,5,28,0.71,273.419,M,-33.936,M,1.0,0707*68"
1777319952.2143097,15:59:12.214,3.8751,-6.9947,42.44635405,-76.47103855,5,"$GNGGA,195912.000,4226.781243,N,07628.262313,W,5,28,0.85,273.384,M,-33.937,M,1.0,0707*67"
1777319953.1884658,15:59:13.188,3.8833,-6.9706,42.44635427,-76.47103845,5,"$GNGGA,195913.000,4226.781256,N,07628.262307,W,5,28,0.85,273.405,M,-33.937,M,1.0,0707*69"
1777319954.2161074,15:59:14.216,3.8833,-6.9632,42.44635433,-76.47103845,5,"$GNGGA,195914.000,4226.781260,N,07628.262307,W,5,27,0.74,273.419,M,-33.936,M,1.0,0707*66"
1777319955.2149506,15:59:15.214,3.8943,-6.9614,42.44635435,-76.47103832,5,"$GNGGA,195915.000,4226.781261,N,07628.262299,W,5,27,0.74,273.401,M,-33.936,M,1.0,0707*69"
1777319956.262905,15:59:16.262,3.897,-6.9781,42.4463542,-76.47103828,5,"$GNGGA,195916.000,4226.781252,N,07628.262297,W,5,26,0.74,273.360,M,-33.936,M,1.0,0707*65"
1777319957.2047,15:59:17.204,3.8943,-6.9762,42.44635422,-76.47103832,5,"$GNGGA,195917.000,4226.781253,N,07628.262299,W,5,26,0.91,273.407,M,-33.936,M,1.0,0707*66"
1777319958.278381,15:59:18.278,3.9285,-6.9725,42.44635425,-76.4710379,5,"$GNGGA,195918.000,4226.781255,N,07628.262274,W,5,26,0.90,273.416,M,-33.937,M,1.0,0707*6C"
1777319959.216485,15:59:19.216,3.9148,-6.9762,42.44635422,-76.47103807,5,"$GNGGA,195919.000,4226.781253,N,07628.262284,W,5,26,0.88,273.407,M,-33.936,M,1.0,0707*6C"
1777319962.2273731,15:59:22.227,3.9011,-7.0003,42.446354,-76.47103823,5,"$GNGGA,195922.000,4226.781240,N,07628.262294,W,5,26,0.74,273.386,M,-33.936,M,1.0,0707*6A"
1777319963.2137618,15:59:23.213,3.8943,-7.0188,42.44635383,-76.47103832,5,"$GNGGA,195923.000,4226.781230,N,07628.262299,W,5,26,0.70,273.353,M,-33.936,M,1.0,0707*6D"
1777319964.2795851,15:59:24.279,3.8792,-7.0244,42.44635378,-76.4710385,5,"$GNGGA,195924.000,4226.781227,N,07628.262310,W,5,25,0.91,273.373,M,-33.936,M,1.0,0707*62"
1777319965.2223341,15:59:25.222,3.8737,-7.0281,42.44635375,-76.47103857,5,"$GNGGA,195925.000,4226.781225,N,07628.262314,W,5,25,0.91,273.367,M,-33.936,M,1.0,0707*60"
1777319966.2646585,15:59:26.264,3.8847,-7.017,42.44635385,-76.47103843,5,"$GNGGA,195926.000,4226.781231,N,07628.262306,W,5,25,0.88,273.325,M,-33.937,M,1.0,0707*6A"
1777319967.2206082,15:59:27.220,3.8792,-7.0077,42.44635393,-76.4710385,5,"$GNGGA,195927.000,4226.781236,N,07628.262310,W,5,25,0.64,273.364,M,-33.936,M,1.0,0707*6D"
1777319968.238046,15:59:28.238,3.8669,-7.017,42.44635385,-76.47103865,5,"$GNGGA,195928.000,4226.781231,N,07628.262319,W,5,25,0.64,273.361,M,-33.936,M,1.0,0707*69"
1777319969.1874669,15:59:29.187,3.8683,-7.0021,42.44635398,-76.47103863,5,"$GNGGA,195929.000,4226.781239,N,07628.262318,W,5,24,0.69,273.364,M,-33.937,M,1.0,0707*69"
1777319972.2379508,15:59:32.237,3.8272,-7.0244,42.44635378,-76.47103913,5,"$GNGGA,195932.000,4226.781227,N,07628.262348,W,5,24,0.66,273.350,M,-33.936,M,1.0,0707*60"
1777319973.205268,15:59:33.205,3.8367,-7.0133,42.44635388,-76.47103902,5,"$GNGGA,195933.000,4226.781233,N,07628.262341,W,5,24,0.74,273.366,M,-33.936,M,1.0,0707*6B"
1777319974.2222717,15:59:34.222,3.8422,-7.0133,42.44635388,-76.47103895,5,"$GNGGA,195934.000,4226.781233,N,07628.262337,W,5,24,0.78,273.331,M,-33.937,M,1.0,0707*62"
1777319975.1877823,15:59:35.187,3.8477,-7.0151,42.44635387,-76.47103888,5,"$GNGGA,195935.000,4226.781232,N,07628.262333,W,5,24,0.86,273.321,M,-33.936,M,1.0,0707*67"
1777319976.214209,15:59:36.214,3.8518,-7.0133,42.44635388,-76.47103883,5,"$GNGGA,195936.000,4226.781233,N,07628.262330,W,5,25,0.86,273.340,M,-33.936,M,1.0,0707*60"
1777319977.2373793,15:59:37.237,3.8463,-7.0225,42.4463538,-76.4710389,5,"$GNGGA,195937.000,4226.781228,N,07628.262334,W,5,25,0.74,273.315,M,-33.936,M,1.0,0707*62"
1777319978.219715,15:59:38.219,3.8573,-7.0077,42.44635393,-76.47103877,5,"$GNGGA,195938.000,4226.781236,N,07628.262326,W,5,25,0.82,273.317,M,-33.937,M,1.0,0707*6B"
1777319979.2153854,15:59:39.215,3.8504,-7.0133,42.44635388,-76.47103885,5,"$GNGGA,195939.000,4226.781233,N,07628.262331,W,5,25,0.92,273.293,M,-33.937,M,1.0,0707*65"
1777319982.2168489,15:59:42.216,3.8285,-6.9336,42.4463546,-76.47103912,5,"$GNGGA,195942.000,4226.781276,N,07628.262347,W,5,25,0.82,273.319,M,-33.937,M,1.0,0707*6B"
1777319983.2179723,15:59:43.217,3.7998,-6.9336,42.4463546,-76.47103947,5,"$GNGGA,195943.000,4226.781276,N,07628.262368,W,5,26,0.66,273.361,M,-33.936,M,1.0,0707*60"
1777319984.2251518,15:59:44.225,3.8066,-6.954,42.44635442,-76.47103938,5,"$GNGGA,195944.000,4226.781265,N,07628.262363,W,5,26,0.87,273.315,M,-33.936,M,1.0,0707*62"
1777319985.20311,15:59:45.203,3.7957,-6.9318,42.44635462,-76.47103952,5,"$GNGGA,195945.000,4226.781277,N,07628.262371,W,5,26,0.90,273.294,M,-33.937,M,1.0,0707*6C"
1777319986.237695,15:59:46.237,3.7833,-6.9003,42.4463549,-76.47103967,5,"$GNGGA,195946.000,4226.781294,N,07628.262380,W,5,26,0.83,273.356,M,-33.936,M,1.0,0707*60"
1777319987.1967187,15:59:47.196,3.7765,-6.8892,42.446355,-76.47103975,5,"$GNGGA,195947.000,4226.781300,N,07628.262385,W,5,25,0.83,273.335,M,-33.936,M,1.0,0707*6E"
1777319988.3072212,15:59:48.307,3.7683,-6.8725,42.44635515,-76.47103985,5,"$GNGGA,195948.000,4226.781309,N,07628.262391,W,5,26,0.92,273.363,M,-33.936,M,1.0,0707*6D"
1777319989.2677138,15:59:49.267,3.7463,-6.8391,42.44635545,-76.47104012,5,"$GNGGA,195949.000,4226.781327,N,07628.262407,W,5,27,0.80,273.394,M,-33.936,M,1.0,0707*62"
1777319992.2481506,15:59:52.248,3.7409,-6.8466,42.44635538,-76.47104018,5,"$GNGGA,195952.000,4226.781323,N,07628.262411,W,5,27,0.84,273.426,M,-33.936,M,1.0,0707*61"
1777319993.23271,15:59:53.232,3.7463,-6.8706,42.44635517,-76.47104012,5,"$GNGGA,195953.000,4226.781310,N,07628.262407,W,5,28,0.94,273.392,M,-33.936,M,1.0,0707*61"
1777319994.2336843,15:59:54.233,3.7491,-6.8632,42.44635523,-76.47104008,5,"$GNGGA,195954.000,4226.781314,N,07628.262405,W,5,27,0.75,273.392,M,-33.936,M,1.0,0707*60"
1777319995.2154427,15:59:55.215,3.745,-6.8966,42.44635493,-76.47104013,5,"$GNGGA,195955.000,4226.781296,N,07628.262408,W,5,27,0.83,273.378,M,-33.936,M,1.0,0707*6A"
1777319996.2807357,15:59:56.280,3.7532,-6.8966,42.44635493,-76.47104003,5,"$GNGGA,195956.000,4226.781296,N,07628.262402,W,5,27,0.92,273.411,M,-33.936,M,1.0,0707*6B"
1777319997.2468717,15:59:57.246,3.7491,-6.9336,42.4463546,-76.47104008,5,"$GNGGA,195957.000,4226.781276,N,07628.262405,W,5,25,0.92,273.397,M,-33.936,M,1.0,0707*68"
1777319998.2273011,15:59:58.227,3.7409,-6.9262,42.44635467,-76.47104018,5,"$GNGGA,195958.000,4226.781280,N,07628.262411,W,5,25,0.87,273.439,M,-33.936,M,1.0,0707*6C"
1777319999.2254362,15:59:59.225,3.7436,-6.9632,42.44635433,-76.47104015,5,"$GNGGA,195959.000,4226.781260,N,07628.262409,W,5,27,0.79,273.394,M,-33.936,M,1.0,0707*69"
1777320002.2704294,16:00:02.270,3.7546,-6.9355,42.44635458,-76.47104002,5,"$GNGGA,200002.000,4226.781275,N,07628.262401,W,5,26,0.91,273.435,M,-33.937,M,1.0,0707*67"
1777320003.2485044,16:00:03.248,3.745,-6.9095,42.44635482,-76.47104013,5,"$GNGGA,200003.000,4226.781289,N,07628.262408,W,5,26,0.69,273.444,M,-33.937,M,1.0,0707*6D"
1777320004.289714,16:00:04.289,3.7724,-6.9336,42.4463546,-76.4710398,5,"$GNGGA,200004.000,4226.781276,N,07628.262388,W,5,27,0.88,273.445,M,-33.936,M,1.0,0707*6B"
1777320005.2284532,16:00:05.228,3.745,-6.9577,42.44635438,-76.47104013,5,"$GNGGA,200005.000,4226.781263,N,07628.262408,W,5,27,0.73,273.372,M,-33.937,M,1.0,0707*67"
1777320006.2665095,16:00:06.266,3.7409,-6.9466,42.44635448,-76.47104018,5,"$GNGGA,200006.000,4226.781269,N,07628.262411,W,5,28,0.61,273.384,M,-33.936,M,1.0,0707*62"
1777320007.2483835,16:00:07.248,3.7354,-6.9799,42.44635418,-76.47104025,5,"$GNGGA,200007.000,4226.781251,N,07628.262415,W,5,28,0.73,273.400,M,-33.937,M,1.0,0707*65"
1777320008.26635,16:00:08.266,3.7409,-6.9206,42.44635472,-76.47104018,5,"$GNGGA,200008.000,4226.781283,N,07628.262411,W,5,27,0.57,273.436,M,-33.936,M,1.0,0707*6C"
1777320009.232728,16:00:09.232,3.7326,-6.9225,42.4463547,-76.47104028,5,"$GNGGA,200009.000,4226.781282,N,07628.262417,W,5,27,0.57,273.401,M,-33.936,M,1.0,0707*6E"
1777320012.29902,16:00:12.299,3.7011,-6.9466,42.44635448,-76.47104067,5,"$GNGGA,200012.000,4226.781269,N,07628.262440,W,5,26,0.62,273.398,M,-33.937,M,4.0,0707*67"
1777320013.2564416,16:00:13.256,3.7039,-6.9355,42.44635458,-76.47104063,5,"$GNGGA,200013.000,4226.781275,N,07628.262438,W,5,26,0.65,273.397,M,-33.936,M,5.0,0707*6C"
1777320014.290456,16:00:14.290,3.6929,-6.9355,42.44635458,-76.47104077,5,"$GNGGA,200014.000,4226.781275,N,07628.262446,W,5,27,0.62,273.397,M,-33.937,M,6.0,0707*66"
1777320015.2647815,16:00:15.264,3.708,-6.9281,42.44635465,-76.47104058,5,"$GNGGA,200015.000,4226.781279,N,07628.262435,W,5,27,0.64,273.398,M,-33.937,M,7.0,0707*67"
1777320016.319433,16:00:16.319,3.7121,-6.9318,42.44635462,-76.47104053,5,"$GNGGA,200016.000,4226.781277,N,07628.262432,W,5,28,0.64,273.387,M,-33.937,M,8.0,0707*63"
1777320017.2600355,16:00:17.260,3.7107,-6.9151,42.44635477,-76.47104055,5,"$GNGGA,200017.000,4226.781286,N,07628.262433,W,5,28,0.64,273.409,M,-33.936,M,9.0,0707*6C"
1777320018.297671,16:00:18.297,3.6998,-6.9225,42.4463547,-76.47104068,5,"$GNGGA,200018.000,4226.781282,N,07628.262441,W,5,28,0.66,273.428,M,-33.936,M,10.0,0707*5B"
1777320019.2627516,16:00:19.262,3.6806,-6.9225,42.4463547,-76.47104092,5,"$GNGGA,200019.000,4226.781282,N,07628.262455,W,5,28,0.64,273.392,M,-33.936,M,11.0,0707*5A"
1777320022.3045568,16:00:22.304,3.6929,-6.9262,42.44635467,-76.47104077,5,"$GNGGA,200022.000,4226.781280,N,07628.262446,W,5,29,0.59,273.369,M,-33.936,M,14.0,0707*5C"
1777320023.265227,16:00:23.265,3.7039,-6.9336,42.4463546,-76.47104063,5,"$GNGGA,200023.000,4226.781276,N,07628.262438,W,5,29,0.58,273.370,M,-33.937,M,15.0,0707*54"
1777320024.2929144,16:00:24.292,3.7135,-6.9281,42.44635465,-76.47104052,5,"$GNGGA,200024.000,4226.781279,N,07628.262431,W,5,29,0.67,273.401,M,-33.937,M,16.0,0707*5B"
1777320025.2818172,16:00:25.281,3.7066,-6.9466,42.44635448,-76.4710406,5,"$GNGGA,200025.000,4226.781269,N,07628.262436,W,5,29,0.62,273.376,M,-33.936,M,17.0,0707*5E"
1777320026.2959623,16:00:26.295,3.7052,-6.9429,42.44635452,-76.47104062,5,"$GNGGA,200026.000,4226.781271,N,07628.262437,W,5,29,0.62,273.351,M,-33.937,M,18.0,0707*5E"
1777320027.2744782,16:00:27.274,3.7231,-6.9521,42.44635443,-76.4710404,5,"$GNGGA,200027.000,4226.781266,N,07628.262424,W,5,30,0.62,273.357,M,-33.936,M,19.0,0707*55"
1777320028.2890117,16:00:28.289,3.7258,-6.941,42.44635453,-76.47104037,5,"$GNGGA,200028.000,4226.781272,N,07628.262422,W,5,29,0.60,273.388,M,-33.937,M,20.0,0707*5A"
1777320029.2534454,16:00:29.253,3.7094,-6.9447,42.4463545,-76.47104057,5,"$GNGGA,200029.000,4226.781270,N,07628.262434,W,5,29,0.60,273.316,M,-33.936,M,21.0,0707*59"
1777320032.2607152,16:00:32.260,3.7272,-6.9318,42.44635462,-76.47104035,5,"$GNGGA,200032.000,4226.781277,N,07628.262421,W,5,29,0.62,273.426,M,-33.936,M,24.0,0707*53"
1777320033.255747,16:00:33.255,3.7313,-6.9281,42.44635465,-76.4710403,5,"$GNGGA,200033.000,4226.781279,N,07628.262418,W,5,29,0.61,273.437,M,-33.937,M,25.0,0707*55"
1777320034.2756069,16:00:34.275,3.7491,-6.9429,42.44635452,-76.47104008,5,"$GNGGA,200034.000,4226.781271,N,07628.262405,W,5,29,0.60,273.439,M,-33.936,M,26.0,0707*5B"
1777320035.2570732,16:00:35.257,3.7368,-6.9429,42.44635452,-76.47104023,5,"$GNGGA,200035.000,4226.781271,N,07628.262414,W,5,29,0.61,273.413,M,-33.937,M,27.0,0707*53"
1777320036.2907794,16:00:36.290,3.7504,-6.9577,42.44635438,-76.47104007,5,"$GNGGA,200036.000,4226.781263,N,07628.262404,W,5,28,0.64,273.438,M,-33.937,M,28.0,0707*50"
1777320037.2632987,16:00:37.263,3.7573,-6.9429,42.44635452,-76.47103998,5,"$GNGGA,200037.000,4226.781271,N,07628.262399,W,5,28,0.61,273.428,M,-33.937,M,29.0,0707*54"
1777320038.2874084,16:00:38.287,3.7422,-6.9169,42.44635475,-76.47104017,5,"$GNGGA,200038.000,4226.781285,N,07628.262410,W,5,28,0.59,273.451,M,-33.936,M,30.0,0707*5A"
1777320039.2747598,16:00:39.274,3.7422,-6.9262,42.44635467,-76.47104017,5,"$GNGGA,200039.000,4226.781280,N,07628.262410,W,5,28,0.61,273.466,M,-33.936,M,31.0,0707*50"
1777320042.2787187,16:00:42.278,3.7354,-6.9466,42.44635448,-76.47104025,5,"$GNGGA,200042.000,4226.781269,N,07628.262415,W,5,29,0.61,273.433,M,-33.937,M,34.0,0707*5B"
1777320043.2608552,16:00:43.260,3.7244,-6.9614,42.44635435,-76.47104038,5,"$GNGGA,200043.000,4226.781261,N,07628.262423,W,5,29,0.62,273.426,M,-33.936,M,35.0,0707*50"
1777320044.274689,16:00:44.274,3.7258,-6.9632,42.44635433,-76.47104037,5,"$GNGGA,200044.000,4226.781260,N,07628.262422,W,5,29,0.70,273.473,M,-33.936,M,36.0,0707*57"
1777320045.2449844,16:00:45.244,3.7189,-6.9688,42.44635428,-76.47104045,5,"$GNGGA,200045.000,4226.781257,N,07628.262427,W,5,29,0.70,273.475,M,-33.937,M,37.0,0707*51"
1777320046.279284,16:00:46.279,3.7217,-6.9651,42.44635432,-76.47104042,5,"$GNGGA,200046.000,4226.781259,N,07628.262425,W,5,29,0.71,273.473,M,-33.936,M,38.0,0707*57"
1777320047.2410777,16:00:47.241,3.7162,-6.9558,42.4463544,-76.47104048,5,"$GNGGA,200047.000,4226.781264,N,07628.262429,W,5,29,0.61,273.473,M,-33.937,M,39.0,0707*55"
1777320048.2807868,16:00:48.280,3.7052,-6.954,42.44635442,-76.47104062,5,"$GNGGA,200048.000,4226.781265,N,07628.262437,W,5,29,0.65,273.450,M,-33.936,M,40.0,0707*5E"
1777320049.2558775,16:00:49.255,3.708,-6.9429,42.44635452,-76.47104058,5,"$GNGGA,200049.000,4226.781271,N,07628.262435,W,5,29,0.66,273.439,M,-33.937,M,41.0,0707*54"
1777320052.2818215,16:00:52.281,3.7217,-6.9651,42.44635432,-76.47104042,5,"$GNGGA,200052.000,4226.781259,N,07628.262425,W,5,29,0.61,273.433,M,-33.936,M,44.0,0707*5C"
1777320053.2371495,16:00:53.237,3.7258,-6.9392,42.44635455,-76.47104037,5,"$GNGGA,200053.000,4226.781273,N,07628.262422,W,5,29,0.76,273.444,M,-33.936,M,45.0,0707*55"
1777320054.2758725,16:00:54.275,3.7244,-6.9484,42.44635447,-76.47104038,5,"$GNGGA,200054.000,4226.781268,N,07628.262423,W,5,29,0.82,273.453,M,-33.936,M,46.0,0707*57"
1777320055.241964,16:00:55.241,3.7313,-6.9392,42.44635455,-76.4710403,5,"$GNGGA,200055.000,4226.781273,N,07628.262418,W,5,29,0.60,273.488,M,-33.936,M,47.0,0707*5F"
1777320056.2727816,16:00:56.272,3.7299,-6.9262,42.44635467,-76.47104032,5,"$GNGGA,200056.000,4226.781280,N,07628.262419,W,5,29,0.79,273.460,M,-33.936,M,48.0,0707*50"
1777320057.2391253,16:00:57.239,3.7203,-6.9336,42.4463546,-76.47104043,5,"$GNGGA,200057.000,4226.781276,N,07628.262426,W,5,30,0.79,273.473,M,-33.936,M,49.0,0707*5F"
1777320058.277918,16:00:58.277,3.7272,-6.9299,42.44635463,-76.47104035,5,"$GNGGA,200058.000,4226.781278,N,07628.262421,W,5,30,0.77,273.440,M,-33.936,M,50.0,0707*5F"
1777320059.2368302,16:00:59.236,3.7422,-6.9095,42.44635482,-76.47104017,5,"$GNGGA,200059.000,4226.781289,N,07628.262410,W,5,30,0.77,273.452,M,-33.936,M,51.0,0707*50"
1777320062.2834225,16:01:02.283,3.7491,-6.9225,42.4463547,-76.47104008,5,"$GNGGA,200102.000,4226.781282,N,07628.262405,W,5,30,0.76,273.404,M,-33.937,M,54.0,0707*56"
1777320063.2626426,16:01:03.262,3.7751,-6.9206,42.44635472,-76.47103977,5,"$GNGGA,200103.000,4226.781283,N,07628.262386,W,5,30,0.73,273.421,M,-33.936,M,55.0,0707*58"
1777320064.2921247,16:01:04.292,3.7902,-6.9077,42.44635483,-76.47103958,5,"$GNGGA,200104.000,4226.781290,N,07628.262375,W,5,30,0.55,273.425,M,-33.937,M,56.0,0707*53"
1777320065.259469,16:01:05.259,3.7915,-6.9151,42.44635477,-76.47103957,5,"$GNGGA,200105.000,4226.781286,N,07628.262374,W,5,30,0.68,273.428,M,-33.937,M,57.0,0707*56"
1777320066.2728074,16:01:06.272,3.8011,-6.9058,42.44635485,-76.47103945,5,"$GNGGA,200106.000,4226.781291,N,07628.262367,W,5,30,0.70,273.435,M,-33.937,M,58.0,0707*5B"
1777320067.2493832,16:01:07.249,3.8121,-6.9003,42.4463549,-76.47103932,5,"$GNGGA,200107.000,4226.781294,N,07628.262359,W,5,30,0.69,273.433,M,-33.936,M,59.0,0707*5C"
1777320068.284731,16:01:08.284,3.8244,-6.8984,42.44635492,-76.47103917,5,"$GNGGA,200108.000,4226.781295,N,07628.262350,W,5,30,0.64,273.442,M,-33.936,M,60.0,0707*5A"
1777320069.2684684,16:01:09.268,3.834,-6.9003,42.4463549,-76.47103905,5,"$GNGGA,200109.000,4226.781294,N,07628.262343,W,5,30,0.64,273.406,M,-33.936,M,61.0,0707*59"
1777320072.2490275,16:01:12.249,3.8546,-6.8855,42.44635503,-76.4710388,5,"$GNGGA,200112.000,4226.781302,N,07628.262328,W,5,30,0.65,273.452,M,-33.936,M,64.0,0707*55"
1777320073.254625,16:01:13.254,3.86,-6.8836,42.44635505,-76.47103873,5,"$GNGGA,200113.000,4226.781303,N,07628.262324,W,5,30,0.56,273.487,M,-33.936,M,65.0,0707*50"
1777320074.2680213,16:01:14.268,3.882,-6.8817,42.44635507,-76.47103847,5,"$GNGGA,200114.000,4226.781304,N,07628.262308,W,5,30,0.64,273.535,M,-33.936,M,66.0,0707*54"
1777320075.2485461,16:01:15.248,3.9066,-6.8743,42.44635513,-76.47103817,5,"$GNGGA,200115.000,4226.781308,N,07628.262290,W,5,30,0.77,273.582,M,-33.936,M,67.0,0707*56"
1777320076.2570627,16:01:16.257,3.9244,-6.8799,42.44635508,-76.47103795,5,"$GNGGA,200116.000,4226.781305,N,07628.262277,W,5,30,0.70,273.553,M,-33.936,M,68.0,0707*55"
1777320077.2425508,16:01:17.242,3.9203,-6.8984,42.44635492,-76.471038,5,"$GNGGA,200117.000,4226.781295,N,07628.262280,W,5,30,0.59,273.534,M,-33.936,M,69.0,0707*5F"
1777320078.2772772,16:01:18.277,3.9354,-6.9021,42.44635488,-76.47103782,5,"$GNGGA,200118.000,4226.781293,N,07628.262269,W,5,30,0.56,273.549,M,-33.937,M,70.0,0707*5D"
1777320079.2498424,16:01:19.249,3.9162,-6.9095,42.44635482,-76.47103805,5,"$GNGGA,200119.000,4226.781289,N,07628.262283,W,5,30,0.58,273.513,M,-33.937,M,71.0,0707*53"
1777320082.2911003,16:01:22.291,3.9258,-6.9095,42.44635482,-76.47103793,5,"$GNGGA,200122.000,4226.781289,N,07628.262276,W,5,30,0.62,273.493,M,-33.936,M,74.0,0707*55"
1777320083.2732258,16:01:23.273,3.9176,-6.9095,42.44635482,-76.47103803,5,"$GNGGA,200123.000,4226.781289,N,07628.262282,W,5,30,0.59,273.488,M,-33.936,M,75.0,0707*5C"
1777320084.29111,16:01:24.291,3.9381,-6.8947,42.44635495,-76.47103778,5,"$GNGGA,200124.000,4226.781297,N,07628.262267,W,5,30,0.58,273.534,M,-33.936,M,76.0,0707*5B"
1777320085.252268,16:01:25.252,3.9039,-6.9114,42.4463548,-76.4710382,5,"$GNGGA,200125.000,4226.781288,N,07628.262292,W,5,30,0.57,273.453,M,-33.937,M,77.0,0707*51"
1777320086.298478,16:01:26.298,3.9039,-6.9225,42.4463547,-76.4710382,5,"$GNGGA,200126.000,4226.781282,N,07628.262292,W,5,30,0.54,273.453,M,-33.936,M,78.0,0707*55"
1777320087.2556393,16:01:27.255,3.9176,-6.9355,42.44635458,-76.47103803,5,"$GNGGA,200127.000,4226.781275,N,07628.262282,W,5,30,0.61,273.496,M,-33.936,M,79.0,0707*53"
1777320088.294338,16:01:28.294,3.923,-6.9244,42.44635468,-76.47103797,5,"$GNGGA,200128.000,4226.781281,N,07628.262278,W,5,30,0.54,273.509,M,-33.936,M,80.0,0707*55"
1777320089.254006,16:01:29.254,3.934,-6.9225,42.4463547,-76.47103783,5,"$GNGGA,200129.000,4226.781282,N,07628.262270,W,5,30,0.55,273.514,M,-33.936,M,81.0,0707*53"
