unix_time,human_time,x_meters,y_meters,raw_lat,raw_lon,status_quality,raw_nmea
1777317184.2772112,15:13:04.277,-0.0823,0.2093,42.44635235,-76.47109533,5,"$GNGGA,191304.000,4226.781141,N,07628.265720,W,5,31,0.62,273.070,M,-33.936,M,1.0,0689*63"
1777317185.2778544,15:13:05.277,-0.0796,0.2093,42.44635235,-76.4710953,5,"$GNGGA,191305.000,4226.781141,N,07628.265718,W,5,31,0.61,273.066,M,-33.937,M,1.0,0689*6C"
1777317186.2658722,15:13:06.265,-0.0878,0.2408,42.44635263,-76.4710954,5,"$GNGGA,191306.000,4226.781158,N,07628.265724,W,5,31,0.64,273.046,M,-33.937,M,1.0,0689*6F"
1777317187.254871,15:13:07.254,-0.081,0.2297,42.44635253,-76.47109532,5,"$GNGGA,191307.000,4226.781152,N,07628.265719,W,5,31,0.61,273.065,M,-33.936,M,1.0,0689*6F"
1777317188.2750115,15:13:08.275,-0.0823,0.2241,42.44635248,-76.47109533,5,"$GNGGA,191308.000,4226.781149,N,07628.265720,W,5,31,0.63,273.069,M,-33.937,M,1.0,0689*6F"
1777317189.2749991,15:13:09.275,-0.0851,0.2019,42.44635228,-76.47109537,5,"$GNGGA,191309.000,4226.781137,N,07628.265722,W,5,31,0.63,273.055,M,-33.936,M,1.0,0689*6B"
1777317192.2483573,15:13:12.248,-0.0837,0.2241,42.44635248,-76.47109535,5,"$GNGGA,191312.000,4226.781149,N,07628.265721,W,5,30,0.67,273.045,M,-33.936,M,1.0,0689*6F"
1777317193.2348564,15:13:13.234,-0.0837,0.2093,42.44635235,-76.47109535,5,"$GNGGA,191313.000,4226.781141,N,07628.265721,W,5,30,0.68,273.035,M,-33.936,M,1.0,0689*6E"
1777317194.289654,15:13:14.289,-0.0823,0.2019,42.44635228,-76.47109533,5,"$GNGGA,191314.000,4226.781137,N,07628.265720,W,5,30,0.67,273.039,M,-33.936,M,1.0,0689*6A"
1777317195.2414212,15:13:15.241,-0.0823,0.2149,42.4463524,-76.47109533,5,"$GNGGA,191315.000,4226.781144,N,07628.265720,W,5,30,0.66,273.050,M,-33.936,M,1.0,0689*61"
1777317196.2363772,15:13:16.236,-0.0796,0.1963,42.44635223,-76.4710953,5,"$GNGGA,191316.000,4226.781134,N,07628.265718,W,5,29,0.65,273.054,M,-33.937,M,1.0,0689*60"
1777317197.2133427,15:13:17.213,-0.0467,0.1778,42.44635207,-76.4710949,5,"$GNGGA,191317.000,4226.781124,N,07628.265694,W,5,29,0.65,273.069,M,-33.936,M,1.0,0689*6A"
1777317198.238653,15:13:18.238,-0.0467,0.1834,42.44635212,-76.4710949,5,"$GNGGA,191318.000,4226.781127,N,07628.265694,W,5,29,0.63,273.013,M,-33.937,M,1.0,0689*6C"
1777317199.240018,15:13:19.240,-0.0454,0.1945,42.44635222,-76.47109488,5,"$GNGGA,191319.000,4226.781133,N,07628.265693,W,5,29,0.63,273.026,M,-33.936,M,1.0,0689*68"
1777317202.2957416,15:13:22.295,-0.0508,0.2426,42.44635265,-76.47109495,5,"$GNGGA,191322.000,4226.781159,N,07628.265697,W,5,30,0.58,272.997,M,-33.936,M,1.0,0689*6A"
1777317203.2793665,15:13:23.279,-0.0508,0.2408,42.44635263,-76.47109495,5,"$GNGGA,191323.000,4226.781158,N,07628.265697,W,5,30,0.55,273.029,M,-33.936,M,1.0,0689*6A"
1777317204.2613704,15:13:24.261,-0.0659,0.2519,42.44635273,-76.47109513,5,"$GNGGA,191324.000,4226.781164,N,07628.265708,W,5,30,0.62,273.021,M,-33.936,M,1.0,0689*69"
1777317205.3046455,15:13:25.304,-0.07,0.2575,42.44635278,-76.47109518,5,"$GNGGA,191325.000,4226.781167,N,07628.265711,W,5,30,0.62,273.039,M,-33.936,M,1.0,0689*6A"
1777317206.294724,15:13:26.294,-0.0248,0.25,42.44635272,-76.47109463,5,"$GNGGA,191326.000,4226.781163,N,07628.265678,W,5,30,0.61,273.053,M,-33.936,M,1.0,0689*6C"
1777317207.2654908,15:13:27.265,-0.033,0.25,42.44635272,-76.47109473,5,"$GNGGA,191327.000,4226.781163,N,07628.265684,W,5,30,0.61,273.045,M,-33.936,M,1.0,0689*69"
1777317208.2670877,15:13:28.267,-0.0152,0.2649,42.44635285,-76.47109452,5,"$GNGGA,191328.000,4226.781171,N,07628.265671,W,5,31,0.55,273.048,M,-33.936,M,1.0,0689*64"
1777317209.2670918,15:13:29.267,-0.0234,0.2667,42.44635287,-76.47109462,5,"$GNGGA,191329.000,4226.781172,N,07628.265677,W,5,31,0.55,273.019,M,-33.936,M,1.0,0689*64"
1777317212.313737,15:13:32.313,-0.0221,0.276,42.44635295,-76.4710946,5,"$GNGGA,191332.000,4226.781177,N,07628.265676,W,5,30,0.55,273.047,M,-33.936,M,1.0,0689*60"
1777317213.2194922,15:13:33.219,-0.0317,0.2871,42.44635305,-76.47109472,5,"$GNGGA,191333.000,4226.781183,N,07628.265683,W,5,30,0.63,273.023,M,-33.936,M,1.0,0689*67"
1777317214.2637239,15:13:34.263,-0.0412,0.2852,42.44635303,-76.47109483,5,"$GNGGA,191334.000,4226.781182,N,07628.265690,W,5,30,0.66,273.009,M,-33.937,M,1.0,0689*6F"
1777317215.2509575,15:13:35.250,0.0081,0.2686,42.44635288,-76.47109423,5,"$GNGGA,191335.000,4226.781173,N,07628.265654,W,5,30,0.64,273.029,M,-33.936,M,1.0,0689*69"
1777317216.2931812,15:13:36.293,0.004,0.263,42.44635283,-76.47109428,5,"$GNGGA,191336.000,4226.781170,N,07628.265657,W,5,30,0.54,273.032,M,-33.936,M,1.0,0689*63"
1777317217.2584934,15:13:37.258,0.0259,0.2649,42.44635285,-76.47109402,5,"$GNGGA,191337.000,4226.781171,N,07628.265641,W,5,30,0.55,273.025,M,-33.937,M,1.0,0689*62"
1777317218.2560663,15:13:38.256,0.0094,0.2704,42.4463529,-76.47109422,5,"$GNGGA,191338.000,4226.781174,N,07628.265653,W,5,30,0.62,273.039,M,-33.937,M,1.0,0689*62"
1777317219.2509334,15:13:39.250,0.0177,0.2686,42.44635288,-76.47109412,5,"$GNGGA,191339.000,4226.781173,N,07628.265647,W,5,30,0.65,273.052,M,-33.936,M,1.0,0689*6A"
1777317222.2764363,15:13:42.276,0.0478,0.2334,42.44635257,-76.47109375,5,"$GNGGA,191342.000,4226.781154,N,07628.265625,W,5,30,0.60,273.027,M,-33.936,M,1.0,0689*60"
1777317223.2510204,15:13:43.251,0.0519,0.2741,42.44635293,-76.4710937,5,"$GNGGA,191343.000,4226.781176,N,07628.265622,W,5,30,0.56,273.005,M,-33.936,M,1.0,0689*63"
1777317224.273934,15:13:44.273,0.0505,0.2889,42.44635307,-76.47109372,5,"$GNGGA,191344.000,4226.781184,N,07628.265623,W,5,30,0.55,273.055,M,-33.936,M,1.0,0689*6E"
1777317225.268219,15:13:45.268,0.056,0.2556,42.44635277,-76.47109365,5,"$GNGGA,191345.000,4226.781166,N,07628.265619,W,5,30,0.55,273.015,M,-33.937,M,1.0,0689*6F"
1777317226.2833946,15:13:46.283,0.0478,0.2871,42.44635305,-76.47109375,5,"$GNGGA,191346.000,4226.781183,N,07628.265625,W,5,30,0.55,273.024,M,-33.937,M,1.0,0689*6A"
1777317227.27778,15:13:47.277,0.0286,0.3038,42.4463532,-76.47109398,5,"$GNGGA,191347.000,4226.781192,N,07628.265639,W,5,30,0.54,273.020,M,-33.936,M,1.0,0689*62"
1777317228.29405,15:13:48.294,0.0423,0.2797,42.44635298,-76.47109382,5,"$GNGGA,191348.000,4226.781179,N,07628.265629,W,5,31,0.54,273.024,M,-33.937,M,1.0,0689*6D"
1777317229.2890253,15:13:49.289,0.0916,0.2667,42.44635287,-76.47109322,5,"$GNGGA,191349.000,4226.781172,N,07628.265593,W,5,31,0.56,273.041,M,-33.936,M,1.0,0689*65"
1777317232.253049,15:13:52.253,0.1314,0.2093,42.44635235,-76.47109273,5,"$GNGGA,191352.000,4226.781141,N,07628.265564,W,5,31,0.60,272.997,M,-33.936,M,1.0,0689*61"
1777317233.2338195,15:13:53.233,0.1314,0.2297,42.44635253,-76.47109273,5,"$GNGGA,191353.000,4226.781152,N,07628.265564,W,5,30,0.59,272.943,M,-33.936,M,1.0,0689*60"
1777317234.3123105,15:13:54.312,0.1368,0.1963,42.44635223,-76.47109267,5,"$GNGGA,191354.000,4226.781134,N,07628.265560,W,5,30,0.65,272.947,M,-33.936,M,1.0,0689*68"
1777317235.2330558,15:13:55.233,0.1464,0.2093,42.44635235,-76.47109255,5,"$GNGGA,191355.000,4226.781141,N,07628.265553,W,5,30,0.63,272.948,M,-33.936,M,1.0,0689*62"
1777317236.2473745,15:13:56.247,0.1437,0.213,42.44635238,-76.47109258,5,"$GNGGA,191356.000,4226.781143,N,07628.265555,W,5,30,0.58,272.913,M,-33.937,M,1.0,0689*62"
1777317237.241284,15:13:57.241,0.1259,0.2278,42.44635252,-76.4710928,5,"$GNGGA,191357.000,4226.781151,N,07628.265568,W,5,30,0.58,272.922,M,-33.936,M,1.0,0689*6D"
1777317238.3125024,15:13:58.312,0.1396,0.2223,42.44635247,-76.47109263,5,"$GNGGA,191358.000,4226.781148,N,07628.265558,W,5,30,0.55,272.899,M,-33.936,M,1.0,0689*65"
1777317239.2601824,15:13:59.260,0.1437,0.2408,42.44635263,-76.47109258,5,"$GNGGA,191359.000,4226.781158,N,07628.265555,W,5,30,0.57,272.882,M,-33.936,M,1.0,0689*60"
1777317242.2410574,15:14:02.241,0.167,0.2167,42.44635242,-76.4710923,5,"$GNGGA,191402.000,4226.781145,N,07628.265538,W,5,30,0.59,272.889,M,-33.936,M,1.0,0689*6B"
1777317243.26018,15:14:03.260,0.1629,0.2149,42.4463524,-76.47109235,5,"$GNGGA,191403.000,4226.781144,N,07628.265541,W,5,30,0.63,272.865,M,-33.937,M,1.0,0689*6F"
1777317244.2555118,15:14:04.255,0.1642,0.2223,42.44635247,-76.47109233,5,"$GNGGA,191404.000,4226.781148,N,07628.265540,W,5,29,0.70,272.863,M,-33.936,M,1.0,0689*68"
1777317245.2479246,15:14:05.247,0.1724,0.1982,42.44635225,-76.47109223,5,"$GNGGA,191405.000,4226.781135,N,07628.265534,W,5,29,0.67,272.872,M,-33.936,M,1.0,0689*66"
1777317246.249626,15:14:06.249,0.1697,0.226,42.4463525,-76.47109227,5,"$GNGGA,191406.000,4226.781150,N,07628.265536,W,5,30,0.70,272.863,M,-33.936,M,1.0,0689*6A"
1777317247.2949276,15:14:07.294,0.1601,0.2315,42.44635255,-76.47109238,5,"$GNGGA,191407.000,4226.781153,N,07628.265543,W,5,30,0.65,272.832,M,-33.937,M,1.0,0689*6B"
1777317248.273453,15:14:08.273,0.1793,0.213,42.44635238,-76.47109215,5,"$GNGGA,191408.000,4226.781143,N,07628.265529,W,5,30,0.61,272.869,M,-33.936,M,1.0,0689*62"
1777317249.2846305,15:14:09.284,0.1807,0.1963,42.44635223,-76.47109213,5,"$GNGGA,191409.000,4226.781134,N,07628.265528,W,5,30,0.51,272.858,M,-33.937,M,1.0,0689*62"
1777317252.2776716,15:14:12.277,0.2053,0.1537,42.44635185,-76.47109183,5,"$GNGGA,191412.000,4226.781111,N,07628.265510,W,5,30,0.66,272.863,M,-33.936,M,1.0,0689*69"
1777317253.2782502,15:14:13.278,0.2341,0.113,42.44635148,-76.47109148,5,"$GNGGA,191413.000,4226.781089,N,07628.265489,W,5,30,0.62,272.879,M,-33.936,M,1.0,0689*66"
1777317254.2637272,15:14:14.263,0.2464,0.0945,42.44635132,-76.47109133,5,"$GNGGA,191414.000,4226.781079,N,07628.265480,W,5,30,0.61,272.882,M,-33.937,M,1.0,0689*61"
1777317255.2768278,15:14:15.276,0.2629,0.0722,42.44635112,-76.47109113,5,"$GNGGA,191415.000,4226.781067,N,07628.265468,W,5,30,0.49,272.896,M,-33.937,M,1.0,0689*66"
1777317256.281209,15:14:16.281,0.2766,0.0296,42.44635073,-76.47109097,5,"$GNGGA,191416.000,4226.781044,N,07628.265458,W,5,30,0.63,272.886,M,-33.936,M,1.0,0689*6F"
1777317257.2918022,15:14:17.291,0.2711,0.0222,42.44635067,-76.47109103,5,"$GNGGA,191417.000,4226.781040,N,07628.265462,W,5,30,0.52,272.862,M,-33.936,M,1.0,0689*6B"
1777317258.2998316,15:14:18.299,0.2752,0.0296,42.44635073,-76.47109098,5,"$GNGGA,191418.000,4226.781044,N,07628.265459,W,5,30,0.51,272.836,M,-33.936,M,1.0,0689*6A"
1777317259.2744517,15:14:19.274,0.2944,-0.0093,42.44635038,-76.47109075,5,"$GNGGA,191419.000,4226.781023,N,07628.265445,W,5,30,0.53,272.825,M,-33.937,M,1.0,0689*66"
1777317262.2682443,15:14:22.268,0.3341,-0.0796,42.44634975,-76.47109027,5,"$GNGGA,191422.000,4226.780985,N,07628.265416,W,5,30,0.55,272.845,M,-33.936,M,1.0,0689*6D"
1777317263.2427032,15:14:23.242,0.3724,-0.0704,42.44634983,-76.4710898,5,"$GNGGA,191423.000,4226.780990,N,07628.265388,W,5,30,0.63,272.841,M,-33.937,M,1.0,0689*68"
1777317264.2855794,15:14:24.285,0.3971,-0.1222,42.44634937,-76.4710895,5,"$GNGGA,191424.000,4226.780962,N,07628.265370,W,5,30,0.65,272.850,M,-33.936,M,1.0,0689*62"
1777317265.2820826,15:14:25.282,0.3889,-0.0926,42.44634963,-76.4710896,5,"$GNGGA,191425.000,4226.780978,N,07628.265376,W,5,30,0.65,272.837,M,-33.936,M,1.0,0689*6F"
1777317266.3076093,15:14:26.307,0.393,-0.1093,42.44634948,-76.47108955,5,"$GNGGA,191426.000,4226.780969,N,07628.265373,W,5,30,0.54,272.831,M,-33.937,M,1.0,0689*6C"
1777317267.3017197,15:14:27.301,0.4204,-0.1204,42.44634938,-76.47108922,5,"$GNGGA,191427.000,4226.780963,N,07628.265353,W,5,30,0.60,272.852,M,-33.936,M,1.0,0689*66"
1777317268.3033795,15:14:28.303,0.419,-0.1445,42.44634917,-76.47108923,5,"$GNGGA,191428.000,4226.780950,N,07628.265354,W,5,30,0.64,272.823,M,-33.937,M,1.0,0689*6D"
1777317269.2320702,15:14:29.232,0.4327,-0.1445,42.44634917,-76.47108907,5,"$GNGGA,191429.000,4226.780950,N,07628.265344,W,5,30,0.64,272.845,M,-33.937,M,1.0,0689*6D"
1777317272.2925863,15:14:32.292,0.4382,-0.2,42.44634867,-76.471089,5,"$GNGGA,191432.000,4226.780920,N,07628.265340,W,5,30,0.67,272.835,M,-33.936,M,1.0,0689*61"
1777317273.281201,15:14:33.281,0.4629,-0.2204,42.44634848,-76.4710887,5,"$GNGGA,191433.000,4226.780909,N,07628.265322,W,5,29,0.62,272.841,M,-33.936,M,1.0,0689*61"
1777317274.303061,15:14:34.303,0.467,-0.2519,42.4463482,-76.47108865,5,"$GNGGA,191434.000,4226.780892,N,07628.265319,W,5,29,0.69,272.860,M,-33.936,M,1.0,0689*65"
1777317275.2932432,15:14:35.293,0.4656,-0.2371,42.44634833,-76.47108867,5,"$GNGGA,191435.000,4226.780900,N,07628.265320,W,5,30,0.63,272.843,M,-33.936,M,1.0,0689*67"
1777317276.2743695,15:14:36.274,0.467,-0.2612,42.44634812,-76.47108865,5,"$GNGGA,191436.000,4226.780887,N,07628.265319,W,5,30,0.62,272.833,M,-33.936,M,1.0,0689*66"
1777317277.21812,15:14:37.218,0.4629,-0.2556,42.44634817,-76.4710887,5,"$GNGGA,191437.000,4226.780890,N,07628.265322,W,5,30,0.62,272.824,M,-33.936,M,1.0,0689*6F"
1777317278.2677822,15:14:38.267,0.4574,-0.2389,42.44634832,-76.47108877,5,"$GNGGA,191438.000,4226.780899,N,07628.265326,W,5,30,0.72,272.811,M,-33.936,M,1.0,0689*6A"
1777317279.2341256,15:14:39.234,0.4642,-0.2426,42.44634828,-76.47108868,5,"$GNGGA,191439.000,4226.780897,N,07628.265321,W,5,30,0.68,272.808,M,-33.937,M,1.0,0689*60"
1777317282.2743883,15:14:42.274,0.4971,-0.2612,42.44634812,-76.47108828,5,"$GNGGA,191442.000,4226.780887,N,07628.265297,W,5,30,0.65,272.832,M,-33.937,M,1.0,0689*65"
1777317283.3134108,15:14:43.313,0.5026,-0.2723,42.44634802,-76.47108822,5,"$GNGGA,191443.000,4226.780881,N,07628.265293,W,5,30,0.66,272.824,M,-33.936,M,1.0,0689*63"
1777317284.297661,15:14:44.297,0.5108,-0.2667,42.44634807,-76.47108812,5,"$GNGGA,191444.000,4226.780884,N,07628.265287,W,5,29,0.74,272.809,M,-33.936,M,1.0,0689*60"
1777317285.2506409,15:14:45.250,0.5039,-0.2667,42.44634807,-76.4710882,5,"$GNGGA,191445.000,4226.780884,N,07628.265292,W,5,29,0.71,272.822,M,-33.936,M,1.0,0689*69"
1777317286.3324223,15:14:46.332,0.5108,-0.2889,42.44634787,-76.47108812,5,"$GNGGA,191446.000,4226.780872,N,07628.265287,W,5,30,0.56,272.838,M,-33.936,M,1.0,0689*61"
1777317287.2802312,15:14:47.280,0.5354,-0.3315,42.44634748,-76.47108782,5,"$GNGGA,191447.000,4226.780849,N,07628.265269,W,5,30,0.61,272.834,M,-33.937,M,1.0,0689*61"
1777317288.2699308,15:14:48.269,0.5423,-0.3593,42.44634723,-76.47108773,5,"$GNGGA,191448.000,4226.780834,N,07628.265264,W,5,30,0.73,272.839,M,-33.936,M,1.0,0689*66"
1777317289.2548792,15:14:49.254,0.5848,-0.3408,42.4463474,-76.47108722,5,"$GNGGA,191449.000,4226.780844,N,07628.265233,W,5,30,0.68,272.853,M,-33.937,M,1.0,0689*65"
1777317292.308537,15:14:52.308,0.5875,-0.363,42.4463472,-76.47108718,5,"$GNGGA,191452.000,4226.780832,N,07628.265231,W,5,30,0.58,272.859,M,-33.937,M,1.0,0689*65"
1777317293.2376695,15:14:53.237,0.5875,-0.3538,42.44634728,-76.47108718,5,"$GNGGA,191453.000,4226.780837,N,07628.265231,W,5,30,0.64,272.813,M,-33.937,M,1.0,0689*60"
1777317294.2757816,15:14:54.275,0.5738,-0.3482,42.44634733,-76.47108735,5,"$GNGGA,191454.000,4226.780840,N,07628.265241,W,5,30,0.61,272.805,M,-33.936,M,1.0,0689*63"
1777317295.271592,15:14:55.271,0.5724,-0.3519,42.4463473,-76.47108737,5,"$GNGGA,191455.000,4226.780838,N,07628.265242,W,5,30,0.64,272.813,M,-33.937,M,1.0,0689*6D"
1777317296.2642298,15:14:56.264,0.5765,-0.3667,42.44634717,-76.47108732,5,"$GNGGA,191456.000,4226.780830,N,07628.265239,W,5,30,0.60,272.829,M,-33.936,M,1.0,0689*66"
1777317297.2621017,15:14:57.262,0.5656,-0.3575,42.44634725,-76.47108745,5,"$GNGGA,191457.000,4226.780835,N,07628.265247,W,5,30,0.58,272.875,M,-33.937,M,1.0,0689*68"
1777317298.271744,15:14:58.271,0.5765,-0.3593,42.44634723,-76.47108732,5,"$GNGGA,191458.000,4226.780834,N,07628.265239,W,5,30,0.57,272.883,M,-33.937,M,1.0,0689*69"
1777317299.2707677,15:14:59.270,0.6176,-0.3482,42.44634733,-76.47108682,5,"$GNGGA,191459.000,4226.780840,N,07628.265209,W,5,30,0.70,272.892,M,-33.937,M,1.0,0689*6D"
1777317302.2937586,15:15:02.293,0.6341,-0.3575,42.44634725,-76.47108662,5,"$GNGGA,191502.000,4226.780835,N,07628.265197,W,5,30,0.62,272.882,M,-33.937,M,2.0,0689*65"
1777317303.2721968,15:15:03.272,0.6492,-0.3556,42.44634727,-76.47108643,5,"$GNGGA,191503.000,4226.780836,N,07628.265186,W,5,30,0.69,272.903,M,-33.937,M,1.0,0689*67"
1777317304.2802067,15:15:04.280,0.656,-0.3723,42.44634712,-76.47108635,5,"$GNGGA,191504.000,4226.780827,N,07628.265181,W,5,29,0.72,272.890,M,-33.937,M,1.0,0689*6E"
1777317305.209432,15:15:05.209,0.6656,-0.3741,42.4463471,-76.47108623,5,"$GNGGA,191505.000,4226.780826,N,07628.265174,W,5,29,0.72,272.895,M,-33.937,M,1.0,0689*61"
1777317306.2543535,15:15:06.254,0.6601,-0.3871,42.44634698,-76.4710863,5,"$GNGGA,191506.000,4226.780819,N,07628.265178,W,5,29,0.70,272.861,M,-33.936,M,1.0,0689*6A"
1777317307.263151,15:15:07.263,0.6492,-0.3519,42.4463473,-76.47108643,5,"$GNGGA,191507.000,4226.780838,N,07628.265186,W,5,29,0.64,272.851,M,-33.937,M,1.0,0689*6E"
1777317308.2864268,15:15:08.286,0.6628,-0.3575,42.44634725,-76.47108627,5,"$GNGGA,191508.000,4226.780835,N,07628.265176,W,5,29,0.63,272.841,M,-33.937,M,1.0,0689*65"
1777317309.2771523,15:15:09.277,0.6711,-0.3427,42.44634738,-76.47108617,5,"$GNGGA,191509.000,4226.780843,N,07628.265170,W,5,29,0.64,272.827,M,-33.936,M,1.0,0689*65"
1777317312.3044808,15:15:12.304,0.6902,-0.3445,42.44634737,-76.47108593,5,"$GNGGA,191512.000,4226.780842,N,07628.265156,W,5,30,0.60,272.827,M,-33.936,M,1.0,0689*66"
1777317313.3005838,15:15:13.300,0.6738,-0.3408,42.4463474,-76.47108613,5,"$GNGGA,191513.000,4226.780844,N,07628.265168,W,5,29,0.61,272.811,M,-33.936,M,1.0,0689*60"
1777317314.2635343,15:15:14.263,0.6998,-0.3464,42.44634735,-76.47108582,5,"$GNGGA,191514.000,4226.780841,N,07628.265149,W,5,28,0.65,272.839,M,-33.937,M,1.0,0689*6F"
1777317315.2834203,15:15:15.283,0.6944,-0.3408,42.4463474,-76.47108588,5,"$GNGGA,191515.000,4226.780844,N,07628.265153,W,5,28,0.61,272.832,M,-33.937,M,1.0,0689*6F"
1777317316.3052626,15:15:16.305,0.6971,-0.3167,42.44634762,-76.47108585,5,"$GNGGA,191516.000,4226.780857,N,07628.265151,W,5,29,0.62,272.870,M,-33.937,M,1.0,0689*68"
1777317317.2959907,15:15:17.295,0.7094,-0.3352,42.44634745,-76.4710857,5,"$GNGGA,191517.000,4226.780847,N,07628.265142,W,5,30,0.67,272.856,M,-33.936,M,1.0,0689*62"
1777317318.3702753,15:15:18.370,0.7053,-0.339,42.44634742,-76.47108575,5,"$GNGGA,191518.000,4226.780845,N,07628.265145,W,5,30,0.62,272.856,M,-33.936,M,1.0,0689*6D"
1777317319.3182628,15:15:19.318,0.6944,-0.3278,42.44634752,-76.47108588,5,"$GNGGA,191519.000,4226.780851,N,07628.265153,W,5,30,0.68,272.823,M,-33.937,M,1.0,0689*67"
1777317322.3305302,15:15:22.330,0.7094,-0.3408,42.4463474,-76.4710857,5,"$GNGGA,191522.000,4226.780844,N,07628.265142,W,5,30,0.73,272.865,M,-33.936,M,1.0,0689*62"
1777317323.2705362,15:15:23.270,1.3204,-0.389,42.44634697,-76.47107827,4,"$GNGGA,191523.000,4226.780818,N,07628.264696,W,4,30,0.70,272.266,M,-33.936,M,1.0,0689*6E"
1777317324.264378,15:15:24.264,1.3258,-0.4019,42.44634685,-76.4710782,4,"$GNGGA,191524.000,4226.780811,N,07628.264692,W,4,29,0.68,272.276,M,-33.937,M,1.0,0689*65"
1777317325.2254558,15:15:25.225,1.3368,-0.376,42.44634708,-76.47107807,4,"$GNGGA,191525.000,4226.780825,N,07628.264684,W,4,29,0.71,272.262,M,-33.937,M,1.0,0689*69"
1777317326.2432678,15:15:26.243,1.3382,-0.3741,42.4463471,-76.47107805,4,"$GNGGA,191526.000,4226.780826,N,07628.264683,W,4,29,0.73,272.293,M,-33.936,M,1.0,0689*63"
1777317327.239052,15:15:27.239,1.3437,-0.3816,42.44634703,-76.47107798,4,"$GNGGA,191527.000,4226.780822,N,07628.264679,W,4,30,0.73,272.290,M,-33.936,M,1.0,0689*68"
1777317328.2470791,15:15:28.247,1.3491,-0.3871,42.44634698,-76.47107792,4,"$GNGGA,191528.000,4226.780819,N,07628.264675,W,4,29,0.71,272.273,M,-33.936,M,1.0,0689*64"
1777317329.2378497,15:15:29.237,1.3601,-0.3871,42.44634698,-76.47107778,4,"$GNGGA,191529.000,4226.780819,N,07628.264667,W,4,30,0.73,272.285,M,-33.937,M,1.0,0689*64"
1777317332.2540004,15:15:32.254,1.3601,-0.3964,42.4463469,-76.47107778,4,"$GNGGA,191532.000,4226.780814,N,07628.264667,W,4,31,0.71,272.290,M,-33.936,M,1.0,0689*65"
1777317333.2911198,15:15:33.291,1.3779,-0.413,42.44634675,-76.47107757,4,"$GNGGA,191533.000,4226.780805,N,07628.264654,W,4,31,0.71,272.277,M,-33.936,M,1.0,0689*6D"
1777317334.276848,15:15:34.276,1.3724,-0.4075,42.4463468,-76.47107763,4,"$GNGGA,191534.000,4226.780808,N,07628.264658,W,4,31,0.62,272.262,M,-33.937,M,1.0,0689*6C"
1777317335.25354,15:15:35.253,1.3861,-0.4075,42.4463468,-76.47107747,4,"$GNGGA,191535.000,4226.780808,N,07628.264648,W,4,31,0.62,272.281,M,-33.936,M,1.0,0689*60"
1777317336.2772698,15:15:36.277,1.3943,-0.4242,42.44634665,-76.47107737,4,"$GNGGA,191536.000,4226.780799,N,07628.264642,W,4,31,0.70,272.266,M,-33.936,M,1.0,0689*64"
1777317337.2731736,15:15:37.273,1.3971,-0.4186,42.4463467,-76.47107733,4,"$GNGGA,191537.000,4226.780802,N,07628.264640,W,4,31,0.69,272.278,M,-33.936,M,1.0,0689*6D"
1777317338.255943,15:15:38.255,1.4067,-0.4223,42.44634667,-76.47107722,4,"$GNGGA,191538.000,4226.780800,N,07628.264633,W,4,31,0.70,272.272,M,-33.937,M,1.0,0689*67"
1777317339.2552884,15:15:39.255,1.4108,-0.4186,42.4463467,-76.47107717,4,"$GNGGA,191539.000,4226.780802,N,07628.264630,W,4,31,0.65,272.271,M,-33.936,M,1.0,0689*61"
1777317342.2574036,15:15:42.257,1.4423,-0.439,42.44634652,-76.47107678,4,"$GNGGA,191542.000,4226.780791,N,07628.264607,W,4,31,0.61,272.279,M,-33.937,M,1.0,0689*61"
1777317343.2459679,15:15:43.245,1.4341,-0.4353,42.44634655,-76.47107688,4,"$GNGGA,191543.000,4226.780793,N,07628.264613,W,4,31,0.70,272.289,M,-33.937,M,1.0,0689*68"
1777317344.265168,15:15:44.265,1.4546,-0.4445,42.44634647,-76.47107663,4,"$GNGGA,191544.000,4226.780788,N,07628.264598,W,4,30,0.70,272.264,M,-33.936,M,1.0,0689*66"
1777317345.2485878,15:15:45.248,1.4436,-0.4408,42.4463465,-76.47107677,4,"$GNGGA,191545.000,4226.780790,N,07628.264606,W,4,30,0.65,272.273,M,-33.936,M,1.0,0689*68"
1777317346.2550123,15:15:46.255,1.4615,-0.4427,42.44634648,-76.47107655,4,"$GNGGA,191546.000,4226.780789,N,07628.264593,W,4,30,0.69,272.290,M,-33.936,M,1.0,0689*6D"
1777317347.2663736,15:15:47.266,1.4491,-0.4594,42.44634633,-76.4710767,4,"$GNGGA,191547.000,4226.780780,N,07628.264602,W,4,30,0.70,272.279,M,-33.936,M,1.0,0689*61"
1777317348.2532244,15:15:48.253,1.4546,-0.4519,42.4463464,-76.47107663,4,"$GNGGA,191548.000,4226.780784,N,07628.264598,W,4,30,0.70,272.270,M,-33.936,M,1.0,0689*63"
1777317349.2723184,15:15:49.272,1.4669,-0.4464,42.44634645,-76.47107648,4,"$GNGGA,191549.000,4226.780787,N,07628.264589,W,4,30,0.69,272.279,M,-33.937,M,1.0,0689*61"
1777317352.2825136,15:15:52.282,1.4916,-0.4464,42.44634645,-76.47107618,4,"$GNGGA,191552.000,4226.780787,N,07628.264571,W,4,30,0.68,272.261,M,-33.937,M,1.0,0689*64"
1777317353.2316775,15:15:53.231,1.4861,-0.4334,42.44634657,-76.47107625,4,"$GNGGA,191553.000,4226.780794,N,07628.264575,W,4,30,0.68,272.245,M,-33.936,M,1.0,0689*64"
1777317354.257319,15:15:54.257,1.493,-0.4445,42.44634647,-76.47107617,4,"$GNGGA,191554.000,4226.780788,N,07628.264570,W,4,31,0.68,272.273,M,-33.936,M,1.0,0689*6F"
1777317355.2521427,15:15:55.252,1.4984,-0.4371,42.44634653,-76.4710761,4,"$GNGGA,191555.000,4226.780792,N,07628.264566,W,4,31,0.53,272.259,M,-33.937,M,1.0,0689*63"
1777317356.26702,15:15:56.267,1.5053,-0.4353,42.44634655,-76.47107602,4,"$GNGGA,191556.000,4226.780793,N,07628.264561,W,4,31,0.64,272.261,M,-33.936,M,1.0,0689*68"
1777317357.2695673,15:15:57.269,1.508,-0.4464,42.44634645,-76.47107598,4,"$GNGGA,191557.000,4226.780787,N,07628.264559,W,4,31,0.64,272.252,M,-33.937,M,1.0,0689*66"
1777317358.2650595,15:15:58.265,1.5163,-0.4482,42.44634643,-76.47107588,4,"$GNGGA,191558.000,4226.780786,N,07628.264553,W,4,30,0.62,272.272,M,-33.936,M,1.0,0689*66"
1777317359.279037,15:15:59.279,1.519,-0.4334,42.44634657,-76.47107585,4,"$GNGGA,191559.000,4226.780794,N,07628.264551,W,4,31,0.51,272.247,M,-33.936,M,1.0,0689*61"
1777317362.2756472,15:16:02.275,1.519,-0.439,42.44634652,-76.47107585,4,"$GNGGA,191602.000,4226.780791,N,07628.264551,W,4,31,0.48,272.233,M,-33.936,M,1.0,0689*62"
1777317363.284419,15:16:03.284,1.5313,-0.4519,42.4463464,-76.4710757,4,"$GNGGA,191603.000,4226.780784,N,07628.264542,W,4,32,0.50,272.254,M,-33.937,M,1.0,0689*6F"
1777317364.2735107,15:16:04.273,1.5313,-0.4482,42.44634643,-76.4710757,4,"$GNGGA,191604.000,4226.780786,N,07628.264542,W,4,32,0.64,272.250,M,-33.936,M,1.0,0689*68"
1777317365.2481012,15:16:05.248,1.5341,-0.4501,42.44634642,-76.47107567,4,"$GNGGA,191605.000,4226.780785,N,07628.264540,W,4,32,0.55,272.243,M,-33.937,M,1.0,0689*69"
1777317366.264849,15:16:06.264,1.5395,-0.4427,42.44634648,-76.4710756,4,"$GNGGA,191606.000,4226.780789,N,07628.264536,W,4,32,0.62,272.247,M,-33.937,M,1.0,0689*67"
1777317367.2772899,15:16:07.277,1.5491,-0.4408,42.4463465,-76.47107548,4,"$GNGGA,191607.000,4226.780790,N,07628.264529,W,4,32,0.62,272.259,M,-33.936,M,1.0,0689*6E"
1777317368.254417,15:16:08.254,1.5587,-0.4408,42.4463465,-76.47107537,4,"$GNGGA,191608.000,4226.780790,N,07628.264522,W,4,32,0.62,272.247,M,-33.937,M,1.0,0689*64"
1777317369.2701666,15:16:09.270,1.5628,-0.4371,42.44634653,-76.47107532,4,"$GNGGA,191609.000,4226.780792,N,07628.264519,W,4,32,0.65,272.233,M,-33.937,M,1.0,0689*6B"
1777317372.2748404,15:16:12.274,1.5779,-0.4353,42.44634655,-76.47107513,4,"$GNGGA,191612.000,4226.780793,N,07628.264508,W,4,32,0.61,272.236,M,-33.937,M,1.0,0689*61"
1777317373.2746518,15:16:13.274,1.5875,-0.4612,42.44634632,-76.47107502,4,"$GNGGA,191613.000,4226.780779,N,07628.264501,W,4,32,0.64,272.248,M,-33.936,M,1.0,0689*60"
1777317374.2571232,15:16:14.257,1.5806,-0.4501,42.44634642,-76.4710751,4,"$GNGGA,191614.000,4226.780785,N,07628.264506,W,4,31,0.65,272.241,M,-33.937,M,1.0,0689*69"
1777317375.2720704,15:16:15.272,1.5834,-0.4594,42.44634633,-76.47107507,4,"$GNGGA,191615.000,4226.780780,N,07628.264504,W,4,32,0.65,272.232,M,-33.936,M,1.0,0689*69"
1777317376.2605314,15:16:16.260,1.5998,-0.4501,42.44634642,-76.47107487,4,"$GNGGA,191616.000,4226.780785,N,07628.264492,W,4,32,0.67,272.259,M,-33.937,M,1.0,0689*6F"
1777317377.24806,15:16:17.248,1.5943,-0.4445,42.44634647,-76.47107493,4,"$GNGGA,191617.000,4226.780788,N,07628.264496,W,4,32,0.61,272.192,M,-33.936,M,1.0,0689*64"
1777317378.2712033,15:16:18.271,1.5984,-0.4464,42.44634645,-76.47107488,4,"$GNGGA,191618.000,4226.780787,N,07628.264493,W,4,32,0.69,272.232,M,-33.937,M,1.0,0689*61"
1777317379.2668188,15:16:19.266,1.6039,-0.4445,42.44634647,-76.47107482,4,"$GNGGA,191619.000,4226.780788,N,07628.264489,W,4,32,0.69,272.229,M,-33.936,M,1.0,0689*6F"
1777317382.2801425,15:16:22.280,1.6299,-0.4575,42.44634635,-76.4710745,4,"$GNGGA,191622.000,4226.780781,N,07628.264470,W,4,32,0.62,272.251,M,-33.937,M,1.0,0689*6D"
1777317383.2512126,15:16:23.251,1.6258,-0.4519,42.4463464,-76.47107455,4,"$GNGGA,191623.000,4226.780784,N,07628.264473,W,4,32,0.67,272.235,M,-33.936,M,1.0,0689*6C"
1777317384.2561083,15:16:24.256,1.6368,-0.4371,42.44634653,-76.47107442,4,"$GNGGA,191624.000,4226.780792,N,07628.264465,W,4,32,0.66,272.250,M,-33.936,M,1.0,0689*69"
1777317385.2531924,15:16:25.253,1.6368,-0.4575,42.44634635,-76.47107442,4,"$GNGGA,191625.000,4226.780781,N,07628.264465,W,4,32,0.69,272.249,M,-33.936,M,1.0,0689*6D"
1777317386.2534113,15:16:26.253,1.6587,-0.4538,42.44634638,-76.47107415,4,"$GNGGA,191626.000,4226.780783,N,07628.264449,W,4,32,0.62,272.255,M,-33.937,M,1.0,0689*65"
1777317387.230078,15:16:27.230,1.6519,-0.4538,42.44634638,-76.47107423,4,"$GNGGA,191627.000,4226.780783,N,07628.264454,W,4,32,0.69,272.238,M,-33.937,M,1.0,0689*68"
1777317388.2744813,15:16:28.274,1.6615,-0.4668,42.44634627,-76.47107412,4,"$GNGGA,191628.000,4226.780776,N,07628.264447,W,4,32,0.73,272.257,M,-33.936,M,1.0,0689*6C"
1777317389.2471898,15:16:29.247,1.6683,-0.4501,42.44634642,-76.47107403,4,"$GNGGA,191629.000,4226.780785,N,07628.264442,W,4,32,0.72,272.254,M,-33.937,M,1.0,0689*67"
1777317392.2475772,15:16:32.247,1.6889,-0.4538,42.44634638,-76.47107378,4,"$GNGGA,191632.000,4226.780783,N,07628.264427,W,4,32,0.75,272.262,M,-33.936,M,1.0,0689*6B"
1777317393.253774,15:16:33.253,1.7053,-0.4594,42.44634633,-76.47107358,4,"$GNGGA,191633.000,4226.780780,N,07628.264415,W,4,32,0.73,272.246,M,-33.937,M,1.0,0689*69"
1777317394.2500503,15:16:34.250,1.7135,-0.4723,42.44634622,-76.47107348,4,"$GNGGA,191634.000,4226.780773,N,07628.264409,W,4,32,0.75,272.275,M,-33.936,M,1.0,0689*68"
1777317395.2441466,15:16:35.244,1.6957,-0.4668,42.44634627,-76.4710737,4,"$GNGGA,191635.000,4226.780776,N,07628.264422,W,4,32,0.71,272.210,M,-33.937,M,1.0,0689*63"
1777317396.2625673,15:16:36.262,1.7039,-0.4612,42.44634632,-76.4710736,4,"$GNGGA,191636.000,4226.780779,N,07628.264416,W,4,32,0.68,272.232,M,-33.936,M,1.0,0689*61"
1777317397.2554579,15:16:37.255,1.7204,-0.4816,42.44634613,-76.4710734,4,"$GNGGA,191637.000,4226.780768,N,07628.264404,W,4,32,0.69,272.247,M,-33.937,M,1.0,0689*61"
1777317398.2583425,15:16:38.258,1.7217,-0.4779,42.44634617,-76.47107338,4,"$GNGGA,191638.000,4226.780770,N,07628.264403,W,4,32,0.68,272.238,M,-33.937,M,1.0,0689*69"
1777317399.2806258,15:16:39.280,1.7341,-0.476,42.44634618,-76.47107323,4,"$GNGGA,191639.000,4226.780771,N,07628.264394,W,4,32,0.74,272.269,M,-33.937,M,1.0,0689*69"
1777317402.2536259,15:16:42.253,1.7615,-0.4779,42.44634617,-76.4710729,4,"$GNGGA,191642.000,4226.780770,N,07628.264374,W,4,30,0.70,272.280,M,-33.936,M,1.0,0689*6A"
1777317403.231045,15:16:43.231,1.7615,-0.4816,42.44634613,-76.4710729,4,"$GNGGA,191643.000,4226.780768,N,07628.264374,W,4,31,0.70,272.270,M,-33.936,M,1.0,0689*6C"
1777317404.252026,15:16:44.252,1.7587,-0.4668,42.44634627,-76.47107293,4,"$GNGGA,191644.000,4226.780776,N,07628.264376,W,4,31,0.70,272.264,M,-33.937,M,1.0,0689*62"
1777317405.2391193,15:16:45.239,1.7669,-0.4742,42.4463462,-76.47107283,4,"$GNGGA,191645.000,4226.780772,N,07628.264370,W,4,32,0.69,272.276,M,-33.936,M,1.0,0689*68"
1777317406.2832906,15:16:46.283,1.7656,-0.4871,42.44634608,-76.47107285,4,"$GNGGA,191646.000,4226.780765,N,07628.264371,W,4,31,0.70,272.252,M,-33.936,M,1.0,0689*61"
1777317407.2259362,15:16:47.225,1.7724,-0.4779,42.44634617,-76.47107277,4,"$GNGGA,191647.000,4226.780770,N,07628.264366,W,4,32,0.77,272.260,M,-33.936,M,1.0,0689*67"
1777317408.2733276,15:16:48.273,1.7656,-0.4797,42.44634615,-76.47107285,4,"$GNGGA,191648.000,4226.780769,N,07628.264371,W,4,32,0.70,272.226,M,-33.936,M,1.0,0689*63"
1777317409.2697449,15:16:49.269,1.7765,-0.4908,42.44634605,-76.47107272,4,"$GNGGA,191649.000,4226.780763,N,07628.264363,W,4,31,0.70,272.256,M,-33.936,M,1.0,0689*6F"
1777317412.267673,15:16:52.267,1.7834,-0.476,42.44634618,-76.47107263,4,"$GNGGA,191652.000,4226.780771,N,07628.264358,W,4,32,0.70,272.218,M,-33.937,M,1.0,0689*66"
1777317413.2509508,15:16:53.250,1.7902,-0.4927,42.44634603,-76.47107255,4,"$GNGGA,191653.000,4226.780762,N,07628.264353,W,4,32,0.70,272.271,M,-33.936,M,1.0,0689*60"
1777317414.2525373,15:16:54.252,1.8012,-0.489,42.44634607,-76.47107242,4,"$GNGGA,191654.000,4226.780764,N,07628.264345,W,4,32,0.71,272.249,M,-33.937,M,1.0,0689*6D"
1777317415.2620156,15:16:55.262,1.7847,-0.5019,42.44634595,-76.47107262,4,"$GNGGA,191655.000,4226.780757,N,07628.264357,W,4,32,0.81,272.222,M,-33.937,M,1.0,0689*6D"
1777317416.2628405,15:16:56.262,1.7998,-0.5056,42.44634592,-76.47107243,4,"$GNGGA,191656.000,4226.780755,N,07628.264346,W,4,32,0.82,272.226,M,-33.936,M,1.0,0689*6A"
1777317417.2798905,15:16:57.279,1.7998,-0.5075,42.4463459,-76.47107243,4,"$GNGGA,191657.000,4226.780754,N,07628.264346,W,4,32,0.81,272.240,M,-33.936,M,1.0,0689*69"
1777317418.2580624,15:16:58.258,1.8121,-0.5131,42.44634585,-76.47107228,4,"$GNGGA,191658.000,4226.780751,N,07628.264337,W,4,32,0.69,272.224,M,-33.937,M,1.0,0689*60"
1777317419.245476,15:16:59.245,1.8149,-0.5019,42.44634595,-76.47107225,4,"$GNGGA,191659.000,4226.780757,N,07628.264335,W,4,32,0.61,272.223,M,-33.937,M,1.0,0689*6A"
1777317422.2562644,15:17:02.256,1.8299,-0.5205,42.44634578,-76.47107207,4,"$GNGGA,191702.000,4226.780747,N,07628.264324,W,4,32,0.66,272.233,M,-33.936,M,1.0,0689*63"
1777317423.2611377,15:17:03.261,1.8286,-0.5056,42.44634592,-76.47107208,4,"$GNGGA,191703.000,4226.780755,N,07628.264325,W,4,32,0.66,272.225,M,-33.937,M,1.0,0689*66"
1777317424.2486198,15:17:04.248,1.8354,-0.5112,42.44634587,-76.471072,4,"$GNGGA,191704.000,4226.780752,N,07628.264320,W,4,32,0.66,272.220,M,-33.936,M,1.0,0689*67"
1777317425.2242467,15:17:05.224,1.8341,-0.5186,42.4463458,-76.47107202,4,"$GNGGA,191705.000,4226.780748,N,07628.264321,W,4,32,0.66,272.213,M,-33.936,M,1.0,0689*6C"
1777317426.2544556,15:17:06.254,1.8354,-0.5149,42.44634583,-76.471072,4,"$GNGGA,191706.000,4226.780750,N,07628.264320,W,4,32,0.66,272.247,M,-33.936,M,1.0,0689*66"
1777317427.2614233,15:17:07.261,1.8532,-0.5001,42.44634597,-76.47107178,4,"$GNGGA,191707.000,4226.780758,N,07628.264307,W,4,32,0.69,272.223,M,-33.936,M,1.0,0689*67"
1777317428.2486258,15:17:08.248,1.845,-0.5056,42.44634592,-76.47107188,4,"$GNGGA,191708.000,4226.780755,N,07628.264313,W,4,32,0.69,272.204,M,-33.936,M,1.0,0689*65"
1777317429.259257,15:17:09.259,1.856,-0.5056,42.44634592,-76.47107175,4,"$GNGGA,191709.000,4226.780755,N,07628.264305,W,4,31,0.69,272.197,M,-33.936,M,1.0,0689*69"
1777317432.245249,15:17:12.245,1.8656,-0.5168,42.44634582,-76.47107163,4,"$GNGGA,191712.000,4226.780749,N,07628.264298,W,4,31,0.72,272.244,M,-33.937,M,1.0,0689*6D"
1777317433.2540922,15:17:13.254,1.8971,-0.5297,42.4463457,-76.47107125,4,"$GNGGA,191713.000,4226.780742,N,07628.264275,W,4,31,0.70,272.217,M,-33.937,M,1.0,0689*60"
1777317434.2487557,15:17:14.248,1.893,-0.5242,42.44634575,-76.4710713,4,"$GNGGA,191714.000,4226.780745,N,07628.264278,W,4,32,0.65,272.204,M,-33.937,M,1.0,0689*68"
1777317435.2465785,15:17:15.246,1.9012,-0.5279,42.44634572,-76.4710712,4,"$GNGGA,191715.000,4226.780743,N,07628.264272,W,4,31,0.68,272.210,M,-33.936,M,1.0,0689*6F"
1777317436.2498674,15:17:16.249,1.8957,-0.5316,42.44634568,-76.47107127,4,"$GNGGA,191716.000,4226.780741,N,07628.264276,W,4,31,0.65,272.186,M,-33.937,M,1.0,0689*6A"
1777317437.2564802,15:17:17.256,1.9053,-0.5427,42.44634558,-76.47107115,4,"$GNGGA,191717.000,4226.780735,N,07628.264269,W,4,31,0.60,272.210,M,-33.936,M,1.0,0689*6E"
1777317438.2706962,15:17:18.270,1.908,-0.5334,42.44634567,-76.47107112,4,"$GNGGA,191718.000,4226.780740,N,07628.264267,W,4,32,0.60,272.209,M,-33.936,M,1.0,0689*66"
1777317439.2648244,15:17:19.264,1.9121,-0.539,42.44634562,-76.47107107,4,"$GNGGA,191719.000,4226.780737,N,07628.264264,W,4,32,0.64,272.217,M,-33.936,M,1.0,0689*6F"
1777317442.2794297,15:17:22.279,1.9217,-0.5353,42.44634565,-76.47107095,4,"$GNGGA,191722.000,4226.780739,N,07628.264257,W,4,32,0.64,272.208,M,-33.936,M,1.0,0689*67"
1777317443.2531426,15:17:23.253,1.9245,-0.539,42.44634562,-76.47107092,4,"$GNGGA,191723.000,4226.780737,N,07628.264255,W,4,32,0.59,272.205,M,-33.937,M,1.0,0689*68"
