unix_time,human_time,x_meters,y_meters,raw_lat,raw_lon,status_quality,raw_nmea
1777316755.3014235,15:05:55.301,-0.05,0.0157,42.44635367,-76.47108283,5,"$GNGGA,190555.000,4226.781220,N,07628.264970,W,5,31,0.55,272.928,M,-33.936,M,1.0,0685*63"
1777316756.2838047,15:05:56.283,-0.0404,0.0157,42.44635367,-76.47108272,5,"$GNGGA,190556.000,4226.781220,N,07628.264963,W,5,31,0.58,272.930,M,-33.937,M,1.0,0685*67"
1777316757.2820961,15:05:57.282,-0.0431,0.012,42.44635363,-76.47108275,5,"$GNGGA,190557.000,4226.781218,N,07628.264965,W,5,31,0.59,272.949,M,-33.936,M,1.0,0685*65"
1777316758.3009548,15:05:58.300,-0.0349,0.0046,42.44635357,-76.47108265,5,"$GNGGA,190558.000,4226.781214,N,07628.264959,W,5,31,0.59,272.971,M,-33.936,M,1.0,0685*62"
1777316759.298022,15:05:59.298,-0.0363,-0.0306,42.44635325,-76.47108267,5,"$GNGGA,190559.000,4226.781195,N,07628.264960,W,5,31,0.60,273.065,M,-33.937,M,1.0,0687*67"
1777316762.296245,15:06:02.296,-0.0719,-0.038,42.44635318,-76.4710831,5,"$GNGGA,190602.000,4226.781191,N,07628.264986,W,5,31,0.68,273.072,M,-33.937,M,1.0,0687*68"
1777316763.298076,15:06:03.298,-0.0719,-0.0546,42.44635303,-76.4710831,5,"$GNGGA,190603.000,4226.781182,N,07628.264986,W,5,31,0.70,273.083,M,-33.936,M,1.0,0687*6D"
1777316764.2639437,15:06:04.263,-0.0678,-0.0213,42.44635333,-76.47108305,5,"$GNGGA,190604.000,4226.781200,N,07628.264983,W,5,31,0.65,273.121,M,-33.936,M,1.0,0687*6B"
1777316765.2574747,15:06:05.257,-0.0774,-0.0176,42.44635337,-76.47108317,5,"$GNGGA,190605.000,4226.781202,N,07628.264990,W,5,31,0.66,273.100,M,-33.937,M,1.0,0687*6B"
1777316766.275813,15:06:06.275,-0.0582,-0.038,42.44635318,-76.47108293,5,"$GNGGA,190606.000,4226.781191,N,07628.264976,W,5,31,0.72,273.137,M,-33.937,M,1.0,0687*68"
1777316767.273015,15:06:07.273,-0.0747,0.0695,42.44635415,-76.47108313,5,"$GNGGA,190607.000,4226.781249,N,07628.264988,W,5,31,0.72,273.176,M,-33.936,M,1.0,0687*6A"
1777316768.2469637,15:06:08.246,-0.0856,0.1491,42.44635487,-76.47108327,5,"$GNGGA,190608.000,4226.781292,N,07628.264996,W,5,31,0.68,273.236,M,-33.936,M,1.0,0687*60"
1777316769.2271802,15:06:09.227,-0.0979,0.1732,42.44635508,-76.47108342,5,"$GNGGA,190609.000,4226.781305,N,07628.265005,W,5,31,0.66,273.209,M,-33.936,M,1.0,0687*6E"
1777316772.2374644,15:06:12.237,-0.1212,0.1473,42.44635485,-76.4710837,5,"$GNGGA,190612.000,4226.781291,N,07628.265022,W,5,31,0.75,273.094,M,-33.937,M,1.0,0687*68"
1777316773.2099571,15:06:13.209,-0.1294,0.0287,42.44635378,-76.4710838,5,"$GNGGA,190613.000,4226.781227,N,07628.265028,W,5,31,0.79,272.904,M,-33.936,M,1.0,0687*62"
1777316774.2522306,15:06:14.252,-0.124,0.0843,42.44635428,-76.47108373,5,"$GNGGA,190614.000,4226.781257,N,07628.265024,W,5,31,0.78,273.037,M,-33.937,M,1.0,0687*66"
1777316775.2182252,15:06:15.218,-0.1294,0.0065,42.44635358,-76.4710838,5,"$GNGGA,190615.000,4226.781215,N,07628.265028,W,5,31,0.85,273.013,M,-33.937,M,1.0,0687*69"
1777316776.230957,15:06:16.230,-0.139,-0.0102,42.44635343,-76.47108392,5,"$GNGGA,190616.000,4226.781206,N,07628.265035,W,5,31,0.90,273.080,M,-33.936,M,1.0,0687*6B"
1777316777.2080996,15:06:17.208,-0.1705,-0.0065,42.44635347,-76.4710843,5,"$GNGGA,190617.000,4226.781208,N,07628.265058,W,5,31,0.80,273.028,M,-33.936,M,1.0,0687*6C"
1777316778.2332406,15:06:18.233,-0.1705,-0.0639,42.44635295,-76.4710843,5,"$GNGGA,190618.000,4226.781177,N,07628.265058,W,5,31,0.80,273.024,M,-33.936,M,1.0,0687*64"
1777316779.2525423,15:06:19.252,-0.1884,-0.0565,42.44635302,-76.47108452,5,"$GNGGA,190619.000,4226.781181,N,07628.265071,W,5,31,0.77,273.064,M,-33.936,M,1.0,0687*6B"
1777316782.3145204,15:06:22.314,-0.2555,-0.0861,42.44635275,-76.47108533,5,"$GNGGA,190622.000,4226.781165,N,07628.265120,W,5,30,0.81,273.026,M,-33.936,M,1.0,0687*62"
1777316783.2334635,15:06:23.233,-0.2473,-0.1195,42.44635245,-76.47108523,5,"$GNGGA,190623.000,4226.781147,N,07628.265114,W,5,30,0.81,273.026,M,-33.936,M,1.0,0687*64"
1777316784.2871773,15:06:24.287,-0.2623,-0.1361,42.4463523,-76.47108542,5,"$GNGGA,190624.000,4226.781138,N,07628.265125,W,5,30,0.69,273.008,M,-33.936,M,1.0,0687*63"
1777316785.2809498,15:06:25.280,-0.2651,-0.1584,42.4463521,-76.47108545,5,"$GNGGA,190625.000,4226.781126,N,07628.265127,W,5,30,0.70,273.037,M,-33.937,M,1.0,0687*6A"
1777316786.2528338,15:06:26.252,-0.2883,-0.1917,42.4463518,-76.47108573,5,"$GNGGA,190626.000,4226.781108,N,07628.265144,W,5,30,0.68,273.033,M,-33.936,M,1.0,0687*6C"
1777316787.2370663,15:06:27.237,-0.2952,-0.2213,42.44635153,-76.47108582,5,"$GNGGA,190627.000,4226.781092,N,07628.265149,W,5,30,0.52,273.088,M,-33.937,M,1.0,0687*6A"
1777316788.252546,15:06:28.252,-0.3157,-0.2306,42.44635145,-76.47108607,5,"$GNGGA,190628.000,4226.781087,N,07628.265164,W,5,30,0.74,273.111,M,-33.936,M,1.0,0687*6A"
1777316789.261994,15:06:29.261,-0.3253,-0.2954,42.44635087,-76.47108618,5,"$GNGGA,190629.000,4226.781052,N,07628.265171,W,5,30,0.50,273.078,M,-33.937,M,1.0,0687*6E"
1777316792.2259898,15:06:32.225,-0.3637,-0.3176,42.44635067,-76.47108665,5,"$GNGGA,190632.000,4226.781040,N,07628.265199,W,5,29,0.69,273.154,M,-33.936,M,1.0,0687*6D"
1777316793.2312005,15:06:33.231,-0.3541,-0.3565,42.44635032,-76.47108653,5,"$GNGGA,190633.000,4226.781019,N,07628.265192,W,5,29,0.58,273.201,M,-33.937,M,1.0,0687*6B"
1777316794.227878,15:06:34.227,-0.3555,-0.3695,42.4463502,-76.47108655,5,"$GNGGA,190634.000,4226.781012,N,07628.265193,W,5,29,0.73,273.223,M,-33.937,M,1.0,0687*6F"
1777316795.241857,15:06:35.241,-0.3705,-0.4084,42.44634985,-76.47108673,5,"$GNGGA,190635.000,4226.780991,N,07628.265204,W,5,29,0.52,273.191,M,-33.937,M,1.0,0687*69"
1777316796.2463284,15:06:36.246,-0.3746,-0.4566,42.44634942,-76.47108678,5,"$GNGGA,190636.000,4226.780965,N,07628.265207,W,5,28,0.54,273.160,M,-33.936,M,1.0,0687*6A"
1777316797.2384384,15:06:37.238,-0.3842,-0.4714,42.44634928,-76.4710869,5,"$GNGGA,190637.000,4226.780957,N,07628.265214,W,5,29,0.50,273.126,M,-33.936,M,1.0,0687*6F"
1777316798.2623193,15:06:38.262,-0.3911,-0.4881,42.44634913,-76.47108698,5,"$GNGGA,190638.000,4226.780948,N,07628.265219,W,5,29,0.50,273.126,M,-33.936,M,1.0,0687*63"
1777316799.2129517,15:06:39.212,-0.4034,-0.5344,42.44634872,-76.47108713,5,"$GNGGA,190639.000,4226.780923,N,07628.265228,W,5,29,0.52,273.095,M,-33.936,M,1.0,0687*66"
1777316802.3603675,15:06:42.360,-0.4075,-0.7011,42.44634722,-76.47108718,5,"$GNGGA,190642.000,4226.780833,N,07628.265231,W,5,28,0.53,272.970,M,-33.936,M,1.0,0687*61"
1777316803.2756665,15:06:43.275,-0.4048,-0.6473,42.4463477,-76.47108715,5,"$GNGGA,190643.000,4226.780862,N,07628.265229,W,5,27,0.67,273.028,M,-33.936,M,1.0,0687*60"
1777316804.320287,15:06:44.320,-0.4157,-0.5918,42.4463482,-76.47108728,5,"$GNGGA,190644.000,4226.780892,N,07628.265237,W,5,27,0.77,273.071,M,-33.937,M,1.0,0687*6B"
1777316805.245214,15:06:45.245,-0.4226,-0.5899,42.44634822,-76.47108737,5,"$GNGGA,190645.000,4226.780893,N,07628.265242,W,5,27,0.70,273.099,M,-33.936,M,1.0,0687*69"
1777316806.3109632,15:06:46.310,-0.4212,-0.564,42.44634845,-76.47108735,5,"$GNGGA,190646.000,4226.780907,N,07628.265241,W,5,27,0.66,273.158,M,-33.937,M,1.0,0687*6F"
1777316807.2955952,15:06:47.295,-0.4185,-0.5862,42.44634825,-76.47108732,5,"$GNGGA,190647.000,4226.780895,N,07628.265239,W,5,28,0.74,273.180,M,-33.936,M,1.0,0687*63"
1777316808.2808425,15:06:48.280,-0.4404,-0.5658,42.44634843,-76.47108758,5,"$GNGGA,190648.000,4226.780906,N,07628.265255,W,5,29,0.70,273.144,M,-33.936,M,1.0,0687*60"
1777316809.252073,15:06:49.252,-0.4267,-0.6047,42.44634808,-76.47108742,5,"$GNGGA,190649.000,4226.780885,N,07628.265245,W,5,29,0.66,273.102,M,-33.937,M,1.0,0687*6E"
1777316812.2690933,15:06:52.269,-0.4144,-0.601,42.44634812,-76.47108727,5,"$GNGGA,190652.000,4226.780887,N,07628.265236,W,5,29,0.67,273.168,M,-33.937,M,1.0,0687*6F"
1777316813.2561524,15:06:53.256,-0.4212,-0.5936,42.44634818,-76.47108735,5,"$GNGGA,190653.000,4226.780891,N,07628.265241,W,5,29,0.59,273.161,M,-33.936,M,1.0,0687*6C"
1777316814.2795446,15:06:54.279,-0.4157,-0.5751,42.44634835,-76.47108728,5,"$GNGGA,190654.000,4226.780901,N,07628.265237,W,5,29,0.59,273.216,M,-33.937,M,1.0,0687*60"
1777316815.1918821,15:06:55.191,-0.4171,-0.5992,42.44634813,-76.4710873,5,"$GNGGA,190655.000,4226.780888,N,07628.265238,W,5,29,0.72,273.210,M,-33.936,M,1.0,0687*60"
1777316816.24471,15:06:56.244,-0.4377,-0.6196,42.44634795,-76.47108755,5,"$GNGGA,190656.000,4226.780877,N,07628.265253,W,5,29,0.54,273.226,M,-33.936,M,1.0,0687*6F"
1777316817.2480257,15:06:57.248,-0.4363,-0.6288,42.44634787,-76.47108753,5,"$GNGGA,190657.000,4226.780872,N,07628.265252,W,5,29,0.53,273.226,M,-33.936,M,1.0,0687*6D"
1777316818.2565873,15:06:58.256,-0.4418,-0.6603,42.44634758,-76.4710876,5,"$GNGGA,190658.000,4226.780855,N,07628.265256,W,5,29,0.61,273.203,M,-33.937,M,1.0,0687*64"
1777316819.2084732,15:06:59.208,-0.4418,-0.6992,42.44634723,-76.4710876,5,"$GNGGA,190659.000,4226.780834,N,07628.265256,W,5,29,0.76,273.190,M,-33.936,M,1.0,0687*6C"
1777316822.257315,15:07:02.257,-0.4048,-0.8066,42.44634627,-76.47108715,5,"$GNGGA,190702.000,4226.780776,N,07628.265229,W,5,30,0.68,273.202,M,-33.937,M,1.0,0687*6C"
1777316823.2435405,15:07:03.243,-0.4431,-0.7863,42.44634645,-76.47108762,5,"$GNGGA,190703.000,4226.780787,N,07628.265257,W,5,30,0.64,273.189,M,-33.937,M,1.0,0687*66"
1777316824.2734494,15:07:04.273,-0.4349,-0.7992,42.44634633,-76.47108752,5,"$GNGGA,190704.000,4226.780780,N,07628.265251,W,5,30,0.56,273.233,M,-33.936,M,1.0,0687*62"
1777316825.2633832,15:07:05.263,-0.3733,-0.8548,42.44634583,-76.47108677,5,"$GNGGA,190705.000,4226.780750,N,07628.265206,W,5,30,0.55,273.285,M,-33.936,M,1.0,0687*62"
1777316826.295345,15:07:06.295,-0.3842,-0.9029,42.4463454,-76.4710869,5,"$GNGGA,190706.000,4226.780724,N,07628.265214,W,5,31,0.50,273.241,M,-33.936,M,1.0,0687*6D"
1777316827.2834597,15:07:07.283,-0.3486,-0.927,42.44634518,-76.47108647,5,"$GNGGA,190707.000,4226.780711,N,07628.265188,W,5,31,0.54,273.278,M,-33.937,M,1.0,0687*63"
1777316828.2427866,15:07:08.242,-0.376,-0.9011,42.44634542,-76.4710868,5,"$GNGGA,190708.000,4226.780725,N,07628.265208,W,5,29,0.53,273.250,M,-33.936,M,1.0,0687*65"
1777316829.248176,15:07:09.248,-0.3459,-0.9289,42.44634517,-76.47108643,5,"$GNGGA,190709.000,4226.780710,N,07628.265186,W,5,30,0.51,273.297,M,-33.936,M,1.0,0687*66"
1777316832.2574682,15:07:12.257,-0.3199,-0.927,42.44634518,-76.47108612,5,"$GNGGA,190712.000,4226.780711,N,07628.265167,W,5,29,0.51,273.283,M,-33.936,M,1.0,0687*6F"
1777316833.2212918,15:07:13.221,-0.3226,-0.9344,42.44634512,-76.47108615,5,"$GNGGA,190713.000,4226.780707,N,07628.265169,W,5,29,0.59,273.259,M,-33.937,M,1.0,0687*69"
1777316834.3278322,15:07:14.327,-0.3322,-0.9048,42.44634538,-76.47108627,5,"$GNGGA,190714.000,4226.780723,N,07628.265176,W,5,30,0.61,273.287,M,-33.936,M,1.0,0687*67"
1777316835.2715564,15:07:15.271,-0.3253,-0.8974,42.44634545,-76.47108618,5,"$GNGGA,190715.000,4226.780727,N,07628.265171,W,5,31,0.58,273.280,M,-33.936,M,1.0,0687*69"
1777316836.3453412,15:07:16.345,-0.3062,-0.9104,42.44634533,-76.47108595,5,"$GNGGA,190716.000,4226.780720,N,07628.265157,W,5,31,0.58,273.332,M,-33.937,M,1.0,0687*60"
1777316837.2908492,15:07:17.290,-0.3075,-0.9011,42.44634542,-76.47108597,5,"$GNGGA,190717.000,4226.780725,N,07628.265158,W,5,30,0.56,273.281,M,-33.937,M,1.0,0687*6D"
1777316838.2806437,15:07:18.280,-0.2993,-0.9104,42.44634533,-76.47108587,5,"$GNGGA,190718.000,4226.780720,N,07628.265152,W,5,30,0.61,273.309,M,-33.936,M,1.0,0687*69"
1777316839.2770438,15:07:19.277,-0.3048,-0.9104,42.44634533,-76.47108593,5,"$GNGGA,190719.000,4226.780720,N,07628.265156,W,5,30,0.61,273.339,M,-33.936,M,1.0,0687*6F"
1777316842.261835,15:07:22.261,-0.2842,-0.9085,42.44634535,-76.47108568,5,"$GNGGA,190722.000,4226.780721,N,07628.265141,W,5,29,0.64,273.460,M,-33.936,M,1.0,0687*66"
1777316843.268301,15:07:23.268,-0.2692,-0.9381,42.44634508,-76.4710855,5,"$GNGGA,190723.000,4226.780705,N,07628.265130,W,5,29,0.65,273.507,M,-33.937,M,1.0,0687*67"
1777316844.2665396,15:07:24.266,-0.2774,-0.9789,42.44634472,-76.4710856,5,"$GNGGA,190724.000,4226.780683,N,07628.265136,W,5,29,0.65,273.464,M,-33.937,M,1.0,0687*6D"
1777316845.308154,15:07:25.308,-0.2829,-1.0344,42.44634422,-76.47108567,5,"$GNGGA,190725.000,4226.780653,N,07628.265140,W,5,29,0.65,273.426,M,-33.936,M,1.0,0687*67"
1777316846.2882385,15:07:26.288,-0.2527,-1.0863,42.44634375,-76.4710853,5,"$GNGGA,190726.000,4226.780625,N,07628.265118,W,5,30,0.65,273.494,M,-33.937,M,1.0,0687*68"
1777316847.2859995,15:07:27.286,-0.261,-1.0808,42.4463438,-76.4710854,5,"$GNGGA,190727.000,4226.780628,N,07628.265124,W,5,31,0.59,273.459,M,-33.936,M,1.0,0687*65"
1777316848.3139453,15:07:28.313,-0.2445,-1.1122,42.44634352,-76.4710852,5,"$GNGGA,190728.000,4226.780611,N,07628.265112,W,5,31,0.58,273.454,M,-33.937,M,1.0,0687*68"
1777316849.307432,15:07:29.307,-0.2568,-1.1048,42.44634358,-76.47108535,5,"$GNGGA,190729.000,4226.780615,N,07628.265121,W,5,31,0.57,273.470,M,-33.936,M,1.0,0687*65"
1777316852.2953913,15:07:32.295,-0.2678,-1.103,42.4463436,-76.47108548,5,"$GNGGA,190732.000,4226.780616,N,07628.265129,W,5,31,0.59,273.461,M,-33.936,M,1.0,0687*6A"
1777316853.3019564,15:07:33.301,-0.2733,-1.0937,42.44634368,-76.47108555,5,"$GNGGA,190733.000,4226.780621,N,07628.265133,W,5,31,0.67,273.517,M,-33.937,M,1.0,0687*68"
1777316854.2834752,15:07:34.283,-0.2733,-1.0789,42.44634382,-76.47108555,5,"$GNGGA,190734.000,4226.780629,N,07628.265133,W,5,31,0.60,273.531,M,-33.936,M,1.0,0687*65"
1777316855.2605755,15:07:35.260,-0.2486,-1.0863,42.44634375,-76.47108525,5,"$GNGGA,190735.000,4226.780625,N,07628.265115,W,5,31,0.60,273.536,M,-33.937,M,1.0,0687*6A"
1777316856.24993,15:07:36.249,-0.261,-1.0419,42.44634415,-76.4710854,5,"$GNGGA,190736.000,4226.780649,N,07628.265124,W,5,31,0.61,273.600,M,-33.937,M,1.0,0687*66"
1777316857.2627897,15:07:37.262,-0.2431,-1.0215,42.44634433,-76.47108518,5,"$GNGGA,190737.000,4226.780660,N,07628.265111,W,5,31,0.60,273.654,M,-33.936,M,1.0,0687*6B"
1777316858.2563682,15:07:38.256,-0.2253,-1.053,42.44634405,-76.47108497,5,"$GNGGA,190738.000,4226.780643,N,07628.265098,W,5,31,0.60,273.696,M,-33.936,M,1.0,0687*6B"
1777316859.2869697,15:07:39.286,-0.224,-1.0159,42.44634438,-76.47108495,5,"$GNGGA,190739.000,4226.780663,N,07628.265097,W,5,31,0.60,273.684,M,-33.936,M,1.0,0687*64"
1777316862.3198595,15:07:42.319,-0.1568,-1.0307,42.44634425,-76.47108413,5,"$GNGGA,190742.000,4226.780655,N,07628.265048,W,5,31,0.51,273.769,M,-33.936,M,1.0,0687*6F"
1777316863.333199,15:07:43.333,-0.1486,-0.9844,42.44634467,-76.47108403,5,"$GNGGA,190743.000,4226.780680,N,07628.265042,W,5,31,0.51,273.850,M,-33.936,M,1.0,0687*69"
1777316864.3095725,15:07:44.309,-0.1363,-1.0196,42.44634435,-76.47108388,5,"$GNGGA,190744.000,4226.780661,N,07628.265033,W,5,31,0.58,273.810,M,-33.936,M,1.0,0687*6A"
1777316865.3111475,15:07:45.311,-0.1226,-0.9956,42.44634457,-76.47108372,5,"$GNGGA,190745.000,4226.780674,N,07628.265023,W,5,31,0.58,273.830,M,-33.936,M,1.0,0687*6C"
1777316866.306509,15:07:46.306,-0.1116,-1.0159,42.44634438,-76.47108358,5,"$GNGGA,190746.000,4226.780663,N,07628.265015,W,5,31,0.68,273.795,M,-33.936,M,1.0,0687*6F"
1777316867.2928417,15:07:47.292,-0.0719,-1.0233,42.44634432,-76.4710831,5,"$GNGGA,190747.000,4226.780659,N,07628.264986,W,5,31,0.62,273.843,M,-33.936,M,1.0,0687*6B"
1777316868.309797,15:07:48.309,-0.0473,-1.027,42.44634428,-76.4710828,5,"$GNGGA,190748.000,4226.780657,N,07628.264968,W,5,30,0.59,273.886,M,-33.936,M,1.0,0687*6A"
1777316869.2987618,15:07:49.298,-0.0185,-1.04,42.44634417,-76.47108245,5,"$GNGGA,190749.000,4226.780650,N,07628.264947,W,5,31,0.56,273.927,M,-33.936,M,1.0,0687*65"
1777316872.2779484,15:07:52.277,0.013,-1.0604,42.44634398,-76.47108207,5,"$GNGGA,190752.000,4226.780639,N,07628.264924,W,5,30,0.59,273.960,M,-33.936,M,1.0,0687*68"
1777316873.269304,15:07:53.269,0.0021,-1.103,42.4463436,-76.4710822,5,"$GNGGA,190753.000,4226.780616,N,07628.264932,W,5,30,0.59,273.925,M,-33.936,M,1.0,0687*62"
1777316874.2955766,15:07:54.295,-0.0007,-1.027,42.44634428,-76.47108223,5,"$GNGGA,190754.000,4226.780657,N,07628.264934,W,5,31,0.59,274.052,M,-33.936,M,1.0,0687*69"
1777316875.2890685,15:07:55.289,-0.0089,-1.0622,42.44634397,-76.47108233,5,"$GNGGA,190755.000,4226.780638,N,07628.264940,W,5,31,0.61,273.977,M,-33.936,M,1.0,0687*60"
1777316876.3020983,15:07:56.302,0.0089,-1.0548,42.44634403,-76.47108212,5,"$GNGGA,190756.000,4226.780642,N,07628.264927,W,5,31,0.51,273.985,M,-33.936,M,1.0,0687*61"
1777316877.295648,15:07:57.295,0.0158,-1.0789,42.44634382,-76.47108203,5,"$GNGGA,190757.000,4226.780629,N,07628.264922,W,5,31,0.60,273.963,M,-33.937,M,1.0,0687*63"
1777316878.3167183,15:07:58.316,0.0062,-1.1308,42.44634335,-76.47108215,5,"$GNGGA,190758.000,4226.780601,N,07628.264929,W,5,31,0.51,273.855,M,-33.936,M,1.0,0687*6A"
1777316879.3096106,15:07:59.309,0.0363,-1.1271,42.44634338,-76.47108178,5,"$GNGGA,190759.000,4226.780603,N,07628.264907,W,5,31,0.51,273.856,M,-33.936,M,1.0,0687*66"
1777316882.3015878,15:08:02.301,0.0116,-1.1178,42.44634347,-76.47108208,5,"$GNGGA,190802.000,4226.780608,N,07628.264925,W,5,31,0.59,273.775,M,-33.936,M,1.0,0687*6A"
1777316883.3047285,15:08:03.304,0.0253,-1.1197,42.44634345,-76.47108192,5,"$GNGGA,190803.000,4226.780607,N,07628.264915,W,5,31,0.51,273.710,M,-33.937,M,1.0,0687*6D"
1777316884.3556013,15:08:04.355,0.0678,-1.1604,42.44634308,-76.4710814,5,"$GNGGA,190804.000,4226.780585,N,07628.264884,W,5,31,0.51,273.648,M,-33.936,M,1.0,0687*67"
1777316885.350434,15:08:05.350,0.0678,-1.153,42.44634315,-76.4710814,5,"$GNGGA,190805.000,4226.780589,N,07628.264884,W,5,31,0.51,273.629,M,-33.936,M,1.0,0687*6D"
1777316886.344959,15:08:06.344,0.0856,-1.1623,42.44634307,-76.47108118,5,"$GNGGA,190806.000,4226.780584,N,07628.264871,W,5,31,0.57,273.610,M,-33.937,M,1.0,0687*64"
1777316887.3252528,15:08:07.325,0.0842,-1.1197,42.44634345,-76.4710812,5,"$GNGGA,190807.000,4226.780607,N,07628.264872,W,5,31,0.56,273.611,M,-33.936,M,1.0,0687*6F"
1777316888.3506298,15:08:08.350,0.0664,-1.1011,42.44634362,-76.47108142,5,"$GNGGA,190808.000,4226.780617,N,07628.264885,W,5,30,0.59,273.594,M,-33.936,M,1.0,0687*69"
1777316889.3173575,15:08:09.317,0.0514,-1.0937,42.44634368,-76.4710816,5,"$GNGGA,190809.000,4226.780621,N,07628.264896,W,5,31,0.61,273.598,M,-33.936,M,1.0,0687*69"
1777316892.2499537,15:08:12.249,0.0308,-1.0771,42.44634383,-76.47108185,5,"$GNGGA,190812.000,4226.780630,N,07628.264911,W,5,31,0.60,273.585,M,-33.937,M,1.0,0687*61"
1777316893.3618405,15:08:13.361,0.0651,-1.1085,42.44634355,-76.47108143,5,"$GNGGA,190813.000,4226.780613,N,07628.264886,W,5,31,0.60,273.585,M,-33.936,M,1.0,0687*6F"
1777316894.3129802,15:08:14.312,0.0541,-1.0863,42.44634375,-76.47108157,5,"$GNGGA,190814.000,4226.780625,N,07628.264894,W,5,31,0.64,273.580,M,-33.936,M,1.0,0687*6F"
1777316895.2985103,15:08:15.298,0.0705,-1.0678,42.44634392,-76.47108137,5,"$GNGGA,190815.000,4226.780635,N,07628.264882,W,5,31,0.60,273.598,M,-33.936,M,1.0,0687*65"
1777316896.2896328,15:08:16.289,0.0747,-1.0604,42.44634398,-76.47108132,5,"$GNGGA,190816.000,4226.780639,N,07628.264879,W,5,31,0.62,273.627,M,-33.936,M,1.0,0687*6B"
1777316897.3023255,15:08:17.302,0.1007,-1.103,42.4463436,-76.471081,5,"$GNGGA,190817.000,4226.780616,N,07628.264860,W,5,31,0.60,273.663,M,-33.937,M,1.0,0687*6C"
1777316898.3210986,15:08:18.321,0.1048,-1.0882,42.44634373,-76.47108095,5,"$GNGGA,190818.000,4226.780624,N,07628.264857,W,5,31,0.60,273.630,M,-33.936,M,1.0,0687*61"
1777316899.314346,15:08:19.314,0.1267,-1.0882,42.44634373,-76.47108068,5,"$GNGGA,190819.000,4226.780624,N,07628.264841,W,5,31,0.59,273.684,M,-33.936,M,1.0,0687*62"
1777316902.3454983,15:08:22.345,0.1418,-1.0678,42.44634392,-76.4710805,5,"$GNGGA,190822.000,4226.780635,N,07628.264830,W,5,31,0.58,273.696,M,-33.936,M,1.0,0687*6E"
1777316903.3105571,15:08:23.310,0.1541,-1.0585,42.446344,-76.47108035,5,"$GNGGA,190823.000,4226.780640,N,07628.264821,W,5,30,0.53,273.735,M,-33.936,M,1.0,0687*6F"
1777316904.30371,15:08:24.303,0.1596,-1.0974,42.44634365,-76.47108028,5,"$GNGGA,190824.000,4226.780619,N,07628.264817,W,5,30,0.62,273.754,M,-33.937,M,1.0,0687*65"
1777316905.2950287,15:08:25.295,0.1459,-1.053,42.44634405,-76.47108045,5,"$GNGGA,190825.000,4226.780643,N,07628.264827,W,5,30,0.62,273.710,M,-33.936,M,1.0,0687*69"
1777316906.291132,15:08:26.291,0.1719,-1.0585,42.446344,-76.47108013,5,"$GNGGA,190826.000,4226.780640,N,07628.264808,W,5,30,0.58,273.697,M,-33.936,M,1.0,0687*63"
1777316907.289111,15:08:27.289,0.1486,-1.0382,42.44634418,-76.47108042,5,"$GNGGA,190827.000,4226.780651,N,07628.264825,W,5,29,0.53,273.697,M,-33.937,M,1.0,0687*6F"
1777316908.2900612,15:08:28.290,0.1719,-1.0307,42.44634425,-76.47108013,5,"$GNGGA,190828.000,4226.780655,N,07628.264808,W,5,29,0.61,273.744,M,-33.936,M,1.0,0687*64"
1777316909.2811532,15:08:29.281,0.1623,-1.0493,42.44634408,-76.47108025,5,"$GNGGA,190829.000,4226.780645,N,07628.264815,W,5,29,0.54,273.709,M,-33.937,M,1.0,0687*66"
1777316912.2986686,15:08:32.298,0.1911,-1.0567,42.44634402,-76.4710799,5,"$GNGGA,190832.000,4226.780641,N,07628.264794,W,5,29,0.55,273.727,M,-33.937,M,1.0,0687*63"
1777316913.3019938,15:08:33.302,0.187,-1.0678,42.44634392,-76.47107995,5,"$GNGGA,190833.000,4226.780635,N,07628.264797,W,5,29,0.59,273.743,M,-33.936,M,1.0,0687*6D"
1777316914.2903745,15:08:34.290,0.2281,-1.0567,42.44634402,-76.47107945,5,"$GNGGA,190834.000,4226.780641,N,07628.264767,W,5,30,0.56,273.780,M,-33.937,M,1.0,0687*6F"
1777316915.284627,15:08:35.284,0.2212,-1.0493,42.44634408,-76.47107953,5,"$GNGGA,190835.000,4226.780645,N,07628.264772,W,5,30,0.56,273.771,M,-33.936,M,1.0,0687*61"
1777316916.3085394,15:08:36.308,0.2349,-1.0511,42.44634407,-76.47107937,5,"$GNGGA,190836.000,4226.780644,N,07628.264762,W,5,28,0.49,273.779,M,-33.937,M,1.0,0687*6C"
1777316917.2986908,15:08:37.298,0.2185,-1.053,42.44634405,-76.47107957,5,"$GNGGA,190837.000,4226.780643,N,07628.264774,W,5,29,0.54,273.765,M,-33.936,M,1.0,0687*6C"
1777316918.311257,15:08:38.311,0.2295,-1.0604,42.44634398,-76.47107943,5,"$GNGGA,190838.000,4226.780639,N,07628.264766,W,5,30,0.55,273.725,M,-33.937,M,1.0,0687*61"
1777316919.3100815,15:08:39.310,0.213,-1.0641,42.44634395,-76.47107963,5,"$GNGGA,190839.000,4226.780637,N,07628.264778,W,5,30,0.58,273.714,M,-33.937,M,1.0,0687*6E"
1777316922.233382,15:08:42.233,0.2568,-1.0326,42.44634423,-76.4710791,5,"$GNGGA,190842.000,4226.780654,N,07628.264746,W,5,31,0.57,273.751,M,-33.936,M,1.0,0687*64"
1777316923.227752,15:08:43.227,0.2555,-1.0307,42.44634425,-76.47107912,5,"$GNGGA,190843.000,4226.780655,N,07628.264747,W,5,31,0.56,273.788,M,-33.936,M,1.0,0687*60"
1777316924.251577,15:08:44.251,0.2541,-1.0289,42.44634427,-76.47107913,5,"$GNGGA,190844.000,4226.780656,N,07628.264748,W,5,30,0.59,273.735,M,-33.936,M,1.0,0687*63"
1777316925.2527075,15:08:45.252,0.2637,-1.0104,42.44634443,-76.47107902,5,"$GNGGA,190845.000,4226.780666,N,07628.264741,W,5,30,0.60,273.718,M,-33.936,M,1.0,0687*6D"
1777316926.2864614,15:08:46.286,0.2801,-0.9974,42.44634455,-76.47107882,5,"$GNGGA,190846.000,4226.780673,N,07628.264729,W,5,30,0.63,273.848,M,-33.936,M,1.0,0687*6D"
1777316927.2536526,15:08:47.253,0.2801,-0.9919,42.4463446,-76.47107882,5,"$GNGGA,190847.000,4226.780676,N,07628.264729,W,5,30,0.62,273.822,M,-33.936,M,1.0,0687*64"
1777316928.2818124,15:08:48.281,0.2897,-1.0122,42.44634442,-76.4710787,5,"$GNGGA,190848.000,4226.780665,N,07628.264722,W,5,30,0.63,273.829,M,-33.937,M,1.0,0687*69"
1777316929.2761247,15:08:49.276,0.3171,-0.9919,42.4463446,-76.47107837,5,"$GNGGA,190849.000,4226.780676,N,07628.264702,W,5,30,0.59,273.839,M,-33.936,M,1.0,0687*61"
1777316932.287912,15:08:52.287,0.3623,-0.9715,42.44634478,-76.47107782,5,"$GNGGA,190852.000,4226.780687,N,07628.264669,W,5,29,0.68,273.960,M,-33.937,M,1.0,0687*6F"
1777316933.2667775,15:08:53.266,0.3664,-0.9919,42.4463446,-76.47107777,5,"$GNGGA,190853.000,4226.780676,N,07628.264666,W,5,30,0.70,273.972,M,-33.936,M,1.0,0687*6C"
1777316934.235622,15:08:54.235,0.3829,-0.9567,42.44634492,-76.47107757,5,"$GNGGA,190854.000,4226.780695,N,07628.264654,W,5,29,0.68,273.939,M,-33.937,M,1.0,0687*68"
1777316935.2465842,15:08:55.246,0.3829,-0.9752,42.44634475,-76.47107757,5,"$GNGGA,190855.000,4226.780685,N,07628.264654,W,5,29,0.63,273.971,M,-33.936,M,1.0,0687*6E"
1777316936.279477,15:08:56.279,0.3952,-0.9585,42.4463449,-76.47107742,5,"$GNGGA,190856.000,4226.780694,N,07628.264645,W,5,29,0.56,273.916,M,-33.936,M,1.0,0687*6A"
1777316937.2166326,15:08:57.216,0.3979,-0.9919,42.4463446,-76.47107738,5,"$GNGGA,190857.000,4226.780676,N,07628.264643,W,5,29,0.64,273.885,M,-33.937,M,1.0,0687*6A"
1777316938.2541776,15:08:58.254,0.4089,-0.9715,42.44634478,-76.47107725,5,"$GNGGA,190858.000,4226.780687,N,07628.264635,W,5,29,0.63,273.831,M,-33.936,M,1.0,0687*63"
1777316939.2266233,15:08:59.226,0.4034,-1.0122,42.44634442,-76.47107732,5,"$GNGGA,190859.000,4226.780665,N,07628.264639,W,5,29,0.55,273.819,M,-33.937,M,1.0,0687*6C"
1777316942.271443,15:09:02.271,0.402,-0.9455,42.44634502,-76.47107733,5,"$GNGGA,190902.000,4226.780701,N,07628.264640,W,5,29,0.69,273.744,M,-33.936,M,1.0,0687*67"
1777316943.27243,15:09:03.272,0.4062,-0.99,42.44634462,-76.47107728,5,"$GNGGA,190903.000,4226.780677,N,07628.264637,W,5,29,0.73,273.718,M,-33.937,M,1.0,0687*65"
1777316944.2610934,15:09:04.261,0.4007,-0.9733,42.44634477,-76.47107735,5,"$GNGGA,190904.000,4226.780686,N,07628.264641,W,5,29,0.70,273.700,M,-33.936,M,1.0,0687*66"
1777316945.2475252,15:09:05.247,0.3993,-0.9807,42.4463447,-76.47107737,5,"$GNGGA,190905.000,4226.780682,N,07628.264642,W,5,29,0.68,273.657,M,-33.936,M,1.0,0687*6A"
1777316946.2362278,15:09:06.236,0.3952,-0.9733,42.44634477,-76.47107742,5,"$GNGGA,190906.000,4226.780686,N,07628.264645,W,5,29,0.64,273.672,M,-33.936,M,1.0,0687*61"
1777316947.2108436,15:09:07.210,0.3856,-0.9696,42.4463448,-76.47107753,5,"$GNGGA,190907.000,4226.780688,N,07628.264652,W,5,30,0.64,273.630,M,-33.937,M,1.0,0687*67"
1777316948.2641783,15:09:08.264,0.3705,-0.9363,42.4463451,-76.47107772,5,"$GNGGA,190908.000,4226.780706,N,07628.264663,W,5,30,0.68,273.605,M,-33.937,M,1.0,0687*67"
1777316949.2675352,15:09:09.267,0.3883,-0.953,42.44634495,-76.4710775,5,"$GNGGA,190909.000,4226.780697,N,07628.264650,W,5,30,0.62,273.607,M,-33.936,M,1.0,0687*66"
1777316952.2508152,15:09:12.250,0.4075,-0.9437,42.44634503,-76.47107727,5,"$GNGGA,190912.000,4226.780702,N,07628.264636,W,5,30,0.73,273.608,M,-33.936,M,1.0,0687*6E"
1777316953.260378,15:09:13.260,0.4144,-0.9344,42.44634512,-76.47107718,5,"$GNGGA,190913.000,4226.780707,N,07628.264631,W,5,30,0.64,273.588,M,-33.936,M,1.0,0687*60"
1777316954.2852786,15:09:14.285,0.4034,-0.9159,42.44634528,-76.47107732,5,"$GNGGA,190914.000,4226.780717,N,07628.264639,W,5,30,0.62,273.579,M,-33.937,M,1.0,0687*67"
1777316955.282713,15:09:15.282,0.3979,-0.9141,42.4463453,-76.47107738,5,"$GNGGA,190915.000,4226.780718,N,07628.264643,W,5,29,0.66,273.541,M,-33.936,M,1.0,0687*62"
1777316956.2660613,15:09:16.266,0.4103,-0.9233,42.44634522,-76.47107723,5,"$GNGGA,190916.000,4226.780713,N,07628.264634,W,5,30,0.74,273.586,M,-33.936,M,1.0,0687*6A"
1777316957.2571716,15:09:17.257,0.4226,-0.9085,42.44634535,-76.47107708,5,"$GNGGA,190917.000,4226.780721,N,07628.264625,W,5,30,0.70,273.604,M,-33.936,M,1.0,0687*67"
1777316958.2677765,15:09:18.267,0.4226,-0.9141,42.4463453,-76.47107708,5,"$GNGGA,190918.000,4226.780718,N,07628.264625,W,5,30,0.66,273.627,M,-33.937,M,1.0,0687*65"
1777316959.2589788,15:09:19.258,0.4144,-0.8918,42.4463455,-76.47107718,5,"$GNGGA,190919.000,4226.780730,N,07628.264631,W,5,30,0.69,273.599,M,-33.936,M,1.0,0687*63"
1777316962.3268123,15:09:22.326,0.3993,-0.8659,42.44634573,-76.47107737,5,"$GNGGA,190922.000,4226.780744,N,07628.264642,W,5,31,0.61,273.566,M,-33.936,M,1.0,0687*65"
1777316963.3102884,15:09:23.310,0.4007,-0.877,42.44634563,-76.47107735,5,"$GNGGA,190923.000,4226.780738,N,07628.264641,W,5,30,0.70,273.571,M,-33.937,M,1.0,0687*6A"
1777316964.2974558,15:09:24.297,0.4062,-0.9141,42.4463453,-76.47107728,5,"$GNGGA,190924.000,4226.780718,N,07628.264637,W,5,30,0.70,273.594,M,-33.936,M,1.0,0687*64"
1777316965.289806,15:09:25.289,0.4199,-0.9085,42.44634535,-76.47107712,5,"$GNGGA,190925.000,4226.780721,N,07628.264627,W,5,31,0.68,273.611,M,-33.936,M,1.0,0687*68"
1777316966.30304,15:09:26.303,0.4089,-0.8992,42.44634543,-76.47107725,5,"$GNGGA,190926.000,4226.780726,N,07628.264635,W,5,31,0.59,273.618,M,-33.937,M,1.0,0687*65"
1777316967.3026402,15:09:27.302,0.413,-0.8844,42.44634557,-76.4710772,5,"$GNGGA,190927.000,4226.780734,N,07628.264632,W,5,31,0.65,273.591,M,-33.936,M,1.0,0687*6C"
1777316968.2919433,15:09:28.291,0.4089,-0.8696,42.4463457,-76.47107725,5,"$GNGGA,190928.000,4226.780742,N,07628.264635,W,5,31,0.65,273.601,M,-33.937,M,1.0,0687*6E"
1777316969.2771122,15:09:29.277,0.3993,-0.8455,42.44634592,-76.47107737,5,"$GNGGA,190929.000,4226.780755,N,07628.264642,W,5,30,0.53,273.598,M,-33.937,M,1.0,0687*6E"
1777316972.2617052,15:09:32.261,0.4048,-0.8418,42.44634595,-76.4710773,5,"$GNGGA,190932.000,4226.780757,N,07628.264638,W,5,30,0.61,273.563,M,-33.937,M,1.0,0687*6E"
1777316973.2695518,15:09:33.269,0.4062,-0.8344,42.44634602,-76.47107728,5,"$GNGGA,190933.000,4226.780761,N,07628.264637,W,5,30,0.59,273.579,M,-33.936,M,1.0,0687*64"
1777316974.2779167,15:09:34.277,0.4185,-0.84,42.44634597,-76.47107713,5,"$GNGGA,190934.000,4226.780758,N,07628.264628,W,5,30,0.60,273.569,M,-33.936,M,1.0,0687*6C"
1777316975.2713325,15:09:35.271,0.4103,-0.8437,42.44634593,-76.47107723,5,"$GNGGA,190935.000,4226.780756,N,07628.264634,W,5,31,0.60,273.542,M,-33.936,M,1.0,0687*66"
1777316976.2873352,15:09:36.287,0.4144,-0.84,42.44634597,-76.47107718,5,"$GNGGA,190936.000,4226.780758,N,07628.264631,W,5,31,0.68,273.516,M,-33.937,M,1.0,0687*66"
1777316977.2836182,15:09:37.283,0.4089,-0.8455,42.44634592,-76.47107725,5,"$GNGGA,190937.000,4226.780755,N,07628.264635,W,5,31,0.66,273.500,M,-33.937,M,1.0,0687*67"
1777316978.2668474,15:09:38.266,0.413,-0.8418,42.44634595,-76.4710772,5,"$GNGGA,190938.000,4226.780757,N,07628.264632,W,5,30,0.67,273.519,M,-33.936,M,1.0,0687*64"
1777316979.266413,15:09:39.266,0.4103,-0.84,42.44634597,-76.47107723,5,"$GNGGA,190939.000,4226.780758,N,07628.264634,W,5,30,0.67,273.525,M,-33.936,M,1.0,0687*63"
1777316982.250649,15:09:42.250,0.3966,-0.8492,42.44634588,-76.4710774,5,"$GNGGA,190942.000,4226.780753,N,07628.264644,W,5,28,0.60,273.471,M,-33.937,M,1.0,0687*6C"
1777316983.2315161,15:09:43.231,0.387,-0.8215,42.44634613,-76.47107752,5,"$GNGGA,190943.000,4226.780768,N,07628.264651,W,5,29,0.72,273.474,M,-33.937,M,1.0,0687*66"
1777316984.2452724,15:09:44.245,0.3979,-0.8418,42.44634595,-76.47107738,5,"$GNGGA,190944.000,4226.780757,N,07628.264643,W,5,29,0.69,273.449,M,-33.937,M,1.0,0687*6A"
1777316985.2266598,15:09:45.226,0.4075,-0.8585,42.4463458,-76.47107727,5,"$GNGGA,190945.000,4226.780748,N,07628.264636,W,5,29,0.70,273.481,M,-33.936,M,1.0,0687*6A"
1777316986.2650201,15:09:46.265,0.4062,-0.8326,42.44634603,-76.47107728,5,"$GNGGA,190946.000,4226.780762,N,07628.264637,W,5,29,0.63,273.505,M,-33.936,M,1.0,0687*6F"
1777316987.2784512,15:09:47.278,0.4034,-0.8437,42.44634593,-76.47107732,5,"$GNGGA,190947.000,4226.780756,N,07628.264639,W,5,30,0.72,273.475,M,-33.937,M,1.0,0687*68"
1777316988.2526035,15:09:48.252,0.4116,-0.8455,42.44634592,-76.47107722,5,"$GNGGA,190948.000,4226.780755,N,07628.264633,W,5,30,0.70,273.518,M,-33.937,M,1.0,0687*66"
1777316989.2749271,15:09:49.274,0.4212,-0.8252,42.4463461,-76.4710771,5,"$GNGGA,190949.000,4226.780766,N,07628.264626,W,5,30,0.58,273.549,M,-33.936,M,1.0,0687*6C"
1777316992.2818606,15:09:52.281,0.4199,-0.8085,42.44634625,-76.47107712,5,"$GNGGA,190952.000,4226.780775,N,07628.264627,W,5,30,0.60,273.618,M,-33.936,M,1.0,0687*69"
1777316993.2572713,15:09:53.257,0.439,-0.7937,42.44634638,-76.47107688,5,"$GNGGA,190953.000,4226.780783,N,07628.264613,W,5,30,0.59,273.662,M,-33.936,M,1.0,0687*61"
