unix_time,human_time,x_meters,y_meters,raw_lat,raw_lon,status_quality,raw_nmea
1777733164.4976766,10:46:04.497,-0.006,0.0063,42.44608145,-76.47234848,5,"$GNGGA,144604.000,4226.764887,N,07628.340909,W,5,31,0.56,270.815,M,-33.937,M,1.0,1849*68"
1777733165.4674482,10:46:05.467,-0.0033,0.0044,42.44608143,-76.47234845,5,"$GNGGA,144605.000,4226.764886,N,07628.340907,W,5,31,0.49,270.814,M,-33.936,M,1.0,1849*68"
1777733166.4690952,10:46:06.469,-0.0033,0.0081,42.44608147,-76.47234845,5,"$GNGGA,144606.000,4226.764888,N,07628.340907,W,5,31,0.50,270.814,M,-33.937,M,1.0,1849*6C"
1777733167.4405382,10:46:07.440,0.0022,0.0081,42.44608147,-76.47234838,5,"$GNGGA,144607.000,4226.764888,N,07628.340903,W,5,31,0.44,270.816,M,-33.937,M,1.0,1849*6E"
1777733168.4438145,10:46:08.443,0.0009,0.0063,42.44608145,-76.4723484,5,"$GNGGA,144608.000,4226.764887,N,07628.340904,W,5,31,0.45,270.810,M,-33.937,M,1.0,1849*6E"
1777733169.4569936,10:46:09.456,0.005,0.0192,42.44608157,-76.47234835,5,"$GNGGA,144609.000,4226.764894,N,07628.340901,W,5,31,0.44,270.806,M,-33.937,M,1.0,1849*6E"
1777733172.4483528,10:46:12.448,-0.0265,0.06,42.44608193,-76.47234873,5,"$GNGGA,144612.000,4226.764916,N,07628.340924,W,5,31,0.46,270.765,M,-33.936,M,1.0,1849*61"
1777733173.48509,10:46:13.485,-0.0197,0.0637,42.44608197,-76.47234865,5,"$GNGGA,144613.000,4226.764918,N,07628.340919,W,5,31,0.48,270.762,M,-33.936,M,1.0,1849*69"
1777733174.460177,10:46:14.460,-0.017,0.0711,42.44608203,-76.47234862,5,"$GNGGA,144614.000,4226.764922,N,07628.340917,W,5,31,0.49,270.749,M,-33.937,M,1.0,1849*60"
1777733175.495598,10:46:15.495,-0.0279,0.06,42.44608193,-76.47234875,5,"$GNGGA,144615.000,4226.764916,N,07628.340925,W,5,31,0.42,270.764,M,-33.936,M,1.0,1849*62"
1777733176.4557538,10:46:16.455,-0.3211,0.1489,42.44608273,-76.47235232,5,"$GNGGA,144616.000,4226.764964,N,07628.341139,W,5,31,0.48,270.972,M,-33.936,M,1.0,1849*63"
1777733177.3836648,10:46:17.383,-1.0142,0.1822,42.44608303,-76.47236075,5,"$GNGGA,144617.000,4226.764982,N,07628.341645,W,5,31,0.51,270.760,M,-33.936,M,1.0,1849*63"
1777733178.3566787,10:46:18.356,-1.0841,0.11,42.44608238,-76.4723616,5,"$GNGGA,144618.000,4226.764943,N,07628.341696,W,5,31,0.49,270.635,M,-33.936,M,1.0,1849*67"
1777733179.4657466,10:46:19.465,-1.0416,0.1266,42.44608253,-76.47236108,5,"$GNGGA,144619.000,4226.764952,N,07628.341665,W,5,31,0.46,270.633,M,-33.937,M,1.0,1849*62"
1777733182.5170255,10:46:22.517,-1.0156,0.0877,42.44608218,-76.47236077,5,"$GNGGA,144622.000,4226.764931,N,07628.341646,W,5,31,0.43,270.568,M,-33.937,M,1.0,1849*66"
1777733183.603161,10:46:23.603,-0.9923,0.1026,42.44608232,-76.47236048,5,"$GNGGA,144623.000,4226.764939,N,07628.341629,W,5,31,0.42,270.547,M,-33.936,M,1.0,1849*6B"
1777733184.5339003,10:46:24.533,-0.9717,0.097,42.44608227,-76.47236023,5,"$GNGGA,144624.000,4226.764936,N,07628.341614,W,5,31,0.42,270.542,M,-33.936,M,1.0,1849*68"
1777733185.556053,10:46:25.556,-0.958,0.0952,42.44608225,-76.47236007,5,"$GNGGA,144625.000,4226.764935,N,07628.341604,W,5,31,0.42,270.531,M,-33.936,M,1.0,1849*6F"
1777733186.507076,10:46:26.507,-0.9512,0.084,42.44608215,-76.47235998,5,"$GNGGA,144626.000,4226.764929,N,07628.341599,W,5,31,0.42,270.528,M,-33.937,M,1.0,1849*6F"
1777733187.533583,10:46:27.533,-0.9484,0.0748,42.44608207,-76.47235995,5,"$GNGGA,144627.000,4226.764924,N,07628.341597,W,5,31,0.41,270.514,M,-33.937,M,1.0,1849*61"
1777733188.5244222,10:46:28.524,-0.9443,0.0655,42.44608198,-76.4723599,5,"$GNGGA,144628.000,4226.764919,N,07628.341594,W,5,31,0.41,270.493,M,-33.936,M,1.0,1849*6C"
1777733189.5078003,10:46:29.507,-0.9471,0.0618,42.44608195,-76.47235993,5,"$GNGGA,144629.000,4226.764917,N,07628.341596,W,5,31,0.42,270.474,M,-33.936,M,1.0,1849*6B"
1777733192.3753738,10:46:32.375,0.0132,-0.2068,42.44607953,-76.47234825,5,"$GNGGA,144632.000,4226.764772,N,07628.340895,W,5,31,0.41,270.695,M,-33.936,M,1.0,1849*6D"
1777733193.3868618,10:46:33.386,0.2173,-0.2734,42.44607893,-76.47234577,5,"$GNGGA,144633.000,4226.764736,N,07628.340746,W,5,31,0.44,270.423,M,-33.937,M,1.0,1849*66"
1777733194.4082804,10:46:34.408,0.1803,-0.2697,42.44607897,-76.47234622,5,"$GNGGA,144634.000,4226.764738,N,07628.340773,W,5,31,0.45,270.445,M,-33.937,M,1.0,1849*68"
1777733195.45765,10:46:35.457,0.1899,-0.2827,42.44607885,-76.4723461,5,"$GNGGA,144635.000,4226.764731,N,07628.340766,W,5,31,0.48,270.410,M,-33.936,M,1.0,1849*68"
1777733196.4784384,10:46:36.478,-0.1142,-0.2679,42.44607898,-76.4723498,4,"$GNGGA,144636.000,4226.764739,N,07628.340988,W,4,31,0.42,270.871,M,-33.936,M,1.0,1849*6D"
1777733197.437357,10:46:37.437,-0.1457,-0.3142,42.44607857,-76.47235018,4,"$GNGGA,144637.000,4226.764714,N,07628.341011,W,4,31,0.48,270.944,M,-33.936,M,1.0,1849*66"
1777733198.4268916,10:46:38.426,-0.1348,-0.2568,42.44607908,-76.47235005,4,"$GNGGA,144638.000,4226.764745,N,07628.341003,W,4,31,0.46,270.892,M,-33.936,M,1.0,1849*6A"
1777733199.416968,10:46:39.416,-0.1635,-0.2642,42.44607902,-76.4723504,4,"$GNGGA,144639.000,4226.764741,N,07628.341024,W,4,31,0.49,270.872,M,-33.936,M,1.0,1849*6B"
1777733202.3434713,10:46:42.343,-0.0663,-0.3031,42.44607867,-76.47234922,4,"$GNGGA,144642.000,4226.764720,N,07628.340953,W,4,31,0.48,271.010,M,-33.936,M,1.0,1849*64"
1777733203.4161775,10:46:43.416,-0.0896,-0.3179,42.44607853,-76.4723495,4,"$GNGGA,144643.000,4226.764712,N,07628.340970,W,4,31,0.54,270.871,M,-33.937,M,1.0,1849*67"
1777733204.404456,10:46:44.404,-0.0115,-0.2197,42.44607942,-76.47234855,4,"$GNGGA,144644.000,4226.764765,N,07628.340913,W,4,31,0.46,270.910,M,-33.937,M,1.0,1849*60"
1777733205.419167,10:46:45.419,-0.106,-0.3234,42.44607848,-76.4723497,4,"$GNGGA,144645.000,4226.764709,N,07628.340982,W,4,31,0.47,270.892,M,-33.936,M,1.0,1849*68"
1777733206.4070237,10:46:46.407,-0.0663,-0.2827,42.44607885,-76.47234922,4,"$GNGGA,144646.000,4226.764731,N,07628.340953,W,4,31,0.47,270.839,M,-33.936,M,1.0,1849*6D"
1777733207.389582,10:46:47.389,0.2515,-0.0697,42.44608077,-76.47234535,5,"$GNGGA,144647.000,4226.764846,N,07628.340721,W,5,31,0.49,271.124,M,-33.936,M,1.0,1849*63"
1777733208.3233497,10:46:48.323,0.1488,-0.0512,42.44608093,-76.4723466,5,"$GNGGA,144648.000,4226.764856,N,07628.340796,W,5,31,0.52,271.072,M,-33.936,M,2.0,1849*6A"
1777733209.4375117,10:46:49.437,-0.0868,-0.1901,42.44607968,-76.47234947,5,"$GNGGA,144649.000,4226.764781,N,07628.340968,W,5,31,0.51,271.002,M,-33.936,M,3.0,1849*64"
1777733212.3594546,10:46:52.359,0.3173,0.0063,42.44608145,-76.47234455,5,"$GNGGA,144652.000,4226.764887,N,07628.340673,W,5,31,0.50,271.159,M,-33.936,M,3.0,1849*6C"
1777733213.3707721,10:46:53.370,0.2296,0.0192,42.44608157,-76.47234562,5,"$GNGGA,144653.000,4226.764894,N,07628.340737,W,5,31,0.50,271.085,M,-33.937,M,4.0,1849*68"
1777733214.3256319,10:46:54.325,0.0515,-0.1141,42.44608037,-76.47234778,5,"$GNGGA,144654.000,4226.764822,N,07628.340867,W,5,31,0.58,271.143,M,-33.936,M,4.0,1849*6A"
1777733215.3789332,10:46:55.378,-0.0622,-0.166,42.4460799,-76.47234917,5,"$GNGGA,144655.000,4226.764794,N,07628.340950,W,5,31,0.49,270.925,M,-33.937,M,2.0,1849*62"
1777733216.378909,10:46:56.378,-0.0608,-0.1567,42.44607998,-76.47234915,5,"$GNGGA,144656.000,4226.764799,N,07628.340949,W,5,31,0.45,270.924,M,-33.936,M,1.0,1849*6B"
1777733217.4233942,10:46:57.423,-0.0608,-0.166,42.4460799,-76.47234915,5,"$GNGGA,144657.000,4226.764794,N,07628.340949,W,5,31,0.45,270.938,M,-33.937,M,1.0,1849*6B"
1777733218.447022,10:46:58.447,0.0981,-0.0493,42.44608095,-76.47234722,4,"$GNGGA,144658.000,4226.764857,N,07628.340833,W,4,31,0.55,270.920,M,-33.937,M,1.0,1849*61"
1777733219.3416917,10:46:59.341,0.1009,-0.0567,42.44608088,-76.47234718,4,"$GNGGA,144659.000,4226.764853,N,07628.340831,W,4,31,0.56,270.910,M,-33.937,M,1.0,1849*66"
1777733222.3122158,10:47:02.312,0.0967,-0.053,42.44608092,-76.47234723,4,"$GNGGA,144702.000,4226.764855,N,07628.340834,W,4,31,0.54,270.919,M,-33.937,M,1.0,1849*61"
1777733223.3407102,10:47:03.340,0.1022,-0.053,42.44608092,-76.47234717,4,"$GNGGA,144703.000,4226.764855,N,07628.340830,W,4,31,0.55,270.917,M,-33.936,M,1.0,1849*6A"
1777733224.2910614,10:47:04.291,0.0981,-0.0586,42.44608087,-76.47234722,4,"$GNGGA,144704.000,4226.764852,N,07628.340833,W,4,31,0.52,270.920,M,-33.936,M,1.0,1849*6A"
1777733225.3296318,10:47:05.329,0.0981,-0.0604,42.44608085,-76.47234722,4,"$GNGGA,144705.000,4226.764851,N,07628.340833,W,4,31,0.45,270.923,M,-33.936,M,1.0,1849*6D"
1777733226.3169847,10:47:06.316,0.1009,-0.0419,42.44608102,-76.47234718,4,"$GNGGA,144706.000,4226.764861,N,07628.340831,W,4,31,0.60,270.916,M,-33.936,M,1.0,1849*6E"
1777733227.3367126,10:47:07.336,0.1022,-0.0438,42.446081,-76.47234717,4,"$GNGGA,144707.000,4226.764860,N,07628.340830,W,4,31,0.50,270.904,M,-33.937,M,1.0,1849*6E"
1777733228.3254273,10:47:08.325,0.1022,-0.0475,42.44608097,-76.47234717,4,"$GNGGA,144708.000,4226.764858,N,07628.340830,W,4,31,0.47,270.904,M,-33.936,M,1.0,1849*6D"
1777733229.3451617,10:47:09.345,0.1063,-0.0419,42.44608102,-76.47234712,4,"$GNGGA,144709.000,4226.764861,N,07628.340827,W,4,31,0.51,270.892,M,-33.936,M,1.0,1849*69"
1777733232.3106008,10:47:12.310,0.1009,-0.0475,42.44608097,-76.47234718,4,"$GNGGA,144712.000,4226.764858,N,07628.340831,W,4,31,0.43,270.905,M,-33.937,M,2.0,1849*60"
1777733233.340083,10:47:13.340,0.0981,-0.0419,42.44608102,-76.47234722,4,"$GNGGA,144713.000,4226.764861,N,07628.340833,W,4,31,0.47,270.924,M,-33.936,M,3.0,1849*6E"
1777733234.2930722,10:47:14.293,0.1077,-0.0512,42.44608093,-76.4723471,4,"$GNGGA,144714.000,4226.764856,N,07628.340826,W,4,31,0.46,270.884,M,-33.936,M,4.0,1849*64"
1777733235.3278565,10:47:15.327,0.105,-0.0475,42.44608097,-76.47234713,4,"$GNGGA,144715.000,4226.764858,N,07628.340828,W,4,31,0.44,270.912,M,-33.937,M,5.0,1849*69"
1777733236.2914236,10:47:16.291,0.1036,-0.0475,42.44608097,-76.47234715,4,"$GNGGA,144716.000,4226.764858,N,07628.340829,W,4,31,0.48,270.910,M,-33.937,M,6.0,1849*66"
1777733237.3133907,10:47:17.313,0.0995,-0.0493,42.44608095,-76.4723472,4,"$GNGGA,144717.000,4226.764857,N,07628.340832,W,4,31,0.51,270.915,M,-33.936,M,1.0,1849*69"
1777733238.3005311,10:47:18.300,0.105,-0.0401,42.44608103,-76.47234713,4,"$GNGGA,144718.000,4226.764862,N,07628.340828,W,4,31,0.50,270.907,M,-33.937,M,1.0,1849*68"
1777733239.3501954,10:47:19.350,0.1036,-0.0401,42.44608103,-76.47234715,4,"$GNGGA,144719.000,4226.764862,N,07628.340829,W,4,31,0.48,270.905,M,-33.936,M,1.0,1849*62"
1777733242.3234453,10:47:22.323,0.1077,-0.0401,42.44608103,-76.4723471,4,"$GNGGA,144722.000,4226.764862,N,07628.340826,W,4,31,0.46,270.894,M,-33.937,M,1.0,1849*63"
1777733243.3381982,10:47:23.338,0.1077,-0.0401,42.44608103,-76.4723471,4,"$GNGGA,144723.000,4226.764862,N,07628.340826,W,4,31,0.48,270.896,M,-33.936,M,1.0,1849*6F"
1777733244.3090565,10:47:24.309,0.1132,-0.0475,42.44608097,-76.47234703,4,"$GNGGA,144724.000,4226.764858,N,07628.340822,W,4,31,0.48,270.893,M,-33.936,M,1.0,1849*60"
1777733245.3417685,10:47:25.341,0.1118,-0.0438,42.446081,-76.47234705,4,"$GNGGA,144725.000,4226.764860,N,07628.340823,W,4,31,0.43,270.892,M,-33.937,M,1.0,1849*60"
1777733246.332155,10:47:26.332,0.1104,-0.0419,42.44608102,-76.47234707,4,"$GNGGA,144726.000,4226.764861,N,07628.340824,W,4,31,0.48,270.895,M,-33.936,M,1.0,1849*68"
1777733247.344488,10:47:27.344,0.1132,-0.0401,42.44608103,-76.47234703,4,"$GNGGA,144727.000,4226.764862,N,07628.340822,W,4,31,0.49,270.895,M,-33.936,M,1.0,1849*6D"
1777733248.3228252,10:47:28.322,0.1118,-0.0419,42.44608102,-76.47234705,4,"$GNGGA,144728.000,4226.764861,N,07628.340823,W,4,31,0.50,270.884,M,-33.936,M,1.0,1849*68"
1777733249.3449244,10:47:29.344,0.1091,-0.0419,42.44608102,-76.47234708,4,"$GNGGA,144729.000,4226.764861,N,07628.340825,W,4,31,0.45,270.892,M,-33.936,M,1.0,1849*6C"
1777733252.288024,10:47:32.288,0.1146,-0.0438,42.446081,-76.47234702,4,"$GNGGA,144732.000,4226.764860,N,07628.340821,W,4,31,0.49,270.882,M,-33.937,M,1.0,1849*6F"
1777733253.318858,10:47:33.318,0.1091,-0.0456,42.44608098,-76.47234708,4,"$GNGGA,144733.000,4226.764859,N,07628.340825,W,4,31,0.53,270.885,M,-33.937,M,1.0,1849*6C"
1777733254.3094327,10:47:34.309,0.1159,-0.0438,42.446081,-76.472347,4,"$GNGGA,144734.000,4226.764860,N,07628.340820,W,4,31,0.53,270.882,M,-33.936,M,1.0,1849*62"
1777733255.3433325,10:47:35.343,0.1132,-0.0401,42.44608103,-76.47234703,4,"$GNGGA,144735.000,4226.764862,N,07628.340822,W,4,31,0.49,270.881,M,-33.937,M,1.0,1849*6A"
1777733256.329967,10:47:36.329,0.1091,-0.0419,42.44608102,-76.47234708,4,"$GNGGA,144736.000,4226.764861,N,07628.340825,W,4,31,0.47,270.894,M,-33.936,M,1.0,1849*66"
1777733257.3355505,10:47:37.335,0.1118,-0.0419,42.44608102,-76.47234705,4,"$GNGGA,144737.000,4226.764861,N,07628.340823,W,4,31,0.48,270.890,M,-33.937,M,1.0,1849*6B"
1777733258.3223145,10:47:38.322,0.1091,-0.053,42.44608092,-76.47234708,4,"$GNGGA,144738.000,4226.764855,N,07628.340825,W,4,31,0.55,270.888,M,-33.936,M,1.0,1849*61"
1777733259.3611417,10:47:39.361,0.105,-0.0512,42.44608093,-76.47234713,4,"$GNGGA,144739.000,4226.764856,N,07628.340828,W,4,31,0.49,270.885,M,-33.936,M,1.0,1849*6E"
1777733262.3107045,10:47:42.310,0.1022,-0.0512,42.44608093,-76.47234717,4,"$GNGGA,144742.000,4226.764856,N,07628.340830,W,4,31,0.51,270.900,M,-33.936,M,1.0,1849*6E"
1777733263.335708,10:47:43.335,0.1022,-0.0475,42.44608097,-76.47234717,4,"$GNGGA,144743.000,4226.764858,N,07628.340830,W,4,31,0.49,270.888,M,-33.936,M,1.0,1849*69"
1777733264.323815,10:47:44.323,0.1036,-0.0493,42.44608095,-76.47234715,4,"$GNGGA,144744.000,4226.764857,N,07628.340829,W,4,30,0.51,270.892,M,-33.936,M,1.0,1849*6A"
1777733265.3322978,10:47:45.332,0.105,-0.0475,42.44608097,-76.47234713,4,"$GNGGA,144745.000,4226.764858,N,07628.340828,W,4,30,0.44,270.885,M,-33.937,M,1.0,1849*66"
1777733266.2945585,10:47:46.294,0.1009,-0.0512,42.44608093,-76.47234718,4,"$GNGGA,144746.000,4226.764856,N,07628.340831,W,4,30,0.48,270.890,M,-33.936,M,1.0,1849*6A"
1777733267.3123388,10:47:47.312,0.1022,-0.0493,42.44608095,-76.47234717,4,"$GNGGA,144747.000,4226.764857,N,07628.340830,W,4,30,0.61,270.891,M,-33.937,M,1.0,1849*60"
1777733268.2938905,10:47:48.293,0.1091,-0.0475,42.44608097,-76.47234708,4,"$GNGGA,144748.000,4226.764858,N,07628.340825,W,4,30,0.54,270.875,M,-33.936,M,1.0,1849*69"
1777733269.3140757,10:47:49.314,0.105,-0.0493,42.44608095,-76.47234713,4,"$GNGGA,144749.000,4226.764857,N,07628.340828,W,4,30,0.54,270.879,M,-33.936,M,1.0,1849*66"
1777733272.3067322,10:47:52.306,0.1077,-0.0419,42.44608102,-76.4723471,4,"$GNGGA,144752.000,4226.764861,N,07628.340826,W,4,30,0.59,270.880,M,-33.937,M,1.0,1849*6D"
1777733273.3204057,10:47:53.320,0.1063,-0.0419,42.44608102,-76.47234712,4,"$GNGGA,144753.000,4226.764861,N,07628.340827,W,4,30,0.59,270.886,M,-33.936,M,1.0,1849*6A"
1777733274.312492,10:47:54.312,0.1104,-0.0419,42.44608102,-76.47234707,4,"$GNGGA,144754.000,4226.764861,N,07628.340824,W,4,30,0.50,270.870,M,-33.937,M,1.0,1849*6F"
1777733275.3467634,10:47:55.346,0.1091,-0.0401,42.44608103,-76.47234708,4,"$GNGGA,144755.000,4226.764862,N,07628.340825,W,4,30,0.50,270.871,M,-33.936,M,1.0,1849*6C"
1777733276.299818,10:47:56.299,0.1118,-0.0475,42.44608097,-76.47234705,4,"$GNGGA,144756.000,4226.764858,N,07628.340823,W,4,30,0.49,270.874,M,-33.936,M,1.0,1849*6D"
1777733277.3223689,10:47:57.322,0.1118,-0.0475,42.44608097,-76.47234705,4,"$GNGGA,144757.000,4226.764858,N,07628.340823,W,4,30,0.48,270.864,M,-33.936,M,1.0,1849*6C"
1777733278.3027449,10:47:58.302,0.1091,-0.0401,42.44608103,-76.47234708,4,"$GNGGA,144758.000,4226.764862,N,07628.340825,W,4,30,0.48,270.862,M,-33.936,M,1.0,1849*6A"
1777733279.341925,10:47:59.341,0.1159,-0.0475,42.44608097,-76.472347,4,"$GNGGA,144759.000,4226.764858,N,07628.340820,W,4,30,0.47,270.867,M,-33.936,M,1.0,1849*6D"
1777733282.301873,10:48:02.301,0.1173,-0.0456,42.44608098,-76.47234698,4,"$GNGGA,144802.000,4226.764859,N,07628.340819,W,4,30,0.47,270.866,M,-33.936,M,1.0,1849*66"
1777733283.324419,10:48:03.324,0.1159,-0.0401,42.44608103,-76.472347,4,"$GNGGA,144803.000,4226.764862,N,07628.340820,W,4,30,0.54,270.864,M,-33.936,M,1.0,1849*65"
1777733284.318788,10:48:04.318,0.12,-0.0382,42.44608105,-76.47234695,4,"$GNGGA,144804.000,4226.764863,N,07628.340817,W,4,30,0.52,270.852,M,-33.936,M,1.0,1849*64"
1777733285.312303,10:48:05.312,0.1118,-0.0401,42.44608103,-76.47234705,4,"$GNGGA,144805.000,4226.764862,N,07628.340823,W,4,30,0.52,270.859,M,-33.936,M,1.0,1849*68"
1777733286.2860622,10:48:06.286,0.1022,-0.0493,42.44608095,-76.47234717,4,"$GNGGA,144806.000,4226.764857,N,07628.340830,W,4,30,0.51,270.876,M,-33.936,M,1.0,1849*61"
1777733287.3260717,10:48:07.326,0.1091,-0.0456,42.44608098,-76.47234708,4,"$GNGGA,144807.000,4226.764859,N,07628.340825,W,4,30,0.52,270.860,M,-33.936,M,1.0,1849*6E"
1777733288.3007505,10:48:08.300,0.1146,-0.0382,42.44608105,-76.47234702,4,"$GNGGA,144808.000,4226.764863,N,07628.340821,W,4,30,0.48,270.856,M,-33.937,M,1.0,1849*63"
1777733289.321309,10:48:09.321,0.1063,-0.0419,42.44608102,-76.47234712,4,"$GNGGA,144809.000,4226.764861,N,07628.340827,W,4,30,0.50,270.869,M,-33.937,M,1.0,1849*63"
1777733292.300359,10:48:12.300,0.1899,-0.3883,42.4460779,-76.4723461,4,"$GNGGA,144812.000,4226.764674,N,07628.340766,W,4,30,0.44,270.906,M,-33.937,M,1.0,1849*64"
1777733293.3238218,10:48:13.323,0.257,-0.3994,42.4460778,-76.47234528,4,"$GNGGA,144813.000,4226.764668,N,07628.340717,W,4,30,0.46,271.046,M,-33.936,M,1.0,1849*61"
1777733294.3158329,10:48:14.315,0.3433,-0.0401,42.44608103,-76.47234423,4,"$GNGGA,144814.000,4226.764862,N,07628.340654,W,4,30,0.47,271.215,M,-33.936,M,1.0,1849*61"
1777733295.3219078,10:48:15.321,0.4324,0.4341,42.4460853,-76.47234315,4,"$GNGGA,144815.000,4226.765118,N,07628.340589,W,4,30,0.46,271.254,M,-33.936,M,1.0,1849*62"
1777733296.3194811,10:48:16.319,0.4721,0.4915,42.44608582,-76.47234267,4,"$GNGGA,144816.000,4226.765149,N,07628.340560,W,4,30,0.42,271.262,M,-33.937,M,2.0,1849*61"
1777733297.3339407,10:48:17.333,0.4597,0.4749,42.44608567,-76.47234282,4,"$GNGGA,144817.000,4226.765140,N,07628.340569,W,4,30,0.44,271.271,M,-33.937,M,3.0,1849*65"
1777733298.3049834,10:48:18.304,0.4529,0.4619,42.44608555,-76.4723429,4,"$GNGGA,144818.000,4226.765133,N,07628.340574,W,4,30,0.45,271.257,M,-33.936,M,4.0,1849*61"
1777733299.3251593,10:48:19.325,0.3666,0.2415,42.44608357,-76.47234395,4,"$GNGGA,144819.000,4226.765014,N,07628.340637,W,4,30,0.42,271.230,M,-33.936,M,5.0,1849*67"
1777733302.3029735,10:48:22.302,0.3187,-0.1456,42.44608008,-76.47234453,4,"$GNGGA,144822.000,4226.764805,N,07628.340672,W,4,30,0.49,270.970,M,-33.937,M,6.0,1849*60"
1777733303.3285818,10:48:23.328,0.3337,-0.0975,42.44608052,-76.47234435,4,"$GNGGA,144823.000,4226.764831,N,07628.340661,W,4,30,0.47,270.985,M,-33.937,M,2.0,1849*64"
1777733304.3164334,10:48:24.316,0.3406,-0.0864,42.44608062,-76.47234427,4,"$GNGGA,144824.000,4226.764837,N,07628.340656,W,4,30,0.47,270.953,M,-33.936,M,1.0,1849*68"
1777733305.3554614,10:48:25.355,0.3556,-0.0919,42.44608057,-76.47234408,4,"$GNGGA,144825.000,4226.764834,N,07628.340645,W,4,30,0.46,270.956,M,-33.936,M,1.0,1849*6C"
1777733306.3132153,10:48:26.313,0.1296,-0.1197,42.44608032,-76.47234683,4,"$GNGGA,144826.000,4226.764819,N,07628.340810,W,4,30,0.43,271.039,M,-33.936,M,1.0,1849*6A"
1777733307.3514147,10:48:27.351,0.0529,-0.0808,42.44608067,-76.47234777,4,"$GNGGA,144827.000,4226.764840,N,07628.340866,W,4,30,0.42,271.038,M,-33.936,M,1.0,1849*66"
1777733308.3380415,10:48:28.338,0.0461,-0.0604,42.44608085,-76.47234785,4,"$GNGGA,144828.000,4226.764851,N,07628.340871,W,4,30,0.40,271.026,M,-33.937,M,1.0,1849*63"
1777733309.350396,10:48:29.350,0.0365,-0.0475,42.44608097,-76.47234797,4,"$GNGGA,144829.000,4226.764858,N,07628.340878,W,4,30,0.46,271.045,M,-33.936,M,1.0,1849*60"
1777733312.3208342,10:48:32.320,-0.1224,-0.0641,42.44608082,-76.4723499,4,"$GNGGA,144832.000,4226.764849,N,07628.340994,W,4,30,0.40,270.833,M,-33.937,M,1.0,1849*66"
1777733313.3708675,10:48:33.370,-0.1224,-0.0641,42.44608082,-76.4723499,4,"$GNGGA,144833.000,4226.764849,N,07628.340994,W,4,30,0.41,270.833,M,-33.936,M,1.0,1849*67"
1777733314.3581557,10:48:34.358,-0.1211,-0.0623,42.44608083,-76.47234988,4,"$GNGGA,144834.000,4226.764850,N,07628.340993,W,4,30,0.40,270.845,M,-33.937,M,1.0,1849*6E"
1777733315.365633,10:48:35.365,-0.1211,-0.0641,42.44608082,-76.47234988,4,"$GNGGA,144835.000,4226.764849,N,07628.340993,W,4,30,0.41,270.842,M,-33.937,M,1.0,1849*61"
1777733316.3349128,10:48:36.334,-0.1279,-0.0623,42.44608083,-76.47234997,4,"$GNGGA,144836.000,4226.764850,N,07628.340998,W,4,30,0.41,270.858,M,-33.936,M,1.0,1849*6B"
1777733317.3632581,10:48:37.363,-0.0827,-0.0326,42.4460811,-76.47234942,4,"$GNGGA,144837.000,4226.764866,N,07628.340965,W,4,30,0.39,270.879,M,-33.937,M,1.0,1849*60"
1777733318.3406842,10:48:38.340,-0.0498,-0.0475,42.44608097,-76.47234902,4,"$GNGGA,144838.000,4226.764858,N,07628.340941,W,4,30,0.39,270.847,M,-33.936,M,1.0,1849*68"
1777733319.371416,10:48:39.371,-0.0402,-0.0438,42.446081,-76.4723489,4,"$GNGGA,144839.000,4226.764860,N,07628.340934,W,4,30,0.39,270.840,M,-33.936,M,1.0,1849*67"
1777733322.3423898,10:48:42.342,-0.0485,-0.0493,42.44608095,-76.472349,4,"$GNGGA,144842.000,4226.764857,N,07628.340940,W,4,30,0.45,270.850,M,-33.936,M,1.0,1849*66"
1777733323.3554354,10:48:43.355,-0.0526,-0.0475,42.44608097,-76.47234905,4,"$GNGGA,144843.000,4226.764858,N,07628.340943,W,4,30,0.43,270.852,M,-33.937,M,1.0,1849*6E"
1777733324.3454976,10:48:44.345,-0.0567,-0.053,42.44608092,-76.4723491,4,"$GNGGA,144844.000,4226.764855,N,07628.340946,W,4,30,0.44,270.858,M,-33.936,M,1.0,1849*6D"
1777733325.3503344,10:48:45.350,-0.058,-0.0549,42.4460809,-76.47234912,4,"$GNGGA,144845.000,4226.764854,N,07628.340947,W,4,30,0.40,270.866,M,-33.936,M,1.0,1849*65"
1777733326.3373585,10:48:46.337,-0.0567,-0.053,42.44608092,-76.4723491,4,"$GNGGA,144846.000,4226.764855,N,07628.340946,W,4,30,0.39,270.861,M,-33.936,M,1.0,1849*6F"
1777733327.3434424,10:48:47.343,-0.0567,-0.0512,42.44608093,-76.4723491,4,"$GNGGA,144847.000,4226.764856,N,07628.340946,W,4,30,0.44,270.861,M,-33.936,M,1.0,1849*67"
1777733328.3380284,10:48:48.338,-0.0594,-0.0567,42.44608088,-76.47234913,4,"$GNGGA,144848.000,4226.764853,N,07628.340948,W,4,30,0.39,270.871,M,-33.936,M,1.0,1849*68"
1777733329.3424692,10:48:49.342,-0.0594,-0.0567,42.44608088,-76.47234913,4,"$GNGGA,144849.000,4226.764853,N,07628.340948,W,4,30,0.45,270.874,M,-33.937,M,1.0,1849*66"
1777733332.3192153,10:48:52.319,-0.0608,-0.0567,42.44608088,-76.47234915,4,"$GNGGA,144852.000,4226.764853,N,07628.340949,W,4,30,0.43,270.866,M,-33.936,M,1.0,1849*69"
1777733333.3560545,10:48:53.356,-0.0622,-0.0567,42.44608088,-76.47234917,4,"$GNGGA,144853.000,4226.764853,N,07628.340950,W,4,30,0.39,270.872,M,-33.936,M,1.0,1849*68"
1777733334.3184195,10:48:54.318,-0.0594,-0.0586,42.44608087,-76.47234913,4,"$GNGGA,144854.000,4226.764852,N,07628.340948,W,4,30,0.45,270.872,M,-33.936,M,1.0,1849*6C"
1777733335.3397896,10:48:55.339,-0.0622,-0.0586,42.44608087,-76.47234917,4,"$GNGGA,144855.000,4226.764852,N,07628.340950,W,4,30,0.48,270.872,M,-33.937,M,1.0,1849*68"
1777733336.3273876,10:48:56.327,-0.0594,-0.0549,42.4460809,-76.47234913,4,"$GNGGA,144856.000,4226.764854,N,07628.340948,W,4,30,0.49,270.865,M,-33.936,M,1.0,1849*62"
1777733337.351878,10:48:57.351,-0.0608,-0.0586,42.44608087,-76.47234915,4,"$GNGGA,144857.000,4226.764852,N,07628.340949,W,4,30,0.49,270.875,M,-33.936,M,1.0,1849*65"
1777733338.3178494,10:48:58.317,-0.0608,-0.0604,42.44608085,-76.47234915,4,"$GNGGA,144858.000,4226.764851,N,07628.340949,W,4,30,0.45,270.871,M,-33.937,M,1.0,1849*60"
1777733339.3459466,10:48:59.345,-0.0608,-0.0586,42.44608087,-76.47234915,4,"$GNGGA,144859.000,4226.764852,N,07628.340949,W,4,30,0.41,270.876,M,-33.936,M,1.0,1849*60"
1777733342.3373044,10:49:02.337,-0.0635,-0.0586,42.44608087,-76.47234918,4,"$GNGGA,144902.000,4226.764852,N,07628.340951,W,4,30,0.48,270.876,M,-33.936,M,1.0,1849*6F"
1777733343.348735,10:49:03.348,-0.0635,-0.0567,42.44608088,-76.47234918,4,"$GNGGA,144903.000,4226.764853,N,07628.340951,W,4,30,0.40,270.874,M,-33.937,M,1.0,1849*64"
1777733344.3358283,10:49:04.335,-0.0649,-0.0586,42.44608087,-76.4723492,4,"$GNGGA,144904.000,4226.764852,N,07628.340952,W,4,30,0.47,270.880,M,-33.936,M,1.0,1849*6C"
1777733345.3477764,10:49:05.347,-0.0635,-0.0586,42.44608087,-76.47234918,4,"$GNGGA,144905.000,4226.764852,N,07628.340951,W,4,30,0.40,270.874,M,-33.936,M,1.0,1849*62"
1777733346.335451,10:49:06.335,-0.0608,-0.0567,42.44608088,-76.47234915,4,"$GNGGA,144906.000,4226.764853,N,07628.340949,W,4,30,0.41,270.882,M,-33.937,M,1.0,1849*60"
1777733347.339042,10:49:07.339,-0.0608,-0.0586,42.44608087,-76.47234915,4,"$GNGGA,144907.000,4226.764852,N,07628.340949,W,4,30,0.41,270.877,M,-33.936,M,1.0,1849*6B"
1777733348.3409653,10:49:08.340,-0.058,-0.0586,42.44608087,-76.47234912,4,"$GNGGA,144908.000,4226.764852,N,07628.340947,W,4,30,0.48,270.874,M,-33.936,M,1.0,1849*60"
1777733349.3509016,10:49:09.350,-0.0649,-0.0604,42.44608085,-76.4723492,4,"$GNGGA,144909.000,4226.764851,N,07628.340952,W,4,30,0.42,270.881,M,-33.937,M,1.0,1849*67"
1777733352.3458111,10:49:12.345,-0.0622,-0.0604,42.44608085,-76.47234917,4,"$GNGGA,144912.000,4226.764851,N,07628.340950,W,4,30,0.47,270.873,M,-33.936,M,1.0,1849*66"
1777733353.3488414,10:49:13.348,-0.0635,-0.0586,42.44608087,-76.47234918,4,"$GNGGA,144913.000,4226.764852,N,07628.340951,W,4,30,0.45,270.878,M,-33.937,M,1.0,1849*6D"
1777733354.336451,10:49:14.336,-0.0635,-0.0586,42.44608087,-76.47234918,4,"$GNGGA,144914.000,4226.764852,N,07628.340951,W,4,30,0.40,270.876,M,-33.936,M,1.0,1849*60"
1777733355.3540764,10:49:15.354,-0.0635,-0.0567,42.44608088,-76.47234918,4,"$GNGGA,144915.000,4226.764853,N,07628.340951,W,4,30,0.42,270.877,M,-33.936,M,1.0,1849*63"
1777733356.325338,10:49:16.325,-0.0622,-0.0604,42.44608085,-76.47234917,4,"$GNGGA,144916.000,4226.764851,N,07628.340950,W,4,30,0.42,270.883,M,-33.936,M,1.0,1849*68"
1777733357.3333137,10:49:17.333,-0.0635,-0.0604,42.44608085,-76.47234918,4,"$GNGGA,144917.000,4226.764851,N,07628.340951,W,4,30,0.43,270.878,M,-33.936,M,1.0,1849*6D"
1777733358.3210392,10:49:18.321,-0.0635,-0.0641,42.44608082,-76.47234918,4,"$GNGGA,144918.000,4226.764849,N,07628.340951,W,4,30,0.42,270.884,M,-33.936,M,1.0,1849*69"
1777733359.3396432,10:49:19.339,-0.0608,-0.0604,42.44608085,-76.47234915,4,"$GNGGA,144919.000,4226.764851,N,07628.340949,W,4,30,0.42,270.879,M,-33.936,M,1.0,1849*6A"
1777733362.3595433,10:49:22.359,-0.0717,-0.0678,42.44608078,-76.47234928,4,"$GNGGA,144922.000,4226.764847,N,07628.340957,W,4,30,0.45,270.876,M,-33.937,M,1.0,1849*63"
1777733363.3464174,10:49:23.346,-0.0772,-0.0623,42.44608083,-76.47234935,4,"$GNGGA,144923.000,4226.764850,N,07628.340961,W,4,30,0.45,270.879,M,-33.936,M,1.0,1849*6F"
1777733364.325047,10:49:24.325,-0.08,-0.0623,42.44608083,-76.47234938,4,"$GNGGA,144924.000,4226.764850,N,07628.340963,W,4,30,0.46,270.882,M,-33.937,M,1.0,1849*6C"
1777733365.345121,10:49:25.345,-0.0827,-0.0623,42.44608083,-76.47234942,4,"$GNGGA,144925.000,4226.764850,N,07628.340965,W,4,30,0.40,270.882,M,-33.936,M,1.0,1849*6C"
1777733366.3287191,10:49:26.328,-0.0772,-0.0623,42.44608083,-76.47234935,4,"$GNGGA,144926.000,4226.764850,N,07628.340961,W,4,30,0.41,270.875,M,-33.936,M,1.0,1849*62"
1777733367.3414001,10:49:27.341,-0.0759,-0.0678,42.44608078,-76.47234933,4,"$GNGGA,144927.000,4226.764847,N,07628.340960,W,4,30,0.45,270.879,M,-33.936,M,1.0,1849*6C"
1777733368.3285635,10:49:28.328,-0.0923,-0.0641,42.44608082,-76.47234953,4,"$GNGGA,144928.000,4226.764849,N,07628.340972,W,4,30,0.46,270.886,M,-33.937,M,1.0,1849*6C"
1777733369.3476148,10:49:29.347,-0.0882,-0.0641,42.44608082,-76.47234948,4,"$GNGGA,144929.000,4226.764849,N,07628.340969,W,4,30,0.49,270.878,M,-33.937,M,1.0,1849*69"
1777733372.3180053,10:49:32.318,-0.1169,-0.0715,42.44608075,-76.47234983,4,"$GNGGA,144932.000,4226.764845,N,07628.340990,W,4,30,0.49,270.883,M,-33.937,M,1.0,1849*6D"
1777733373.346944,10:49:33.346,-0.1211,-0.0697,42.44608077,-76.47234988,4,"$GNGGA,144933.000,4226.764846,N,07628.340993,W,4,30,0.47,270.881,M,-33.936,M,1.0,1849*61"
1777733374.3081403,10:49:34.308,-0.1252,-0.0734,42.44608073,-76.47234993,4,"$GNGGA,144934.000,4226.764844,N,07628.340996,W,4,30,0.46,270.873,M,-33.937,M,1.0,1849*6C"
1777733375.335045,10:49:35.335,-0.1238,-0.0771,42.4460807,-76.47234992,4,"$GNGGA,144935.000,4226.764842,N,07628.340995,W,4,30,0.45,270.868,M,-33.937,M,1.0,1849*61"
1777733376.322736,10:49:36.322,-0.1293,-0.0734,42.44608073,-76.47234998,4,"$GNGGA,144936.000,4226.764844,N,07628.340999,W,4,30,0.46,270.879,M,-33.936,M,1.0,1849*6A"
1777733377.3324947,10:49:37.332,-0.1279,-0.0771,42.4460807,-76.47234997,4,"$GNGGA,144937.000,4226.764842,N,07628.340998,W,4,30,0.45,270.868,M,-33.936,M,1.0,1849*6F"
1777733378.317185,10:49:38.317,-0.1389,-0.0678,42.44608078,-76.4723501,4,"$GNGGA,144938.000,4226.764847,N,07628.341006,W,4,30,0.41,270.864,M,-33.936,M,1.0,1849*62"
1777733379.3325822,10:49:39.332,-0.1389,-0.0752,42.44608072,-76.4723501,4,"$GNGGA,144939.000,4226.764843,N,07628.341006,W,4,30,0.45,270.868,M,-33.937,M,1.0,1849*6E"
1777733382.3155992,10:49:42.315,-0.1471,-0.0808,42.44608067,-76.4723502,4,"$GNGGA,144942.000,4226.764840,N,07628.341012,W,4,30,0.39,270.865,M,-33.936,M,1.0,1849*63"
1777733383.33718,10:49:43.337,-0.1622,-0.0715,42.44608075,-76.47235038,4,"$GNGGA,144943.000,4226.764845,N,07628.341023,W,4,30,0.43,270.852,M,-33.937,M,1.0,1849*6D"
1777733384.3250098,10:49:44.325,-0.1512,-0.0734,42.44608073,-76.47235025,4,"$GNGGA,144944.000,4226.764844,N,07628.341015,W,4,30,0.39,270.862,M,-33.936,M,1.0,1849*61"
1777733385.3580856,10:49:45.358,-0.1663,-0.0678,42.44608078,-76.47235043,4,"$GNGGA,144945.000,4226.764847,N,07628.341026,W,4,30,0.39,270.870,M,-33.936,M,1.0,1849*60"
1777733386.3373287,10:49:46.337,-0.1608,-0.0734,42.44608073,-76.47235037,4,"$GNGGA,144946.000,4226.764844,N,07628.341022,W,4,30,0.39,270.867,M,-33.936,M,1.0,1849*62"
1777733387.352045,10:49:47.352,-0.1622,-0.0715,42.44608075,-76.47235038,4,"$GNGGA,144947.000,4226.764845,N,07628.341023,W,4,30,0.39,270.874,M,-33.936,M,1.0,1849*61"
1777733388.3327298,10:49:48.332,-0.1635,-0.0771,42.4460807,-76.4723504,4,"$GNGGA,144948.000,4226.764842,N,07628.341024,W,4,30,0.39,270.862,M,-33.937,M,1.0,1849*68"
1777733389.3607697,10:49:49.360,-0.18,-0.0715,42.44608075,-76.4723506,4,"$GNGGA,144949.000,4226.764845,N,07628.341036,W,4,30,0.39,270.870,M,-33.937,M,1.0,1849*6E"
1777733392.335377,10:49:52.335,-0.1772,-0.066,42.4460808,-76.47235057,4,"$GNGGA,144952.000,4226.764848,N,07628.341034,W,4,30,0.39,270.850,M,-33.936,M,1.0,1849*68"
1777733393.3430834,10:49:53.343,-0.2156,-0.0604,42.44608085,-76.47235103,4,"$GNGGA,144953.000,4226.764851,N,07628.341062,W,4,30,0.40,270.871,M,-33.937,M,1.0,1849*6E"
1777733394.3180714,10:49:54.318,-0.2224,-0.079,42.44608068,-76.47235112,4,"$GNGGA,144954.000,4226.764841,N,07628.341067,W,4,30,0.49,270.863,M,-33.937,M,1.0,1849*67"
1777733395.3402307,10:49:55.340,-0.2485,-0.0623,42.44608083,-76.47235143,4,"$GNGGA,144955.000,4226.764850,N,07628.341086,W,4,30,0.43,270.863,M,-33.936,M,1.0,1849*62"
1777733396.3277535,10:49:56.327,-0.2443,-0.0623,42.44608083,-76.47235138,4,"$GNGGA,144956.000,4226.764850,N,07628.341083,W,4,30,0.47,270.862,M,-33.937,M,1.0,1849*60"
1777733397.3468206,10:49:57.346,-0.2416,-0.0678,42.44608078,-76.47235135,4,"$GNGGA,144957.000,4226.764847,N,07628.341081,W,4,30,0.41,270.856,M,-33.936,M,1.0,1849*65"
1777733398.3336294,10:49:58.333,-0.2567,-0.0623,42.44608083,-76.47235153,4,"$GNGGA,144958.000,4226.764850,N,07628.341092,W,4,30,0.47,270.861,M,-33.936,M,1.0,1849*6C"
1777733399.3651628,10:49:59.365,-0.2567,-0.0641,42.44608082,-76.47235153,4,"$GNGGA,144959.000,4226.764849,N,07628.341092,W,4,30,0.46,270.858,M,-33.937,M,1.0,1849*6F"
1777733402.3454502,10:50:02.345,-0.2731,-0.066,42.4460808,-76.47235173,4,"$GNGGA,145002.000,4226.764848,N,07628.341104,W,4,30,0.40,270.873,M,-33.937,M,1.0,1849*69"
1777733403.3611784,10:50:03.361,-0.2567,-0.066,42.4460808,-76.47235153,4,"$GNGGA,145003.000,4226.764848,N,07628.341092,W,4,30,0.47,270.865,M,-33.936,M,1.0,1849*67"
1777733404.3258016,10:50:04.325,-0.2827,-0.0604,42.44608085,-76.47235185,4,"$GNGGA,145004.000,4226.764851,N,07628.341111,W,4,30,0.48,270.874,M,-33.936,M,1.0,1849*6D"
1777733405.3490286,10:50:05.349,-0.2827,-0.0641,42.44608082,-76.47235185,4,"$GNGGA,145005.000,4226.764849,N,07628.341111,W,4,30,0.46,270.874,M,-33.936,M,1.0,1849*6B"
1777733406.319019,10:50:06.319,-0.2745,-0.066,42.4460808,-76.47235175,4,"$GNGGA,145006.000,4226.764848,N,07628.341105,W,4,30,0.48,270.872,M,-33.936,M,1.0,1849*64"
1777733407.353139,10:50:07.353,-0.2841,-0.0623,42.44608083,-76.47235187,4,"$GNGGA,145007.000,4226.764850,N,07628.341112,W,4,30,0.45,270.871,M,-33.936,M,1.0,1849*64"
1777733408.3300827,10:50:08.330,-0.2868,-0.0678,42.44608078,-76.4723519,4,"$GNGGA,145008.000,4226.764847,N,07628.341114,W,4,30,0.45,270.874,M,-33.936,M,1.0,1849*6E"
1777733409.349724,10:50:09.349,-0.3046,-0.0549,42.4460809,-76.47235212,4,"$GNGGA,145009.000,4226.764854,N,07628.341127,W,4,30,0.44,270.868,M,-33.937,M,1.0,1849*60"
1777733412.3381793,10:50:12.338,-0.3265,-0.0604,42.44608085,-76.47235238,4,"$GNGGA,145012.000,4226.764851,N,07628.341143,W,4,30,0.39,270.870,M,-33.936,M,1.0,1849*6F"
1777733413.3430202,10:50:13.343,-0.3334,-0.0623,42.44608083,-76.47235247,4,"$GNGGA,145013.000,4226.764850,N,07628.341148,W,4,30,0.39,270.877,M,-33.936,M,1.0,1849*63"
1777733414.330657,10:50:14.330,-0.3279,-0.0604,42.44608085,-76.4723524,4,"$GNGGA,145014.000,4226.764851,N,07628.341144,W,4,30,0.39,270.868,M,-33.936,M,1.0,1849*67"
1777733415.3551552,10:50:15.355,-0.3512,-0.0678,42.44608078,-76.47235268,4,"$GNGGA,145015.000,4226.764847,N,07628.341161,W,4,30,0.39,270.861,M,-33.936,M,1.0,1849*6F"
1777733416.3436737,10:50:16.343,-0.3485,-0.0604,42.44608085,-76.47235265,4,"$GNGGA,145016.000,4226.764851,N,07628.341159,W,4,30,0.40,270.872,M,-33.936,M,1.0,1849*6C"
1777733417.3553267,10:50:17.355,-0.3635,-0.0641,42.44608082,-76.47235283,4,"$GNGGA,145017.000,4226.764849,N,07628.341170,W,4,30,0.42,270.876,M,-33.936,M,1.0,1849*69"
1777733418.3164287,10:50:18.316,-0.369,-0.0567,42.44608088,-76.4723529,4,"$GNGGA,145018.000,4226.764853,N,07628.341174,W,4,30,0.42,270.860,M,-33.936,M,1.0,1849*6E"
1777733419.337567,10:50:19.337,-0.3622,-0.0549,42.4460809,-76.47235282,4,"$GNGGA,145019.000,4226.764854,N,07628.341169,W,4,30,0.42,270.866,M,-33.937,M,1.0,1849*63"
1777733422.3248131,10:50:22.324,-0.3622,-0.0586,42.44608087,-76.47235282,4,"$GNGGA,145022.000,4226.764852,N,07628.341169,W,4,30,0.43,270.866,M,-33.936,M,1.0,1849*6D"
1777733423.334714,10:50:23.334,-0.3635,-0.0493,42.44608095,-76.47235283,4,"$GNGGA,145023.000,4226.764857,N,07628.341170,W,4,30,0.43,270.864,M,-33.937,M,1.0,1849*62"
1777733424.329543,10:50:24.329,-0.3594,-0.0567,42.44608088,-76.47235278,4,"$GNGGA,145024.000,4226.764853,N,07628.341167,W,4,30,0.40,270.874,M,-33.936,M,1.0,1849*64"
1777733425.355356,10:50:25.355,-0.358,-0.0549,42.4460809,-76.47235277,4,"$GNGGA,145025.000,4226.764854,N,07628.341166,W,4,30,0.40,270.870,M,-33.936,M,1.0,1849*67"
1777733426.324594,10:50:26.324,-0.3594,-0.0567,42.44608088,-76.47235278,4,"$GNGGA,145026.000,4226.764853,N,07628.341167,W,4,30,0.44,270.870,M,-33.936,M,1.0,1849*66"
1777733427.3469467,10:50:27.346,-0.358,-0.0512,42.44608093,-76.47235277,4,"$GNGGA,145027.000,4226.764856,N,07628.341166,W,4,30,0.40,270.878,M,-33.936,M,1.0,1849*6F"
1777733428.3319366,10:50:28.331,-0.3622,-0.0604,42.44608085,-76.47235282,4,"$GNGGA,145028.000,4226.764851,N,07628.341169,W,4,30,0.40,270.872,M,-33.937,M,1.0,1849*63"
1777733429.3534172,10:50:29.353,-0.3594,-0.0549,42.4460809,-76.47235278,4,"$GNGGA,145029.000,4226.764854,N,07628.341167,W,4,30,0.40,270.861,M,-33.936,M,1.0,1849*6A"
1777733432.3463626,10:50:32.346,-0.3608,-0.0549,42.4460809,-76.4723528,4,"$GNGGA,145032.000,4226.764854,N,07628.341168,W,4,30,0.42,270.869,M,-33.936,M,1.0,1849*65"
1777733433.3888986,10:50:33.388,-0.3704,-0.0586,42.44608087,-76.47235292,4,"$GNGGA,145033.000,4226.764852,N,07628.341175,W,4,30,0.42,270.881,M,-33.936,M,1.0,1849*68"
1777733434.3249662,10:50:34.324,-0.3663,-0.0401,42.44608103,-76.47235287,4,"$GNGGA,145034.000,4226.764862,N,07628.341172,W,4,30,0.41,270.846,M,-33.936,M,1.0,1849*63"
1777733435.3499703,10:50:35.349,-0.3485,-0.0456,42.44608098,-76.47235265,4,"$GNGGA,145035.000,4226.764859,N,07628.341159,W,4,30,0.45,270.847,M,-33.936,M,1.0,1849*66"
1777733436.3173125,10:50:36.317,-0.3622,-0.0475,42.44608097,-76.47235282,4,"$GNGGA,145036.000,4226.764858,N,07628.341169,W,4,30,0.46,270.859,M,-33.937,M,1.0,1849*6A"
1777733437.3491886,10:50:37.349,-0.3622,-0.053,42.44608092,-76.47235282,4,"$GNGGA,145037.000,4226.764855,N,07628.341169,W,4,30,0.42,270.855,M,-33.936,M,1.0,1849*6F"
1777733438.3345692,10:50:38.334,-0.3649,-0.0512,42.44608093,-76.47235285,4,"$GNGGA,145038.000,4226.764856,N,07628.341171,W,4,30,0.40,270.857,M,-33.937,M,1.0,1849*6B"
1777733439.3431008,10:50:39.343,-0.3745,-0.0567,42.44608088,-76.47235297,4,"$GNGGA,145039.000,4226.764853,N,07628.341178,W,4,30,0.47,270.864,M,-33.936,M,1.0,1849*60"
1777733442.341272,10:50:42.341,-0.3663,-0.0623,42.44608083,-76.47235287,4,"$GNGGA,145042.000,4226.764850,N,07628.341172,W,4,31,0.46,270.847,M,-33.936,M,1.0,1849*64"
1777733443.3462775,10:50:43.346,-0.3704,-0.0641,42.44608082,-76.47235292,4,"$GNGGA,145043.000,4226.764849,N,07628.341175,W,4,31,0.47,270.856,M,-33.936,M,1.0,1849*6B"
1777733444.3357763,10:50:44.335,-0.3717,-0.0623,42.44608083,-76.47235293,4,"$GNGGA,145044.000,4226.764850,N,07628.341176,W,4,31,0.46,270.857,M,-33.937,M,1.0,1849*66"
1777733445.374651,10:50:45.374,-0.3704,-0.0604,42.44608085,-76.47235292,4,"$GNGGA,145045.000,4226.764851,N,07628.341175,W,4,31,0.46,270.854,M,-33.936,M,1.0,1849*67"
1777733446.2977524,10:50:46.297,-0.3786,-0.0586,42.44608087,-76.47235302,4,"$GNGGA,145046.000,4226.764852,N,07628.341181,W,4,31,0.48,270.821,M,-33.936,M,1.0,1849*60"
1777733447.3246067,10:50:47.324,-0.3663,-0.0586,42.44608087,-76.47235287,4,"$GNGGA,145047.000,4226.764852,N,07628.341172,W,4,31,0.47,270.831,M,-33.937,M,1.0,1849*62"
1777733448.3137517,10:50:48.313,-0.3717,-0.0586,42.44608087,-76.47235293,4,"$GNGGA,145048.000,4226.764852,N,07628.341176,W,4,31,0.46,270.820,M,-33.936,M,1.0,1849*69"
1777733449.3216865,10:50:49.321,-0.3813,-0.0604,42.44608085,-76.47235305,4,"$GNGGA,145049.000,4226.764851,N,07628.341183,W,4,31,0.46,270.830,M,-33.936,M,1.0,1849*60"
1777733452.3187375,10:50:52.318,-0.395,-0.0604,42.44608085,-76.47235322,4,"$GNGGA,145052.000,4226.764851,N,07628.341193,W,4,31,0.45,270.845,M,-33.936,M,1.0,1849*6A"
1777733453.322875,10:50:53.322,-0.4224,-0.0641,42.44608082,-76.47235355,4,"$GNGGA,145053.000,4226.764849,N,07628.341213,W,4,31,0.45,270.857,M,-33.936,M,1.0,1849*6A"
1777733454.3117507,10:50:54.311,-0.4183,-0.066,42.4460808,-76.4723535,4,"$GNGGA,145054.000,4226.764848,N,07628.341210,W,4,31,0.46,270.838,M,-33.936,M,1.0,1849*65"
1777733455.3267488,10:50:55.326,-0.4279,-0.0678,42.44608078,-76.47235362,4,"$GNGGA,145055.000,4226.764847,N,07628.341217,W,4,31,0.48,270.860,M,-33.936,M,1.0,1849*6F"
1777733456.3206158,10:50:56.320,-0.4279,-0.0715,42.44608075,-76.47235362,4,"$GNGGA,145056.000,4226.764845,N,07628.341217,W,4,31,0.50,270.849,M,-33.937,M,1.0,1849*6D"
1777733457.320513,10:50:57.320,-0.443,-0.0678,42.44608078,-76.4723538,4,"$GNGGA,145057.000,4226.764847,N,07628.341228,W,4,31,0.49,270.858,M,-33.937,M,1.0,1849*6A"
1777733458.3396015,10:50:58.339,-0.443,-0.0697,42.44608077,-76.4723538,4,"$GNGGA,145058.000,4226.764846,N,07628.341228,W,4,31,0.45,270.848,M,-33.936,M,1.0,1849*68"
1777733459.3376143,10:50:59.337,-0.4567,-0.066,42.4460808,-76.47235397,4,"$GNGGA,145059.000,4226.764848,N,07628.341238,W,4,31,0.45,270.851,M,-33.937,M,1.0,1849*6F"
1777733462.3317957,10:51:02.331,-0.4457,-0.0697,42.44608077,-76.47235383,4,"$GNGGA,145102.000,4226.764846,N,07628.341230,W,4,31,0.40,270.857,M,-33.937,M,1.0,1849*65"
1777733463.3612125,10:51:03.361,-0.4539,-0.0549,42.4460809,-76.47235393,4,"$GNGGA,145103.000,4226.764854,N,07628.341236,W,4,31,0.40,270.847,M,-33.936,M,1.0,1849*61"
1777733464.3412552,10:51:04.341,-0.4526,-0.066,42.4460808,-76.47235392,4,"$GNGGA,145104.000,4226.764848,N,07628.341235,W,4,31,0.40,270.852,M,-33.936,M,1.0,1849*6C"
1777733465.3530457,10:51:05.353,-0.4457,-0.0641,42.44608082,-76.47235383,4,"$GNGGA,145105.000,4226.764849,N,07628.341230,W,4,31,0.44,270.840,M,-33.936,M,1.0,1849*6E"
1777733466.3303387,10:51:06.330,-0.4539,-0.0586,42.44608087,-76.47235393,4,"$GNGGA,145106.000,4226.764852,N,07628.341236,W,4,31,0.40,270.848,M,-33.936,M,1.0,1849*6D"
1777733467.348162,10:51:07.348,-0.4471,-0.0604,42.44608085,-76.47235385,4,"$GNGGA,145107.000,4226.764851,N,07628.341231,W,4,31,0.45,270.844,M,-33.936,M,1.0,1849*61"
1777733468.3378236,10:51:08.337,-0.4676,-0.0549,42.4460809,-76.4723541,4,"$GNGGA,145108.000,4226.764854,N,07628.341246,W,4,31,0.40,270.834,M,-33.936,M,1.0,1849*69"
1777733469.365528,10:51:09.365,-0.4745,-0.0549,42.4460809,-76.47235418,4,"$GNGGA,145109.000,4226.764854,N,07628.341251,W,4,31,0.44,270.843,M,-33.937,M,1.0,1849*6B"
1777733472.330439,10:51:12.330,-0.4663,-0.0586,42.44608087,-76.47235408,4,"$GNGGA,145112.000,4226.764852,N,07628.341245,W,4,31,0.44,270.845,M,-33.936,M,1.0,1849*65"
1777733473.3706388,10:51:13.370,-0.469,-0.0641,42.44608082,-76.47235412,4,"$GNGGA,145113.000,4226.764849,N,07628.341247,W,4,31,0.38,270.844,M,-33.936,M,1.0,1849*66"
1777733474.3597298,10:51:14.359,-0.4704,-0.0641,42.44608082,-76.47235413,4,"$GNGGA,145114.000,4226.764849,N,07628.341248,W,4,31,0.46,270.838,M,-33.936,M,1.0,1849*6C"
1777733475.3760202,10:51:15.376,-0.4663,-0.0641,42.44608082,-76.47235408,4,"$GNGGA,145115.000,4226.764849,N,07628.341245,W,4,31,0.45,270.835,M,-33.937,M,1.0,1849*6F"
1777733476.364489,10:51:16.364,-0.4676,-0.0697,42.44608077,-76.4723541,4,"$GNGGA,145116.000,4226.764846,N,07628.341246,W,4,31,0.38,270.837,M,-33.936,M,1.0,1849*69"
1777733477.3595796,10:51:17.359,-0.4635,-0.0715,42.44608075,-76.47235405,4,"$GNGGA,145117.000,4226.764845,N,07628.341243,W,4,31,0.43,270.842,M,-33.936,M,1.0,1849*60"
1777733478.343195,10:51:18.343,-0.4608,-0.0715,42.44608075,-76.47235402,4,"$GNGGA,145118.000,4226.764845,N,07628.341241,W,4,31,0.40,270.850,M,-33.936,M,1.0,1849*6D"
1777733479.3459504,10:51:19.345,-0.4608,-0.0771,42.4460807,-76.47235402,4,"$GNGGA,145119.000,4226.764842,N,07628.341241,W,4,31,0.45,270.851,M,-33.936,M,1.0,1849*6F"
1777733482.3246503,10:51:22.324,-0.458,-0.0808,42.44608067,-76.47235398,4,"$GNGGA,145122.000,4226.764840,N,07628.341239,W,4,31,0.45,270.845,M,-33.936,M,1.0,1849*6F"
1777733483.3433146,10:51:23.343,-0.4539,-0.0827,42.44608065,-76.47235393,4,"$GNGGA,145123.000,4226.764839,N,07628.341236,W,4,31,0.46,270.855,M,-33.937,M,1.0,1849*6C"
1777733484.3313825,10:51:24.331,-0.4608,-0.0864,42.44608062,-76.47235402,4,"$GNGGA,145124.000,4226.764837,N,07628.341241,W,4,31,0.46,270.851,M,-33.936,M,1.0,1849*60"
1777733485.3379505,10:51:25.337,-0.4526,-0.0882,42.4460806,-76.47235392,4,"$GNGGA,145125.000,4226.764836,N,07628.341235,W,4,31,0.45,270.842,M,-33.937,M,1.0,1849*63"
1777733486.321966,10:51:26.321,-0.4512,-0.0845,42.44608063,-76.4723539,4,"$GNGGA,145126.000,4226.764838,N,07628.341234,W,4,31,0.44,270.846,M,-33.937,M,1.0,1849*6A"
1777733487.3401413,10:51:27.340,-0.4471,-0.0882,42.4460806,-76.47235385,4,"$GNGGA,145127.000,4226.764836,N,07628.341231,W,4,31,0.45,270.856,M,-33.936,M,1.0,1849*61"
1777733488.341335,10:51:28.341,-0.4485,-0.0919,42.44608057,-76.47235387,4,"$GNGGA,145128.000,4226.764834,N,07628.341232,W,4,31,0.39,270.850,M,-33.936,M,1.0,1849*62"
1777733489.367368,10:51:29.367,-0.4485,-0.1012,42.44608048,-76.47235387,4,"$GNGGA,145129.000,4226.764829,N,07628.341232,W,4,31,0.39,270.856,M,-33.936,M,1.0,1849*69"
1777733492.3527212,10:51:32.352,-0.4416,-0.103,42.44608047,-76.47235378,4,"$GNGGA,145132.000,4226.764828,N,07628.341227,W,4,31,0.44,270.851,M,-33.937,M,1.0,1849*6A"
1777733493.3763912,10:51:33.376,-0.4375,-0.1086,42.44608042,-76.47235373,4,"$GNGGA,145133.000,4226.764825,N,07628.341224,W,4,31,0.39,270.859,M,-33.936,M,1.0,1849*66"
1777733494.3326862,10:51:34.332,-0.4348,-0.1067,42.44608043,-76.4723537,4,"$GNGGA,145134.000,4226.764826,N,07628.341222,W,4,31,0.40,270.848,M,-33.937,M,1.0,1849*6B"
1777733495.3586462,10:51:35.358,-0.4348,-0.1141,42.44608037,-76.4723537,4,"$GNGGA,145135.000,4226.764822,N,07628.341222,W,4,31,0.40,270.851,M,-33.937,M,1.0,1849*66"
1777733496.3476777,10:51:36.347,-0.432,-0.1104,42.4460804,-76.47235367,4,"$GNGGA,145136.000,4226.764824,N,07628.341220,W,4,31,0.40,270.853,M,-33.936,M,1.0,1849*62"
1777733497.3576713,10:51:37.357,-0.4279,-0.1141,42.44608037,-76.47235362,4,"$GNGGA,145137.000,4226.764822,N,07628.341217,W,4,31,0.39,270.855,M,-33.937,M,1.0,1849*68"
1777733498.3333578,10:51:38.333,-0.4279,-0.1141,42.44608037,-76.47235362,4,"$GNGGA,145138.000,4226.764822,N,07628.341217,W,4,31,0.39,270.852,M,-33.936,M,1.0,1849*61"
1777733499.3650284,10:51:39.365,-0.4293,-0.1104,42.4460804,-76.47235363,4,"$GNGGA,145139.000,4226.764824,N,07628.341218,W,4,31,0.40,270.857,M,-33.936,M,1.0,1849*62"
1777733502.3548813,10:51:42.354,-0.4197,-0.1123,42.44608038,-76.47235352,4,"$GNGGA,145142.000,4226.764823,N,07628.341211,W,4,31,0.38,270.861,M,-33.937,M,1.0,1849*6B"
1777733503.3626878,10:51:43.362,-0.4238,-0.1178,42.44608033,-76.47235357,4,"$GNGGA,145143.000,4226.764820,N,07628.341214,W,4,31,0.38,270.861,M,-33.936,M,1.0,1849*6D"
1777733504.3424914,10:51:44.342,-0.4128,-0.1178,42.44608033,-76.47235343,4,"$GNGGA,145144.000,4226.764820,N,07628.341206,W,4,31,0.39,270.860,M,-33.937,M,1.0,1849*68"
1777733505.3478723,10:51:45.347,-0.4169,-0.1178,42.44608033,-76.47235348,4,"$GNGGA,145145.000,4226.764820,N,07628.341209,W,4,31,0.39,270.848,M,-33.937,M,1.0,1849*6C"
1777733506.3370335,10:51:46.337,-0.4074,-0.1253,42.44608027,-76.47235337,4,"$GNGGA,145146.000,4226.764816,N,07628.341202,W,4,31,0.43,270.859,M,-33.936,M,1.0,1849*6D"
1777733507.3486748,10:51:47.348,-0.4142,-0.1216,42.4460803,-76.47235345,4,"$GNGGA,145147.000,4226.764818,N,07628.341207,W,4,31,0.45,270.860,M,-33.936,M,1.0,1849*6B"
1777733508.337843,10:51:48.337,-0.4101,-0.1253,42.44608027,-76.4723534,4,"$GNGGA,145148.000,4226.764816,N,07628.341204,W,4,31,0.49,270.874,M,-33.936,M,1.0,1849*60"
1777733509.368489,10:51:49.368,-0.406,-0.1216,42.4460803,-76.47235335,4,"$GNGGA,145149.000,4226.764818,N,07628.341201,W,4,31,0.40,270.864,M,-33.936,M,1.0,1849*62"
1777733512.3384628,10:51:52.338,-0.3937,-0.1234,42.44608028,-76.4723532,4,"$GNGGA,145152.000,4226.764817,N,07628.341192,W,4,31,0.41,270.839,M,-33.936,M,1.0,1849*67"
1777733513.3468857,10:51:53.346,-0.3882,-0.1178,42.44608033,-76.47235313,4,"$GNGGA,145153.000,4226.764820,N,07628.341188,W,4,31,0.46,270.855,M,-33.936,M,1.0,1849*64"
1777733514.3386106,10:51:54.338,-0.3813,-0.129,42.44608023,-76.47235305,4,"$GNGGA,145154.000,4226.764814,N,07628.341183,W,4,31,0.41,270.846,M,-33.937,M,1.0,1849*6B"
1777733515.362408,10:51:55.362,-0.3827,-0.1234,42.44608028,-76.47235307,4,"$GNGGA,145155.000,4226.764817,N,07628.341184,W,4,31,0.40,270.837,M,-33.936,M,1.0,1849*68"
1777733516.351453,10:51:56.351,-0.3786,-0.1234,42.44608028,-76.47235302,4,"$GNGGA,145156.000,4226.764817,N,07628.341181,W,4,31,0.41,270.836,M,-33.937,M,1.0,1849*6F"
1777733517.333628,10:51:57.333,-0.3758,-0.1178,42.44608033,-76.47235298,4,"$GNGGA,145157.000,4226.764820,N,07628.341179,W,4,31,0.41,270.846,M,-33.936,M,1.0,1849*6B"
1777733518.3225396,10:51:58.322,-0.38,-0.1178,42.44608033,-76.47235303,4,"$GNGGA,145158.000,4226.764820,N,07628.341182,W,4,31,0.41,270.843,M,-33.936,M,1.0,1849*65"
1777733519.339028,10:51:59.339,-0.3717,-0.1197,42.44608032,-76.47235293,4,"$GNGGA,145159.000,4226.764819,N,07628.341176,W,4,31,0.41,270.852,M,-33.937,M,1.0,1849*64"
1777733522.3380582,10:52:02.338,-0.3676,-0.1216,42.4460803,-76.47235288,4,"$GNGGA,145202.000,4226.764818,N,07628.341173,W,4,31,0.48,270.853,M,-33.937,M,1.0,1849*65"
1777733523.3706675,10:52:03.370,-0.3676,-0.1197,42.44608032,-76.47235288,4,"$GNGGA,145203.000,4226.764819,N,07628.341173,W,4,31,0.41,270.861,M,-33.936,M,1.0,1849*6C"
1777733524.3344579,10:52:04.334,-0.3676,-0.1197,42.44608032,-76.47235288,4,"$GNGGA,145204.000,4226.764819,N,07628.341173,W,4,31,0.41,270.856,M,-33.937,M,1.0,1849*6E"
1777733525.362474,10:52:05.362,-0.3731,-0.116,42.44608035,-76.47235295,4,"$GNGGA,145205.000,4226.764821,N,07628.341177,W,4,31,0.41,270.851,M,-33.936,M,1.0,1849*66"
1777733526.3514814,10:52:06.351,-0.369,-0.1271,42.44608025,-76.4723529,4,"$GNGGA,145206.000,4226.764815,N,07628.341174,W,4,31,0.41,270.858,M,-33.936,M,1.0,1849*68"
1777733527.3357294,10:52:07.335,-0.3622,-0.1197,42.44608032,-76.47235282,4,"$GNGGA,145207.000,4226.764819,N,07628.341169,W,4,31,0.48,270.862,M,-33.937,M,1.0,1849*68"
1777733528.3248594,10:52:08.324,-0.3608,-0.1178,42.44608033,-76.4723528,4,"$GNGGA,145208.000,4226.764820,N,07628.341168,W,4,31,0.48,270.859,M,-33.937,M,1.0,1849*64"
1777733529.3578625,10:52:09.357,-0.3622,-0.1178,42.44608033,-76.47235282,4,"$GNGGA,145209.000,4226.764820,N,07628.341169,W,4,31,0.41,270.855,M,-33.936,M,1.0,1849*60"
1777733532.3303583,10:52:12.330,-0.3608,-0.116,42.44608035,-76.4723528,4,"$GNGGA,145212.000,4226.764821,N,07628.341168,W,4,31,0.40,270.857,M,-33.936,M,1.0,1849*69"
1777733533.3609374,10:52:13.360,-0.3622,-0.116,42.44608035,-76.47235282,4,"$GNGGA,145213.000,4226.764821,N,07628.341169,W,4,31,0.41,270.849,M,-33.936,M,1.0,1849*67"
1777733534.3499398,10:52:14.349,-0.358,-0.1234,42.44608028,-76.47235277,4,"$GNGGA,145214.000,4226.764817,N,07628.341166,W,4,31,0.42,270.850,M,-33.936,M,1.0,1849*61"
1777733535.3546343,10:52:15.354,-0.3608,-0.1178,42.44608033,-76.4723528,4,"$GNGGA,145215.000,4226.764820,N,07628.341168,W,4,31,0.42,270.850,M,-33.936,M,1.0,1849*6A"
1777733536.3473773,10:52:16.347,-0.3608,-0.1178,42.44608033,-76.4723528,4,"$GNGGA,145216.000,4226.764820,N,07628.341168,W,4,31,0.42,270.853,M,-33.937,M,1.0,1849*6B"
1777733537.3524923,10:52:17.352,-0.3622,-0.1178,42.44608033,-76.47235282,4,"$GNGGA,145217.000,4226.764820,N,07628.341169,W,4,31,0.43,270.850,M,-33.936,M,1.0,1849*68"
1777733538.3454244,10:52:18.345,-0.3622,-0.1178,42.44608033,-76.47235282,4,"$GNGGA,145218.000,4226.764820,N,07628.341169,W,4,31,0.41,270.854,M,-33.936,M,1.0,1849*61"
1777733539.3612182,10:52:19.361,-0.3649,-0.1234,42.44608028,-76.47235285,4,"$GNGGA,145219.000,4226.764817,N,07628.341171,W,4,31,0.45,270.862,M,-33.936,M,1.0,1849*6C"
1777733542.3365178,10:52:22.336,-0.3594,-0.1216,42.4460803,-76.47235278,4,"$GNGGA,145222.000,4226.764818,N,07628.341167,W,4,31,0.47,270.868,M,-33.937,M,1.0,1849*65"
